{"cluster_id": 100, "name": "YOUNG BUCKS DEVELOPMENT LLC", "entity_count": 21, "parcel_count": 77, "total_market_value": 13120000, "total_acres": 2.1, "owner_names": ["BIG SAP LLC", "CEPHAS PROPERTIES LLC", "D J PROPERIES OF TENNESSEE LLC", "D J PROPERTIES OF TENN", "D J PROPERTIES OF TN LLC", "DALE AVENUE LLC", "GAMI PARTNERS LLC", "GAW DAVID W FAMILY LIMITED PARTNERSHIP THE", "GW PROPERTIES LLC", "NASHVILLE INTOWN DEVELOPENT CO LLC", "NASHVILLE INTOWN DEVELOPMENT CO LLC", "O I C 193 ANTIOCH HOMES AMENDED", "O I C 201 ANTIOCH HOMES", "O I C HOMES AT 2109 B 23RD AVENUE NORT", "O I C HOMES AT 2115 24TH AVENUE NORTH", "RICHLAND INVESTMENT PARTNERS II LLC", "RICHLAND INVESTMENT PARTNERS LLC", "WEST NASHVILLE DEVELOPMENT CO LLC", "WISDOM ROCK LLC", "YELLOW BALL LLC", "YOUNG BUCKS DEVELOPMENT LLC"], "registered_agents": [], "principal_offices": [], "primary_sos_status": "", "primary_foreign_state": "", "brand": "", "opencorporates": "https://opencorporates.com/companies?q=YOUNG+BUCKS+DEVELOPMENT+LLC&utf8=%E2%9C%93", "primary_type": "", "portfolio": {"n_parcels_with_acs": 32, "median_income": 68525, "median_home_value": 437541, "pct_renter": 51, "pct_poverty": null, "pct_vacant": 6, "pct_black": 45, "pct_white": 42, "pct_hispanic": 7, "pct_asian": 0}, "related": [{"owner": "RICHLAND INVESTMENT PARTNERS II LLC", "parcels": 11, "via": "mailing address"}, {"owner": "WISDOM ROCK LLC", "parcels": 9, "via": "mailing address"}, {"owner": "NASHVILLE INTOWN DEVELOPMENT CO LLC", "parcels": 7, "via": "mailing address"}, {"owner": "CEPHAS PROPERTIES LLC", "parcels": 6, "via": "mailing address"}, {"owner": "GAMI PARTNERS LLC", "parcels": 4, "via": "mailing address"}, {"owner": "RICHLAND INVESTMENT PARTNERS LLC", "parcels": 4, "via": "mailing address"}, {"owner": "D J PROPERIES OF TENNESSEE LLC", "parcels": 2, "via": "mailing address"}, {"owner": "DALE AVENUE LLC", "parcels": 2, "via": "mailing address"}, {"owner": "D J PROPERTIES OF TN LLC", "parcels": 2, "via": "mailing address"}, {"owner": "GW PROPERTIES LLC", "parcels": 2, "via": "mailing address"}, {"owner": "GAW DAVID W FAMILY LIMITED PARTNERSHIP THE", "parcels": 2, "via": "mailing address"}, {"owner": "BIG SAP LLC", "parcels": 2, "via": "mailing address"}, {"owner": "YELLOW BALL LLC", "parcels": 1, "via": "mailing address"}, {"owner": "D J PROPERTIES OF TENN", "parcels": 1, "via": "mailing address"}, {"owner": "O I C HOMES AT 2109 B 23RD AVENUE NORT", "parcels": 1, "via": "mailing address"}, {"owner": "WEST NASHVILLE DEVELOPMENT CO LLC", "parcels": 1, "via": "mailing address"}, {"owner": "O I C 193 ANTIOCH HOMES AMENDED", "parcels": 1, "via": "mailing address"}, {"owner": "O I C 201 ANTIOCH HOMES", "parcels": 1, "via": "mailing address"}, {"owner": "O I C HOMES AT 2115 24TH AVENUE NORTH", "parcels": 1, "via": "mailing address"}, {"owner": "NASHVILLE INTOWN DEVELOPENT CO LLC", "parcels": 1, "via": "mailing address"}], "parcels": [{"parcel_id": "113773", "address": "642 ANNEX AVE", "lat": "36.161664", "lon": "-86.875843", "sale_price": 203000.0, "sale_date": "31 Mar 2017", "market_value": 393800.0, "beds": 3.0, "bath": 1.0, "sqft": 1050.0, "year_built": "1970", "acres": 0.19}, {"parcel_id": "114865", "address": "", "lat": "", "lon": ""}, {"parcel_id": "115358", "address": "", "lat": "", "lon": ""}, {"parcel_id": "115868", "address": "", "lat": "", "lon": ""}, {"parcel_id": "116306", "address": "", "lat": "", "lon": ""}, {"parcel_id": "117198", "address": "5707 TENNESSEE AVE", "lat": "36.160471", "lon": "-86.857522", "sale_price": 325000.0, "sale_date": "7 Apr 2021", "market_value": 470500.0, "beds": 2.0, "bath": 1.0, "sqft": 1147.0, "year_built": "1990", "acres": 0.16}, {"parcel_id": "117875", "address": "6364 IVY ST", "lat": "36.154483", "lon": "-86.872975", "sale_price": 200000.0, "sale_date": "30 Aug 2019", "market_value": 373500.0, "beds": 1.0, "bath": 1.0, "sqft": 648.0, "year_built": "1930", "acres": 0.22}, {"parcel_id": "118170", "address": "", "lat": "", "lon": ""}, {"parcel_id": "118256", "address": "", "lat": "", "lon": ""}, {"parcel_id": "127867", "address": "", "lat": "", "lon": ""}, {"parcel_id": "134752", "address": "83 LEWIS ST", "lat": "36.150728", "lon": "-86.757891", "sale_price": 70000.0, "sale_date": "22 Feb 2016", "market_value": 212200.0, "beds": 3.0, "bath": 1.0, "sqft": 984.0, "year_built": "1990", "acres": 0.05}, {"parcel_id": "161751", "address": "", "lat": "", "lon": ""}, {"parcel_id": "165550", "address": "", "lat": "", "lon": ""}, {"parcel_id": "165770", "address": "650 WEDGEWOOD AVE", "lat": "36.135272", "lon": "-86.772108", "sale_price": -1.0, "sale_date": "", "market_value": 3052500.0, "beds": 0.0, "bath": 0.0, "sqft": 15340.0, "year_built": "2005", "acres": 0.92}, {"parcel_id": "166395", "address": "", "lat": "", "lon": ""}, {"parcel_id": "166396", "address": "", "lat": "", "lon": ""}, {"parcel_id": "167766", "address": "2137 SADLER AVE", "lat": "36.127317", "lon": "-86.747776", "sale_price": 255000.0, "sale_date": "13 Sep 2022", "market_value": 264600.0, "beds": 3.0, "bath": 1.0, "sqft": 847.0, "year_built": "1940", "acres": 0.19}, {"parcel_id": "190378", "address": "", "lat": "", "lon": ""}, {"parcel_id": "190380", "address": "2213 WICKSON AVE", "lat": "36.12463", "lon": "-86.747456"}, {"parcel_id": "190396", "address": "2220 WICKSON AVE", "lat": "36.1244", "lon": "-86.746851", "sale_price": -1.0, "sale_date": "", "market_value": 244800.0, "beds": 2.0, "bath": 1.0, "sqft": 900.0, "year_built": "1945", "acres": 0.13}, {"parcel_id": "192202", "address": "2213 SADLER AVE", "lat": "36.124713", "lon": "-86.748684", "sale_price": 200000.0, "sale_date": "30 Aug 2019", "market_value": 264200.0, "beds": 2.0, "bath": 1.0, "sqft": 768.0, "year_built": "1970", "acres": 0.22}, {"parcel_id": "192219", "address": "", "lat": "", "lon": ""}, {"parcel_id": "210720", "address": "", "lat": "", "lon": ""}, {"parcel_id": "210729", "address": "", "lat": "", "lon": ""}, {"parcel_id": "212025", "address": "", "lat": "", "lon": ""}, {"parcel_id": "402563", "address": "", "lat": "", "lon": ""}, {"parcel_id": "406393", "address": "", "lat": "", "lon": ""}, {"parcel_id": "448527", "address": "1106D BUCHANAN ST", "lat": "36.180462", "lon": "-86.805476", "sale_price": -1.0, "sale_date": "", "market_value": 543300.0, "beds": 4.0, "bath": 4.0, "sqft": 1725.0, "year_built": "2021", "acres": null}, {"parcel_id": "448528", "address": "1106C BUCHANAN ST", "lat": "36.180473", "lon": "-86.805413", "sale_price": -1.0, "sale_date": "", "market_value": 586900.0, "beds": 4.0, "bath": 4.0, "sqft": 1934.0, "year_built": "2021", "acres": null}, {"parcel_id": "448529", "address": "1106 BUCHANAN ST", "lat": "36.180469", "lon": "-86.805344", "sale_price": -1.0, "sale_date": "", "market_value": 543300.0, "beds": 4.0, "bath": 4.0, "sqft": 1725.0, "year_built": "2021", "acres": null}, {"parcel_id": "448530", "address": "1106A BUCHANAN ST", "lat": "36.180479", "lon": "-86.805281", "sale_price": -1.0, "sale_date": "", "market_value": 586900.0, "beds": 4.0, "bath": 4.0, "sqft": 1934.0, "year_built": "2021", "acres": null}, {"parcel_id": "450398", "address": "", "lat": "", "lon": ""}, {"parcel_id": "450399", "address": "", "lat": "", "lon": ""}, {"parcel_id": "452243", "address": "2109 23RD AVE N", "lat": "36.184824", "lon": "-86.81442"}, {"parcel_id": "452673", "address": "", "lat": "", "lon": ""}, {"parcel_id": "454410", "address": "2106A 24TH AVE N", "lat": "36.185167", "lon": "-86.815423", "sale_price": -1.0, "sale_date": "", "market_value": 434900.0, "beds": 3.0, "bath": 3.0, "sqft": 1368.0, "year_built": "2023", "acres": null}, {"parcel_id": "454413", "address": "2106D 24TH AVE N", "lat": "36.185138", "lon": "-86.815225", "sale_price": -1.0, "sale_date": "", "market_value": 550900.0, "beds": 4.0, "bath": 4.0, "sqft": 1932.0, "year_built": "2023", "acres": null}, {"parcel_id": "454414", "address": "2106 24TH AVE N", "lat": "36.18513", "lon": "-86.815138", "sale_price": -1.0, "sale_date": "", "market_value": 550900.0, "beds": 4.0, "bath": 4.0, "sqft": 1932.0, "year_built": "2023", "acres": null}, {"parcel_id": "454418", "address": "2106I 24TH AVE N", "lat": "36.184991", "lon": "-86.814788", "sale_price": -1.0, "sale_date": "", "market_value": 497900.0, "beds": 4.0, "bath": 4.0, "sqft": 1652.0, "year_built": "2023", "acres": null}, {"parcel_id": "454419", "address": "2106J 24TH AVE N", "lat": "36.184939", "lon": "-86.814802", "sale_price": -1.0, "sale_date": "", "market_value": 550900.0, "beds": 4.0, "bath": 4.0, "sqft": 1932.0, "year_built": "2023", "acres": null}, {"parcel_id": "454420", "address": "2106K 24TH AVE N", "lat": "36.184884", "lon": "-86.814808", "sale_price": -1.0, "sale_date": "", "market_value": 550900.0, "beds": 4.0, "bath": 4.0, "sqft": 1932.0, "year_built": "2023", "acres": null}, {"parcel_id": "454421", "address": "2106L 24TH AVE N", "lat": "36.184829", "lon": "-86.814813", "sale_price": -1.0, "sale_date": "", "market_value": 550900.0, "beds": 4.0, "bath": 4.0, "sqft": 1932.0, "year_built": "2023", "acres": null}, {"parcel_id": "454631", "address": "2109F 23RD AVE N", "lat": "36.184693", "lon": "-86.814281"}, {"parcel_id": "460835", "address": "2607 WHITES CREEK PIKE APT 3", "lat": "36.217142", "lon": "-86.802046"}, {"parcel_id": "460836", "address": "2607 WHITES CREEK PIKE APT 4", "lat": "36.217179", "lon": "-86.80198"}, {"parcel_id": "460837", "address": "2607 WHITES CREEK PIKE APT 5", "lat": "36.217217", "lon": "-86.801913"}, {"parcel_id": "460838", "address": "2607 WHITES CREEK PIKE APT 6", "lat": "36.217254", "lon": "-86.801848"}, {"parcel_id": "460839", "address": "2607 WHITES CREEK PIKE APT 7", "lat": "36.217291", "lon": "-86.801784"}, {"parcel_id": "460841", "address": "2607 WHITES CREEK PIKE APT 9", "lat": "36.21744", "lon": "-86.80147"}, {"parcel_id": "460842", "address": "2607 WHITES CREEK PIKE APT 10", "lat": "36.217482", "lon": "-86.801501"}, {"parcel_id": "460843", "address": "2607 WHITES CREEK PIKE APT 11", "lat": "36.217523", "lon": "-86.801532"}, {"parcel_id": "460844", "address": "2607 WHITES CREEK PIKE APT 12", "lat": "36.217605", "lon": "-86.801593"}, {"parcel_id": "460847", "address": "2607 WHITES CREEK PIKE APT 15", "lat": "36.217476", "lon": "-86.801921"}, {"parcel_id": "460848", "address": "2607 WHITES CREEK PIKE APT 16", "lat": "36.217437", "lon": "-86.801991"}, {"parcel_id": "460849", "address": "2607 WHITES CREEK PIKE APT 17", "lat": "36.2174", "lon": "-86.802057"}, {"parcel_id": "460850", "address": "2607 WHITES CREEK PIKE APT 18", "lat": "36.217363", "lon": "-86.802123"}, {"parcel_id": "461937", "address": "2115A COURTNEY AVE", "lat": "36.199068", "lon": "-86.836618", "sale_price": -1.0, "sale_date": "", "market_value": 633900.0, "beds": 3.0, "bath": 3.0, "sqft": 2474.0, "year_built": "2023", "acres": null}, {"parcel_id": "461938", "address": "2115B COURTNEY AVE", "lat": "36.199107", "lon": "-86.836573", "sale_price": -1.0, "sale_date": "", "market_value": 633900.0, "beds": 3.0, "bath": 3.0, "sqft": 2474.0, "year_built": "2023", "acres": null}, {"parcel_id": "463202", "address": "2117A COURTNEY AVE", "lat": "36.199189", "lon": "-86.836502", "sale_price": -1.0, "sale_date": "", "market_value": 628400.0, "beds": 3.0, "bath": 2.5, "sqft": 2290.0, "year_built": "2023", "acres": null}, {"parcel_id": "465161", "address": "193C ANTIOCH PIKE", "lat": "36.100687", "lon": "-86.732438"}, {"parcel_id": "465164", "address": "197C ANTIOCH PIKE", "lat": "36.100698", "lon": "-86.732606"}, {"parcel_id": "465273", "address": "2115 24TH AVE N UNIT 1", "lat": "36.185928", "lon": "-86.815695"}, {"parcel_id": "465274", "address": "2115 24TH AVE N UNIT 2", "lat": "36.185934", "lon": "-86.815763"}, {"parcel_id": "465275", "address": "2115 24TH AVE N UNIT 3", "lat": "36.185939", "lon": "-86.815829"}, {"parcel_id": "465276", "address": "2115 24TH AVE N UNIT 4", "lat": "36.185944", "lon": "-86.815895"}, {"parcel_id": "465277", "address": "2115 24TH AVE N UNIT 5", "lat": "36.185949", "lon": "-86.815962"}, {"parcel_id": "465278", "address": "2115 24TH AVE N UNIT 6", "lat": "36.185962", "lon": "-86.816129"}, {"parcel_id": "465279", "address": "2115 24TH AVE N UNIT 7", "lat": "36.185967", "lon": "-86.816197"}, {"parcel_id": "465280", "address": "2115 24TH AVE N UNIT 8", "lat": "36.185972", "lon": "-86.816264"}, {"parcel_id": "465281", "address": "2115 24TH AVE N UNIT 9", "lat": "36.185977", "lon": "-86.81633"}, {"parcel_id": "465282", "address": "2115 24TH AVE N UNIT 10", "lat": "36.185982", "lon": "-86.816396"}, {"parcel_id": "465283", "address": "2115B 24TH AVE N", "lat": "36.185892", "lon": "-86.816037"}, {"parcel_id": "90027", "address": "", "lat": "", "lon": ""}, {"parcel_id": "90251", "address": "", "lat": "", "lon": ""}, {"parcel_id": "90679", "address": "", "lat": "", "lon": ""}, {"parcel_id": "93171", "address": "", "lat": "", "lon": ""}, {"parcel_id": "94547", "address": "", "lat": "", "lon": ""}]}