{"cluster_id": 1031, "name": "MILLER RONALD O MAXINE W LIVING TRUST THE", "entity_count": 2, "parcel_count": 11, "total_market_value": 7246800, "total_acres": 1.9, "owner_names": ["MILLER RONALD O MAXINE W LIVING TRUST", "MILLER RONALD O MAXINE W LIVING TRUST THE"], "registered_agents": [], "principal_offices": [], "primary_sos_status": "", "primary_foreign_state": "", "brand": "", "opencorporates": "https://opencorporates.com/companies?q=MILLER+RONALD+O+MAXINE+W+LIVING+TRUST+THE&utf8=%E2%9C%93", "primary_type": "", "portfolio": {"n_parcels_with_acs": 11, "median_income": 131167, "median_home_value": 960410, "pct_renter": 47, "pct_poverty": null, "pct_vacant": 13, "pct_black": 22, "pct_white": 68, "pct_hispanic": 7, "pct_asian": 2}, "related": [{"owner": "MILLER RONALD O MAXINE W LIVING TRUST", "parcels": 1, "via": "mailing address"}], "parcels": [{"parcel_id": "121181", "address": "2607 ALBION ST", "lat": "36.164847", "lon": "-86.816826", "sale_price": -1.0, "sale_date": "", "market_value": 221900.0, "beds": 3.0, "bath": 1.0, "sqft": 650.0, "year_built": "1948", "acres": 0.15}, {"parcel_id": "162142", "address": "905 VILLA PL", "lat": "36.147619", "lon": "-86.791466", "sale_price": -1.0, "sale_date": "", "market_value": 1090000.0, "beds": 3.0, "bath": 3.0, "sqft": 2727.5, "year_built": "2000", "acres": 0.17}, {"parcel_id": "162531", "address": "1017 15TH AVE S", "lat": "36.145318", "lon": "-86.790685", "sale_price": -1.0, "sale_date": "", "market_value": 724500.0, "beds": 6.0, "bath": 2.0, "sqft": 3193.0, "year_built": "1930", "acres": 0.17}, {"parcel_id": "162752", "address": "1313 TREMONT ST", "lat": "36.143899", "lon": "-86.79059", "sale_price": -1.0, "sale_date": "", "market_value": 714900.0, "beds": 3.0, "bath": 1.0, "sqft": 1802.0, "year_built": "2000", "acres": 0.19}, {"parcel_id": "163147", "address": "1802 15TH AVE S", "lat": "36.135603", "lon": "-86.79165", "sale_price": -1.0, "sale_date": "", "market_value": 1181500.0, "beds": 4.0, "bath": 4.0, "sqft": 2810.0, "year_built": "2000", "acres": 0.17}, {"parcel_id": "166554", "address": "2314 10TH AVE S", "lat": "36.125687", "lon": "-86.785997", "sale_price": -1.0, "sale_date": "", "market_value": 697400.0, "beds": 3.0, "bath": 2.0, "sqft": 1905.75, "year_built": "1960", "acres": 0.15}, {"parcel_id": "186730", "address": "1106 GILMORE AVE", "lat": "36.124945", "lon": "-86.788556", "sale_price": -1.0, "sale_date": "", "market_value": 590100.0, "beds": 3.0, "bath": 2.0, "sqft": 1637.0, "year_built": "1935", "acres": 0.18}, {"parcel_id": "186731", "address": "1108 GILMORE AVE", "lat": "36.124957", "lon": "-86.788724"}, {"parcel_id": "188308", "address": "1500 SWEETBRIAR AVE", "lat": "36.124633", "lon": "-86.79216", "sale_price": -1.0, "sale_date": "", "market_value": 752800.0, "beds": 6.0, "bath": 3.0, "sqft": 2948.0, "year_built": "1920", "acres": 0.44}, {"parcel_id": "189444", "address": "920 GILMORE AVE", "lat": "36.124701", "lon": "-86.78539", "sale_price": -1.0, "sale_date": "", "market_value": 843400.0, "beds": 5.0, "bath": 3.0, "sqft": 3396.0, "year_built": "1930", "acres": 0.18}, {"parcel_id": "98308", "address": "309 ARRINGTON ST", "lat": "36.185118", "lon": "-86.767349", "sale_price": -1.0, "sale_date": "", "market_value": 430300.0, "beds": 3.0, "bath": 1.0, "sqft": 886.0, "year_built": "1973", "acres": 0.14}]}