{"cluster_id": 1042, "name": "TURNKEY BUILDERS LLC", "entity_count": 3, "parcel_count": 11, "total_market_value": 519900, "total_acres": 0.6, "owner_names": ["O I C HOMES AT 62 CREIGHTON", "TURNKEY BUILDER S LLC", "TURNKEY BUILDERS LLC"], "registered_agents": [], "principal_offices": [], "primary_sos_status": "", "primary_foreign_state": "", "brand": "", "opencorporates": "https://opencorporates.com/companies?q=TURNKEY+BUILDERS+LLC&utf8=%E2%9C%93", "primary_type": "", "portfolio": {"n_parcels_with_acs": 4, "median_income": 93750, "median_home_value": 472333, "pct_renter": 41, "pct_poverty": null, "pct_vacant": 7, "pct_black": 29, "pct_white": 53, "pct_hispanic": 12, "pct_asian": 3}, "related": [{"owner": "TURNKEY BUILDER S LLC", "parcels": 2, "via": "mailing address"}, {"owner": "O I C HOMES AT 62 CREIGHTON", "parcels": 1, "via": "mailing address"}], "parcels": [{"parcel_id": "102021", "address": "", "lat": "", "lon": ""}, {"parcel_id": "115010", "address": "", "lat": "", "lon": ""}, {"parcel_id": "456798", "address": "62 CREIGHTON AVE", "lat": "36.191175", "lon": "-86.732019"}, {"parcel_id": "462946", "address": "", "lat": "", "lon": ""}, {"parcel_id": "56313", "address": "0 GILLOCK ST", "lat": "36.215288", "lon": "-86.736056"}, {"parcel_id": "56314", "address": "0 GILLOCK ST", "lat": "36.215747", "lon": "-86.736296"}, {"parcel_id": "56315", "address": "716 GILLOCK ST", "lat": "36.215674", "lon": "-86.736151", "sale_price": -1.0, "sale_date": "", "market_value": 282600.0, "beds": 2.0, "bath": 1.0, "sqft": 755.0, "year_built": "1940", "acres": 0.16}, {"parcel_id": "56316", "address": "714B GILLOCK ST", "lat": "36.215624", "lon": "-86.735992"}, {"parcel_id": "67878", "address": "", "lat": "", "lon": ""}, {"parcel_id": "69141", "address": "3212 RESHA LN", "lat": "36.195933", "lon": "-86.831712", "sale_price": 350000.0, "sale_date": "31 Mar 2022", "market_value": 237300.0, "beds": 2.0, "bath": 1.0, "sqft": 955.0, "year_built": "1958", "acres": 0.4}, {"parcel_id": "74706", "address": "", "lat": "", "lon": ""}]}