{"cluster_id": 1048, "name": "PROCTOR FAMILY PARTNERSHIP", "entity_count": 4, "parcel_count": 11, "total_market_value": 865100, "total_acres": 0.3, "owner_names": ["PROCTOR FAMILY PARTNERSHIP", "PROCTOR FAMILY PARTNERSHIP THE", "WISE CATHERINE O NEIL LIVING TRUST", "WISE DAVID MICHAEL REV LIVING TRUST"], "registered_agents": [], "principal_offices": [], "primary_sos_status": "", "primary_foreign_state": "", "brand": "", "opencorporates": "https://opencorporates.com/companies?q=PROCTOR+FAMILY+PARTNERSHIP&utf8=%E2%9C%93", "primary_type": "", "portfolio": {"n_parcels_with_acs": 7, "median_income": 79608, "median_home_value": 401986, "pct_renter": 23, "pct_poverty": null, "pct_vacant": 4, "pct_black": 44, "pct_white": 37, "pct_hispanic": 9, "pct_asian": 2}, "related": [{"owner": "WISE DAVID MICHAEL REV LIVING TRUST", "parcels": 1, "via": "mailing address"}, {"owner": "WISE CATHERINE O NEIL LIVING TRUST", "parcels": 1, "via": "mailing address"}, {"owner": "PROCTOR FAMILY PARTNERSHIP THE", "parcels": 1, "via": "mailing address"}], "parcels": [{"parcel_id": "232440", "address": "7436 HARROW DR", "lat": "36.077432", "lon": "-86.938293", "sale_price": -1.0, "sale_date": "", "market_value": 433800.0, "beds": 3.0, "bath": 2.0, "sqft": 1715.0, "year_built": "1968", "acres": 0.32}, {"parcel_id": "234005", "address": "1246 GENERAL GEORGE PATTON RD", "lat": "36.068731", "lon": "-86.950801", "sale_price": 286000.0, "sale_date": "28 Mar 2017", "market_value": 431300.0, "beds": 4.0, "bath": 2.0, "sqft": 1816.0, "year_built": "1982", "acres": 0.0}, {"parcel_id": "30359", "address": "0 VADENWOOD LN", "lat": "36.242552", "lon": "-86.84058"}, {"parcel_id": "30360", "address": "0 VADENWOOD LN", "lat": "36.244362", "lon": "-86.841792"}, {"parcel_id": "30361", "address": "0 VADENWOOD LN", "lat": "36.245969", "lon": "-86.843279"}, {"parcel_id": "30362", "address": "", "lat": "", "lon": ""}, {"parcel_id": "30363", "address": "", "lat": "", "lon": ""}, {"parcel_id": "30364", "address": "0 VADENWOOD LN", "lat": "36.244995", "lon": "-86.839289"}, {"parcel_id": "31292", "address": "0 DRY FORK RD", "lat": "36.248634", "lon": "-86.844979"}, {"parcel_id": "439289", "address": "", "lat": "", "lon": ""}, {"parcel_id": "439290", "address": "", "lat": "", "lon": ""}]}