{"cluster_id": 105, "name": "HAROLD PROPERTIES LLC", "entity_count": 12, "parcel_count": 74, "total_market_value": 21013600, "total_acres": 12.2, "owner_names": ["APEX LAND LLC", "CURBSIDE PROPERTIES INC", "CURBSIDE PROPERTIES LLC", "DENKE LLC", "HAROLD DRIVE LLC", "HAROLD PROPERTIES LLC", "KING PROPERTIES AND INVESTMENTS LLC", "KING PROPERTIES INVESTMENTS LLC", "NEYLAND PROPERTIES LLC", "PRIME PROPERTIES OF NASHVILLE", "PRIME PROPERTIES OF NASHVILLE LLC", "SUMMIT LAND LLC"], "registered_agents": [], "principal_offices": [], "primary_sos_status": "", "primary_foreign_state": "", "brand": "", "opencorporates": "https://opencorporates.com/companies?q=HAROLD+PROPERTIES+LLC&utf8=%E2%9C%93", "primary_type": "", "portfolio": {"n_parcels_with_acs": 68, "median_income": 72598, "median_home_value": 393840, "pct_renter": 59, "pct_poverty": null, "pct_vacant": 14, "pct_black": 21, "pct_white": 33, "pct_hispanic": 42, "pct_asian": 3}, "related": [{"owner": "NEYLAND PROPERTIES LLC", "parcels": 18, "via": "mailing address"}, {"owner": "CURBSIDE PROPERTIES LLC", "parcels": 11, "via": "mailing address"}, {"owner": "APEX LAND LLC", "parcels": 7, "via": "mailing address"}, {"owner": "PRIME PROPERTIES OF NASHVILLE LLC", "parcels": 6, "via": "mailing address"}, {"owner": "SUMMIT LAND LLC", "parcels": 5, "via": "mailing address"}, {"owner": "KING PROPERTIES INVESTMENTS LLC", "parcels": 4, "via": "mailing address"}, {"owner": "DENKE LLC", "parcels": 1, "via": "mailing address"}, {"owner": "PRIME PROPERTIES OF NASHVILLE", "parcels": 1, "via": "mailing address"}, {"owner": "KING PROPERTIES AND INVESTMENTS LLC", "parcels": 1, "via": "mailing address"}, {"owner": "HAROLD DRIVE LLC", "parcels": 1, "via": "mailing address"}, {"owner": "CURBSIDE PROPERTIES INC", "parcels": 1, "via": "mailing address"}], "parcels": [{"parcel_id": "102034", "address": "1115 CAMPBELL ST", "lat": "36.191125", "lon": "-86.72295", "sale_price": -1.0, "sale_date": "", "market_value": 464100.0, "beds": 4.0, "bath": 2.0, "sqft": 1449.0, "year_built": "1984", "acres": 0.24}, {"parcel_id": "106466", "address": "1507 RUSSELL ST", "lat": "36.174854", "lon": "-86.743616", "sale_price": 265000.0, "sale_date": "18 Apr 2013", "market_value": 803800.0, "beds": 5.0, "bath": 3.0, "sqft": 2541.0, "year_built": "1985", "acres": 0.18}, {"parcel_id": "134689", "address": "807 S 12TH ST", "lat": "36.16548", "lon": "-86.74966", "sale_price": -1.0, "sale_date": "", "market_value": 412500.0, "beds": 3.0, "bath": 1.0, "sqft": 912.0, "year_built": "1965", "acres": 0.12}, {"parcel_id": "160390", "address": "2113 BELMONT BLVD", "lat": "36.129885", "lon": "-86.79596", "sale_price": 950000.0, "sale_date": "13 Feb 2015", "market_value": 1616000.0, "beds": 0.0, "bath": 0.0, "sqft": 7083.0, "year_built": "1990", "acres": 0.25}, {"parcel_id": "168948", "address": "1035 HAROLD DR", "lat": "36.133933", "lon": "-86.709878", "sale_price": -1.0, "sale_date": "", "market_value": 146600.0, "beds": 2.0, "bath": 1.5, "sqft": 992.0, "year_built": "1973", "acres": 0.0}, {"parcel_id": "168949", "address": "1037 HAROLD DR", "lat": "36.133872", "lon": "-86.709867", "sale_price": -1.0, "sale_date": "", "market_value": 146600.0, "beds": 2.0, "bath": 1.5, "sqft": 992.0, "year_built": "1973", "acres": 0.0}, {"parcel_id": "168954", "address": "1043 HAROLD DR", "lat": "36.134121", "lon": "-86.709912", "sale_price": -1.0, "sale_date": "", "market_value": 138100.0, "beds": 1.0, "bath": 1.0, "sqft": 930.0, "year_built": "1973", "acres": 0.0}, {"parcel_id": "168958", "address": "1047 HAROLD DR", "lat": "36.133963", "lon": "-86.709884", "sale_price": -1.0, "sale_date": "", "market_value": 138100.0, "beds": 1.0, "bath": 1.0, "sqft": 930.0, "year_built": "1973", "acres": 0.0}, {"parcel_id": "168960", "address": "1049 HAROLD DR", "lat": "36.133883", "lon": "-86.709869", "sale_price": -1.0, "sale_date": "", "market_value": 138100.0, "beds": 1.0, "bath": 1.0, "sqft": 930.0, "year_built": "1973", "acres": 0.0}, {"parcel_id": "168964", "address": "1053 HAROLD DR", "lat": "36.133726", "lon": "-86.709712", "sale_price": -1.0, "sale_date": "", "market_value": 146600.0, "beds": 2.0, "bath": 1.5, "sqft": 992.0, "year_built": "1973", "acres": 0.0}, {"parcel_id": "168968", "address": "1059 HAROLD DR", "lat": "36.133607", "lon": "-86.709694", "sale_price": 25000.0, "sale_date": "29 May 2009", "market_value": 146600.0, "beds": 2.0, "bath": 1.5, "sqft": 992.0, "year_built": "1973", "acres": 0.0}, {"parcel_id": "168969", "address": "1061 HAROLD DR", "lat": "36.133567", "lon": "-86.709688", "sale_price": -1.0, "sale_date": "", "market_value": 146600.0, "beds": 2.0, "bath": 1.5, "sqft": 992.0, "year_built": "1973", "acres": 0.0}, {"parcel_id": "168971", "address": "1065 HAROLD DR", "lat": "36.133488", "lon": "-86.709674", "sale_price": -1.0, "sale_date": "", "market_value": 146600.0, "beds": 2.0, "bath": 1.5, "sqft": 992.0, "year_built": "1973", "acres": 0.0}, {"parcel_id": "168972", "address": "1067 HAROLD DR", "lat": "36.13345", "lon": "-86.709668", "sale_price": -1.0, "sale_date": "", "market_value": 146600.0, "beds": 2.0, "bath": 1.5, "sqft": 992.0, "year_built": "1973", "acres": 0.0}, {"parcel_id": "168978", "address": "1081 HAROLD DR", "lat": "36.133508", "lon": "-86.709677", "sale_price": -1.0, "sale_date": "", "market_value": 138100.0, "beds": 1.0, "bath": 1.0, "sqft": 930.0, "year_built": "1973", "acres": 0.0}, {"parcel_id": "169072", "address": "1085 HAROLD DR", "lat": "36.133667", "lon": "-86.709703", "sale_price": -1.0, "sale_date": "", "market_value": 138100.0, "beds": 1.0, "bath": 1.0, "sqft": 930.0, "year_built": "1973", "acres": 0.0}, {"parcel_id": "169073", "address": "1087 HAROLD DR", "lat": "36.133746", "lon": "-86.709716", "sale_price": -1.0, "sale_date": "", "market_value": 138100.0, "beds": 1.0, "bath": 1.0, "sqft": 930.0, "year_built": "1973", "acres": 0.0}, {"parcel_id": "170815", "address": "1017 HAROLD DR", "lat": "36.134304", "lon": "-86.709943", "sale_price": -1.0, "sale_date": "", "market_value": 146600.0, "beds": 2.0, "bath": 1.5, "sqft": 992.0, "year_built": "1973", "acres": 0.0}, {"parcel_id": "170816", "address": "1019 HAROLD DR", "lat": "36.134262", "lon": "-86.709936", "sale_price": -1.0, "sale_date": "", "market_value": 146600.0, "beds": 2.0, "bath": 1.5, "sqft": 992.0, "year_built": "1973", "acres": 0.0}, {"parcel_id": "170818", "address": "1023 HAROLD DR", "lat": "36.134182", "lon": "-86.709923", "sale_price": -1.0, "sale_date": "", "market_value": 146600.0, "beds": 2.0, "bath": 1.5, "sqft": 992.0, "year_built": "1973", "acres": 0.0}, {"parcel_id": "170819", "address": "1025 HAROLD DR", "lat": "36.134141", "lon": "-86.709915", "sale_price": -1.0, "sale_date": "", "market_value": 146600.0, "beds": 2.0, "bath": 1.5, "sqft": 992.0, "year_built": "1973", "acres": 0.0}, {"parcel_id": "170820", "address": "1027 HAROLD DR", "lat": "36.134102", "lon": "-86.709909", "sale_price": -1.0, "sale_date": "", "market_value": 146800.0, "beds": 2.0, "bath": 1.5, "sqft": 992.0, "year_built": "1973", "acres": 0.0}, {"parcel_id": "170823", "address": "1033 HAROLD DR", "lat": "36.133983", "lon": "-86.709887", "sale_price": -1.0, "sale_date": "", "market_value": 146600.0, "beds": 2.0, "bath": 1.5, "sqft": 992.0, "year_built": "1973", "acres": 0.0}, {"parcel_id": "170959", "address": "3116 E LAKE DR", "lat": "36.140795", "lon": "-86.639104", "sale_price": -1.0, "sale_date": "", "market_value": 277400.0, "beds": 3.0, "bath": 1.0, "sqft": 1000.0, "year_built": "1981", "acres": 0.24}, {"parcel_id": "174549", "address": "3225 LAKEFORD DR", "lat": "36.137497", "lon": "-86.639407", "sale_price": -1.0, "sale_date": "", "market_value": 241500.0, "beds": 2.0, "bath": 1.5, "sqft": 1060.0, "year_built": "1983", "acres": 0.12}, {"parcel_id": "189270", "address": "2222 KLINE AVE", "lat": "36.12342", "lon": "-86.753721", "sale_price": -1.0, "sale_date": "", "market_value": 365800.0, "beds": 2.0, "bath": 1.0, "sqft": 840.0, "year_built": "1952", "acres": 0.23}, {"parcel_id": "193076", "address": "217 ROSE ST", "lat": "36.122855", "lon": "-86.743943", "sale_price": -1.0, "sale_date": "", "market_value": 345100.0, "beds": 2.0, "bath": 1.0, "sqft": 912.0, "year_built": "1983", "acres": 0.17}, {"parcel_id": "193566", "address": "338 PEACHTREE ST", "lat": "36.120756", "lon": "-86.748784", "sale_price": -1.0, "sale_date": "", "market_value": 313700.0, "beds": 3.0, "bath": 1.0, "sqft": 1288.0, "year_built": "1930", "acres": 0.17}, {"parcel_id": "193962", "address": "216 GARWOOD DR", "lat": "36.12424", "lon": "-86.733461", "sale_price": -1.0, "sale_date": "", "market_value": 276900.0, "beds": 2.0, "bath": 1.0, "sqft": 864.0, "year_built": "1955", "acres": 0.27}, {"parcel_id": "194031", "address": "43 JAY ST", "lat": "36.118145", "lon": "-86.733733", "sale_price": -1.0, "sale_date": "", "market_value": 316700.0, "beds": 3.0, "bath": 2.0, "sqft": 960.0, "year_built": "1985", "acres": 0.27}, {"parcel_id": "194889", "address": "2534 GLENROSE AVE", "lat": "36.117979", "lon": "-86.727562", "sale_price": -1.0, "sale_date": "", "market_value": 347400.0, "beds": 4.0, "bath": 2.0, "sqft": 1350.0, "year_built": "1970", "acres": 0.27}, {"parcel_id": "195152", "address": "2548 GLENROSE AVE", "lat": "36.117561", "lon": "-86.726821", "sale_price": -1.0, "sale_date": "", "market_value": 450700.0, "beds": 4.0, "bath": 2.0, "sqft": 1551.0, "year_built": "2017", "acres": 0.36}, {"parcel_id": "195160", "address": "2536 GLENROSE AVE", "lat": "36.117869", "lon": "-86.727381", "sale_price": -1.0, "sale_date": "", "market_value": 342900.0, "beds": 2.0, "bath": 2.0, "sqft": 1518.0, "year_built": "1970", "acres": 0.21}, {"parcel_id": "195161", "address": "2540 GLENROSE AVE", "lat": "36.117772", "lon": "-86.727222", "sale_price": -1.0, "sale_date": "", "market_value": 357400.0, "beds": 2.0, "bath": 2.0, "sqft": 1518.0, "year_built": "1970", "acres": 0.23}, {"parcel_id": "197331", "address": "3132 GLENCLIFF RD", "lat": "36.106677", "lon": "-86.720211", "sale_price": -1.0, "sale_date": "", "market_value": 280900.0, "beds": 2.0, "bath": 1.5, "sqft": 1237.5, "year_built": "1941", "acres": 0.51}, {"parcel_id": "217004", "address": "3209 COLBY DR", "lat": "36.100053", "lon": "-86.728522", "sale_price": -1.0, "sale_date": "", "market_value": 375500.0, "beds": 3.0, "bath": 1.5, "sqft": 1671.0, "year_built": "1955", "acres": 0.34}, {"parcel_id": "219743", "address": "201 SPARTAN DR", "lat": "36.084298", "lon": "-86.710031", "sale_price": -1.0, "sale_date": "", "market_value": 326800.0, "beds": 3.0, "bath": 1.5, "sqft": 1477.0, "year_built": "1962", "acres": 0.22}, {"parcel_id": "219882", "address": "261 PARAGON MILLS RD", "lat": "36.086812", "lon": "-86.707268", "sale_price": -1.0, "sale_date": "", "market_value": 250900.0, "beds": 3.0, "bath": 1.0, "sqft": 1014.0, "year_built": "1962", "acres": 0.22}, {"parcel_id": "22218", "address": "1213 TUCKAHOE DR", "lat": "36.25925", "lon": "-86.762859", "sale_price": -1.0, "sale_date": "", "market_value": 222000.0, "beds": 2.0, "bath": 1.5, "sqft": 1030.0, "year_built": "1985", "acres": 0.0}, {"parcel_id": "242685", "address": "305 FLORA MAXWELL RD", "lat": "36.075189", "lon": "-86.719244", "sale_price": -1.0, "sale_date": "", "market_value": 225000.0, "beds": 3.0, "bath": 1.0, "sqft": 960.0, "year_built": "1981", "acres": 0.18}, {"parcel_id": "246934", "address": "4033 NAVAHO TRL", "lat": "36.062849", "lon": "-86.686407", "sale_price": -1.0, "sale_date": "", "market_value": 255500.0, "beds": 3.0, "bath": 1.0, "sqft": 1025.0, "year_built": "1978", "acres": 0.18}, {"parcel_id": "248894", "address": "304 HOOPER CT", "lat": "36.063263", "lon": "-86.688305", "sale_price": -1.0, "sale_date": "", "market_value": 230700.0, "beds": 3.0, "bath": 1.5, "sqft": 960.0, "year_built": "1979", "acres": 0.2}, {"parcel_id": "248895", "address": "308 HOOPER CT", "lat": "36.063059", "lon": "-86.688088", "sale_price": -1.0, "sale_date": "", "market_value": 226100.0, "beds": 3.0, "bath": 1.5, "sqft": 960.0, "year_built": "1979", "acres": 0.24}, {"parcel_id": "249308", "address": "252 HAYWOOD LN", "lat": "36.070692", "lon": "-86.701237", "sale_price": -1.0, "sale_date": "", "market_value": 274600.0, "beds": 2.0, "bath": 1.0, "sqft": 924.0, "year_built": "1943", "acres": 0.46}, {"parcel_id": "251042", "address": "4921 BARCLAY SQUARE DR", "lat": "36.074521", "lon": "-86.668793", "sale_price": -1.0, "sale_date": "", "market_value": 241000.0, "beds": 3.0, "bath": 1.0, "sqft": 912.0, "year_built": "1977", "acres": 0.18}, {"parcel_id": "26336", "address": "312 ROOSEVELT AVE", "lat": "36.270482", "lon": "-86.705892", "sale_price": -1.0, "sale_date": "", "market_value": 290500.0, "beds": 3.0, "bath": 1.0, "sqft": 984.0, "year_built": "1964", "acres": 0.18}, {"parcel_id": "270489", "address": "100 KAREN RAY CT", "lat": "36.057543", "lon": "-86.687108", "sale_price": -1.0, "sale_date": "", "market_value": 254000.0, "beds": 3.0, "bath": 1.0, "sqft": 1100.0, "year_built": "1972", "acres": 0.21}, {"parcel_id": "270958", "address": "129 KAREN RAY CT", "lat": "36.058212", "lon": "-86.688354", "sale_price": -1.0, "sale_date": "", "market_value": 256500.0, "beds": 3.0, "bath": 1.0, "sqft": 1100.0, "year_built": "1972", "acres": 0.3}, {"parcel_id": "272981", "address": "405 ASHLAR CIR", "lat": "36.04932", "lon": "-86.703796", "sale_price": -1.0, "sale_date": "", "market_value": 240000.0, "beds": 3.0, "bath": 1.5, "sqft": 1040.0, "year_built": "1980", "acres": 0.28}, {"parcel_id": "275140", "address": "391 STRASSER DR", "lat": "36.060007", "lon": "-86.714859", "sale_price": -1.0, "sale_date": "", "market_value": 262000.0, "beds": 2.0, "bath": 1.0, "sqft": 950.0, "year_built": "1956", "acres": 0.25}, {"parcel_id": "278271", "address": "1014 HALIFAX LN", "lat": "36.040695", "lon": "-86.632459", "sale_price": -1.0, "sale_date": "", "market_value": 237700.0, "beds": 2.0, "bath": 2.5, "sqft": 1312.0, "year_built": "2004", "acres": null}, {"parcel_id": "279543", "address": "233 CEDARMONT CIR", "lat": "36.038529", "lon": "-86.705334", "sale_price": -1.0, "sale_date": "", "market_value": 460600.0, "beds": 4.0, "bath": 2.0, "sqft": 1792.0, "year_built": "1983", "acres": 0.29}, {"parcel_id": "37546", "address": "705 NEELYS BEND RD", "lat": "36.25364", "lon": "-86.697884", "sale_price": 65000.0, "sale_date": "9 Apr 2014", "market_value": 310700.0, "beds": 4.0, "bath": 2.0, "sqft": 1612.0, "year_built": "1982", "acres": 0.23}, {"parcel_id": "45468", "address": "658 PUTNAM DR", "lat": "36.224276", "lon": "-86.845212", "sale_price": -1.0, "sale_date": "", "market_value": 279500.0, "beds": 3.0, "bath": 1.5, "sqft": 1250.0, "year_built": "1980", "acres": 0.51}, {"parcel_id": "45476", "address": "569 PHIPPS DR", "lat": "36.222544", "lon": "-86.844015", "sale_price": -1.0, "sale_date": "", "market_value": 269700.0, "beds": 3.0, "bath": 1.5, "sqft": 1250.0, "year_built": "1980", "acres": 0.39}, {"parcel_id": "48136", "address": "4122 BOYD DR", "lat": "36.225489", "lon": "-86.826349", "sale_price": -1.0, "sale_date": "", "market_value": 228900.0, "beds": 3.0, "bath": 1.0, "sqft": 1231.0, "year_built": "1971", "acres": 0.23}, {"parcel_id": "481995", "address": "", "lat": "", "lon": ""}, {"parcel_id": "481996", "address": "", "lat": "", "lon": ""}, {"parcel_id": "48674", "address": "4063 BOYD DR", "lat": "36.222816", "lon": "-86.82734", "sale_price": -1.0, "sale_date": "", "market_value": 280500.0, "beds": 3.0, "bath": 1.5, "sqft": 1482.0, "year_built": "1977", "acres": 0.25}, {"parcel_id": "49527", "address": "2421 GROVER ST", "lat": "36.214078", "lon": "-86.798464", "sale_price": -1.0, "sale_date": "", "market_value": 207000.0, "beds": 2.0, "bath": 1.0, "sqft": 884.0, "year_built": "1985", "acres": 0.22}, {"parcel_id": "51439", "address": "2900 MORNINGSIDE DR", "lat": "36.22359", "lon": "-86.758507", "sale_price": -1.0, "sale_date": "", "market_value": 255200.0, "beds": 2.0, "bath": 1.0, "sqft": 720.0, "year_built": "1946", "acres": 0.16}, {"parcel_id": "51443", "address": "2910 MORNINGSIDE DR", "lat": "36.224126", "lon": "-86.758394", "sale_price": -1.0, "sale_date": "", "market_value": 258900.0, "beds": 2.0, "bath": 1.0, "sqft": 656.0, "year_built": "1970", "acres": 0.16}, {"parcel_id": "52307", "address": "3010 CONVISER DR", "lat": "36.222254", "lon": "-86.753093", "sale_price": -1.0, "sale_date": "", "market_value": 198300.0, "beds": 2.0, "bath": 1.5, "sqft": 800.0, "year_built": "1986", "acres": 0.12}, {"parcel_id": "52476", "address": "106 DELLWAY DR", "lat": "36.214745", "lon": "-86.76339", "sale_price": 46500.0, "sale_date": "29 Jan 2013", "market_value": 260300.0, "beds": 2.0, "bath": 1.0, "sqft": 850.0, "year_built": "1970", "acres": 0.21}, {"parcel_id": "65005", "address": "1617 ELIZABETH RD", "lat": "36.192876", "lon": "-86.841163", "sale_price": -1.0, "sale_date": "", "market_value": 220800.0, "beds": 2.0, "bath": 1.0, "sqft": 912.0, "year_built": "1930", "acres": 0.37}, {"parcel_id": "6700", "address": "212 GRAVES RD", "lat": "36.325117", "lon": "-86.716416", "sale_price": 200000.0, "sale_date": "30 Apr 2014", "market_value": 576000.0, "beds": 6.0, "bath": 5.0, "sqft": 3304.0, "year_built": "2002", "acres": 0.37}, {"parcel_id": "70802", "address": "338 EDWIN ST", "lat": "36.204097", "lon": "-86.762792", "sale_price": -1.0, "sale_date": "", "market_value": 381100.0, "beds": 3.0, "bath": 2.0, "sqft": 1064.0, "year_built": "1988", "acres": 0.19}, {"parcel_id": "71904", "address": "509 WESLEY AVE", "lat": "36.206639", "lon": "-86.756322", "sale_price": 47000.0, "sale_date": "14 Apr 2014", "market_value": 255000.0, "beds": 2.0, "bath": 1.0, "sqft": 768.0, "year_built": "1950", "acres": 0.22}, {"parcel_id": "73515", "address": "1220 STOCKELL ST", "lat": "36.193733", "lon": "-86.768992", "sale_price": -1.0, "sale_date": "", "market_value": 484700.0, "beds": 2.0, "bath": 1.0, "sqft": 972.0, "year_built": "1960", "acres": 0.2}, {"parcel_id": "74224", "address": "1059 E TRINITY LN", "lat": "36.204187", "lon": "-86.741224", "sale_price": -1.0, "sale_date": "", "market_value": 404200.0, "beds": 4.0, "bath": 1.0, "sqft": 1319.0, "year_built": "1932", "acres": 0.16}, {"parcel_id": "77167", "address": "2228 SCOTT AVE", "lat": "36.200099", "lon": "-86.7333", "sale_price": -1.0, "sale_date": "", "market_value": 475800.0, "beds": 4.0, "bath": 1.0, "sqft": 1452.0, "year_built": "1985", "acres": 0.16}, {"parcel_id": "79843", "address": "2605B PENNINGTON AVE", "lat": "36.195868", "lon": "-86.730462", "sale_price": -1.0, "sale_date": "", "market_value": 324800.0, "beds": 2.0, "bath": 1.5, "sqft": 960.0, "year_built": "1985", "acres": 0.09}, {"parcel_id": "98173", "address": "514 ARRINGTON ST", "lat": "36.183817", "lon": "-86.762382", "sale_price": -1.0, "sale_date": "", "market_value": 423600.0, "beds": 4.0, "bath": 2.0, "sqft": 864.0, "year_built": "1950", "acres": 0.12}, {"parcel_id": "98286", "address": "605 N 5TH ST", "lat": "36.181503", "lon": "-86.763637", "sale_price": -1.0, "sale_date": "", "market_value": 341800.0, "beds": 3.0, "bath": 1.0, "sqft": 925.0, "year_built": "1963", "acres": 0.26}]}