{"cluster_id": 1058, "name": "SUAREZ FAMILY HOLDINGS LLC", "entity_count": 2, "parcel_count": 11, "total_market_value": 5360300, "total_acres": 1.3, "owner_names": ["SUAREZ FAMILY HOLDING LLC", "SUAREZ FAMILY HOLDINGS LLC"], "registered_agents": [], "principal_offices": [], "primary_sos_status": "", "primary_foreign_state": "", "brand": "", "opencorporates": "https://opencorporates.com/companies?q=SUAREZ+FAMILY+HOLDINGS+LLC&utf8=%E2%9C%93", "primary_type": "", "portfolio": {"n_parcels_with_acs": 11, "median_income": 93709, "median_home_value": 602791, "pct_renter": 60, "pct_poverty": null, "pct_vacant": 14, "pct_black": 3, "pct_white": 81, "pct_hispanic": 12, "pct_asian": 4}, "related": [{"owner": "SUAREZ FAMILY HOLDING LLC", "parcels": 2, "via": "mailing address"}], "parcels": [{"parcel_id": "121145", "address": "3912 NEVADA AVE", "lat": "36.1496", "lon": "-86.833553", "sale_price": -1.0, "sale_date": "", "market_value": 548500.0, "beds": 6.0, "bath": 3.0, "sqft": 2117.0, "year_built": "1968", "acres": 0.17}, {"parcel_id": "165309", "address": "1709 STEWART PL", "lat": "36.135686", "lon": "-86.771694", "sale_price": 67500.0, "sale_date": "14 Dec 2010", "market_value": 482100.0, "beds": 3.0, "bath": 1.0, "sqft": 816.0, "year_built": "1940", "acres": 0.17}, {"parcel_id": "165313", "address": "1717 STEWART PL", "lat": "36.13514", "lon": "-86.771771", "sale_price": -1.0, "sale_date": "", "market_value": 519100.0, "beds": 3.0, "bath": 1.0, "sqft": 1023.0, "year_built": "1935", "acres": 0.17}, {"parcel_id": "165687", "address": "1719 NEAL TER", "lat": "36.134668", "lon": "-86.768259", "sale_price": -1.0, "sale_date": "", "market_value": 487700.0, "beds": 2.0, "bath": 1.0, "sqft": 962.0, "year_built": "1940", "acres": 0.17}, {"parcel_id": "165688", "address": "1801 NEAL TER", "lat": "36.134532", "lon": "-86.768275", "sale_price": 126973.0, "sale_date": "18 Feb 2014", "market_value": 531600.0, "beds": 2.0, "bath": 1.0, "sqft": 1243.0, "year_built": "1940", "acres": 0.17}, {"parcel_id": "166291", "address": "1712 MARTIN ST", "lat": "36.135254", "lon": "-86.769856", "sale_price": -1.0, "sale_date": "", "market_value": 497400.0, "beds": 3.0, "bath": 1.0, "sqft": 1061.0, "year_built": "1995", "acres": 0.2}, {"parcel_id": "203783", "address": "250 COLT DR", "lat": "36.086709", "lon": "-86.942739", "sale_price": -1.0, "sale_date": "", "market_value": 384000.0, "beds": 4.0, "bath": 4.0, "sqft": 1922.0, "year_built": "1982", "acres": 0.26}, {"parcel_id": "429715", "address": "1714 ALLISON PL", "lat": "36.135027", "lon": "-86.768804", "sale_price": 297799.0, "sale_date": "21 Jul 2016", "market_value": 520700.0, "beds": 3.0, "bath": 1.0, "sqft": 1160.0, "year_built": "1940", "acres": null}, {"parcel_id": "429716", "address": "1714B ALLISON PL", "lat": "36.135012", "lon": "-86.768602", "sale_price": null, "sale_date": "", "market_value": null, "beds": null, "bath": 0.0, "sqft": null, "year_built": "", "acres": null}, {"parcel_id": "433464", "address": "1806 ALLISON PL", "lat": "36.134373", "lon": "-86.768873", "sale_price": 88900.0, "sale_date": "15 May 2009", "market_value": 659900.0, "beds": 3.0, "bath": 2.0, "sqft": 1867.25, "year_built": "1985", "acres": null}, {"parcel_id": "433465", "address": "1806B ALLISON PL", "lat": "36.134345", "lon": "-86.768679", "sale_price": 88900.0, "sale_date": "15 May 2009", "market_value": 729300.0, "beds": 3.0, "bath": 2.5, "sqft": 2209.0, "year_built": "2018", "acres": null}]}