{"cluster_id": 107, "name": "RESIDENTIAL HOME BUYER NASHVILLE LLC", "entity_count": 1, "parcel_count": 74, "total_market_value": 25217800, "total_acres": 10.9, "owner_names": ["RESIDENTIAL HOME BUYER NASHVILLE LLC"], "registered_agents": ["CORPORATION SERVICE COMPANY"], "principal_offices": ["225 LIBERTY STREET, 8TH FLOOR, NEW YORK , NY 10281"], "primary_sos_status": "", "primary_foreign_state": "", "brand": "", "opencorporates": "https://opencorporates.com/companies?q=RESIDENTIAL+HOME+BUYER+NASHVILLE+LLC&utf8=%E2%9C%93", "primary_type": "", "portfolio": {"n_parcels_with_acs": 72, "median_income": 82396, "median_home_value": 339119, "pct_renter": 34, "pct_poverty": null, "pct_vacant": 6, "pct_black": 31, "pct_white": 46, "pct_hispanic": 18, "pct_asian": 3}, "related": [], "parcels": [{"parcel_id": "113541", "address": "4277 VALLEY GROVE DR", "lat": "36.175476", "lon": "-86.590951", "sale_price": 112500.0, "sale_date": "8 May 2015", "market_value": 293800.0, "beds": 3.0, "bath": 2.0, "sqft": 1062.0, "year_built": "1990", "acres": 0.2}, {"parcel_id": "113697", "address": "4245 CHESNEY GLEN DR", "lat": "36.187715", "lon": "-86.583831", "sale_price": 186000.0, "sale_date": "28 Feb 2017", "market_value": 373200.0, "beds": 3.0, "bath": 2.5, "sqft": 1486.0, "year_built": "1997", "acres": 0.11}, {"parcel_id": "113945", "address": "3557 GLENFALLS DR", "lat": "36.184957", "lon": "-86.586529", "sale_price": 190500.0, "sale_date": "6 Oct 2016", "market_value": 417900.0, "beds": 3.0, "bath": 2.0, "sqft": 1902.0, "year_built": "2000", "acres": null}, {"parcel_id": "144879", "address": "4005 PORT JAMAICA CT", "lat": "36.165043", "lon": "-86.588703", "sale_price": 176000.0, "sale_date": "3 Aug 2016", "market_value": 375700.0, "beds": 3.0, "bath": 2.0, "sqft": 2100.0, "year_built": "1979", "acres": 0.42}, {"parcel_id": "144999", "address": "5913 NEW HOPE CT", "lat": "36.162789", "lon": "-86.586362", "sale_price": 167300.0, "sale_date": "8 May 2015", "market_value": 384000.0, "beds": 4.0, "bath": 2.0, "sqft": 1942.38, "year_built": "1978", "acres": 0.39}, {"parcel_id": "145925", "address": "520 BELLMORE PL", "lat": "36.144914", "lon": "-86.862478", "sale_price": 200000.0, "sale_date": "5 Oct 2015", "market_value": 302800.0, "beds": 3.0, "bath": 2.0, "sqft": 1170.0, "year_built": "1993", "acres": 0.07}, {"parcel_id": "171253", "address": "205 FITZPATRICK PL", "lat": "36.147528", "lon": "-86.638523", "sale_price": 216000.0, "sale_date": "31 May 2017", "market_value": 460300.0, "beds": 3.0, "bath": 2.5, "sqft": 1970.0, "year_built": "1999", "acres": 0.12}, {"parcel_id": "171432", "address": "3202 LAKEFORD DR", "lat": "36.138263", "lon": "-86.638597", "sale_price": 130000.0, "sale_date": "5 May 2017", "market_value": 217300.0, "beds": 2.0, "bath": 2.0, "sqft": 1116.0, "year_built": "1983", "acres": 0.11}, {"parcel_id": "173664", "address": "3200 LAKEFORD DR", "lat": "36.138345", "lon": "-86.638474", "sale_price": 130000.0, "sale_date": "5 May 2017", "market_value": 209000.0, "beds": 2.0, "bath": 2.0, "sqft": 1080.0, "year_built": "1983", "acres": 0.13}, {"parcel_id": "173973", "address": "1625 TIMBER RUN", "lat": "36.12661", "lon": "-86.636838", "sale_price": 200000.0, "sale_date": "22 Apr 2016", "market_value": 426300.0, "beds": 3.0, "bath": 3.0, "sqft": 1643.0, "year_built": "2005", "acres": null}, {"parcel_id": "174467", "address": "1303 PRIEST WOODS CT", "lat": "36.127554", "lon": "-86.632759", "sale_price": 144000.0, "sale_date": "17 Feb 2017", "market_value": 229900.0, "beds": 3.0, "bath": 2.0, "sqft": 1150.0, "year_built": "1990", "acres": 0.13}, {"parcel_id": "21542", "address": "707 HERITAGE SQUARE DR", "lat": "36.271112", "lon": "-86.723467", "sale_price": 128000.0, "sale_date": "15 Mar 2017", "market_value": 281900.0, "beds": 3.0, "bath": 1.5, "sqft": 1134.0, "year_built": "1980", "acres": 0.12}, {"parcel_id": "219284", "address": "3854 VALLEY RIDGE DR", "lat": "36.089044", "lon": "-86.724116", "sale_price": 164000.0, "sale_date": "5 Aug 2016", "market_value": 387300.0, "beds": 4.0, "bath": 1.5, "sqft": 1664.0, "year_built": "1980", "acres": 0.25}, {"parcel_id": "22148", "address": "409 HERITAGE LN", "lat": "36.271555", "lon": "-86.721549", "sale_price": 135500.0, "sale_date": "15 Mar 2017", "market_value": 286900.0, "beds": 2.0, "bath": 1.0, "sqft": 1102.0, "year_built": "1983", "acres": 0.14}, {"parcel_id": "222912", "address": "300 NASHBORO GREENS WAY", "lat": "36.093225", "lon": "-86.638198", "sale_price": 129000.0, "sale_date": "12 Apr 2016", "market_value": 314800.0, "beds": 3.0, "bath": 2.5, "sqft": 1688.5, "year_built": "2004", "acres": null}, {"parcel_id": "246940", "address": "4009 NAVAHO TRL", "lat": "36.063839", "lon": "-86.687007", "sale_price": -1.0, "sale_date": "", "market_value": 241300.0, "beds": 3.0, "bath": 1.0, "sqft": 1050.0, "year_built": "1977", "acres": 0.19}, {"parcel_id": "248391", "address": "4608 PACKARD DR", "lat": "36.063096", "lon": "-86.690312", "sale_price": -1.0, "sale_date": "", "market_value": 223600.0, "beds": 3.0, "bath": 1.5, "sqft": 1040.0, "year_built": "1980", "acres": 0.16}, {"parcel_id": "249142", "address": "1621 RICE HILL CT", "lat": "36.065721", "lon": "-86.639901", "sale_price": 105500.0, "sale_date": "5 May 2015", "market_value": 256700.0, "beds": 3.0, "bath": 2.0, "sqft": 1144.0, "year_built": "1987", "acres": 0.14}, {"parcel_id": "251093", "address": "220 MANATEE CT", "lat": "36.069338", "lon": "-86.665188", "sale_price": 143000.0, "sale_date": "3 Apr 2017", "market_value": 315600.0, "beds": 3.0, "bath": 1.5, "sqft": 1050.0, "year_built": "1974", "acres": 0.21}, {"parcel_id": "251222", "address": "454 CLEARWATER DR", "lat": "36.078706", "lon": "-86.626335", "sale_price": 172000.0, "sale_date": "25 Jul 2016", "market_value": 360600.0, "beds": 3.0, "bath": 2.0, "sqft": 1756.0, "year_built": "1995", "acres": 0.27}, {"parcel_id": "251535", "address": "817 DOVER GLEN DR", "lat": "36.074926", "lon": "-86.654244", "sale_price": 126500.0, "sale_date": "2 Feb 2016", "market_value": 277600.0, "beds": 3.0, "bath": 2.5, "sqft": 1400.0, "year_built": "2004", "acres": null}, {"parcel_id": "254414", "address": "3717 WATERFORD WAY", "lat": "36.081569", "lon": "-86.587602", "sale_price": -1.0, "sale_date": "", "market_value": 372500.0, "beds": 3.0, "bath": 3.0, "sqft": 1816.0, "year_built": "1991", "acres": 0.15}, {"parcel_id": "254418", "address": "3733 WATERFORD WAY", "lat": "36.082166", "lon": "-86.587496", "sale_price": -1.0, "sale_date": "", "market_value": 309700.0, "beds": 3.0, "bath": 2.0, "sqft": 1365.0, "year_built": "1991", "acres": 0.15}, {"parcel_id": "254935", "address": "5156 SUNSAIL DR", "lat": "36.066191", "lon": "-86.58336", "sale_price": 350000.0, "sale_date": "24 Jan 2022", "market_value": 385100.0, "beds": 3.0, "bath": 2.0, "sqft": 1664.0, "year_built": "2007", "acres": null}, {"parcel_id": "255057", "address": "2932 MOSS SPRING DR", "lat": "36.081851", "lon": "-86.61838", "sale_price": -1.0, "sale_date": "", "market_value": 306900.0, "beds": 3.0, "bath": 2.0, "sqft": 1775.0, "year_built": "1975", "acres": 0.22}, {"parcel_id": "255267", "address": "3009 TOWNE VALLEY RD", "lat": "36.071482", "lon": "-86.609327", "sale_price": 155880.0, "sale_date": "22 May 2017", "market_value": 298200.0, "beds": 3.0, "bath": 3.0, "sqft": 1612.0, "year_built": "1984", "acres": 0.23}, {"parcel_id": "255269", "address": "3016 TOWNE VALLEY RD", "lat": "36.070844", "lon": "-86.608993", "sale_price": 119100.0, "sale_date": "23 Oct 2015", "market_value": 285100.0, "beds": 3.0, "bath": 2.0, "sqft": 1282.0, "year_built": "1984", "acres": 0.22}, {"parcel_id": "255571", "address": "3308 COUNTRY HILL RD", "lat": "36.080258", "lon": "-86.608709", "sale_price": 184000.0, "sale_date": "6 Mar 2017", "market_value": 308600.0, "beds": 3.0, "bath": 2.0, "sqft": 1638.0, "year_built": "1987", "acres": 0.23}, {"parcel_id": "255664", "address": "3233 AUTUMN DR", "lat": "36.076647", "lon": "-86.604491", "sale_price": 170000.0, "sale_date": "6 Mar 2017", "market_value": 294000.0, "beds": 3.0, "bath": 3.0, "sqft": 1650.0, "year_built": "1980", "acres": 0.23}, {"parcel_id": "257821", "address": "1728 LONDONVIEW PL", "lat": "36.071139", "lon": "-86.573813", "sale_price": 325000.0, "sale_date": "25 Oct 2022", "market_value": 320300.0, "beds": 3.0, "bath": 2.5, "sqft": 1098.0, "year_built": "2003", "acres": null}, {"parcel_id": "25952", "address": "231 GARNER AVE", "lat": "36.270217", "lon": "-86.707622", "sale_price": -1.0, "sale_date": "", "market_value": 272600.0, "beds": 3.0, "bath": 2.0, "sqft": 1110.0, "year_built": "1989", "acres": 0.15}, {"parcel_id": "261511", "address": "337 CEDARCLIFF RD", "lat": "36.071181", "lon": "-86.623191", "sale_price": 175000.0, "sale_date": "29 Mar 2017", "market_value": 314600.0, "beds": 3.0, "bath": 3.0, "sqft": 1814.0, "year_built": "1986", "acres": 0.23}, {"parcel_id": "270001", "address": "5343 EULALA DR", "lat": "36.052239", "lon": "-86.702946", "sale_price": 132500.0, "sale_date": "12 Feb 2016", "market_value": 365300.0, "beds": 3.0, "bath": 2.0, "sqft": 1301.0, "year_built": "2010", "acres": 0.32}, {"parcel_id": "270771", "address": "5072 ENGLISH VILLAGE DR", "lat": "36.0447", "lon": "-86.734419", "sale_price": 197250.0, "sale_date": "2 Sep 2015", "market_value": 406400.0, "beds": 3.0, "bath": 2.5, "sqft": 1876.0, "year_built": "1985", "acres": 0.18}, {"parcel_id": "272493", "address": "324 EULALA CIR", "lat": "36.05323", "lon": "-86.705452", "sale_price": 147000.0, "sale_date": "22 Feb 2016", "market_value": 289500.0, "beds": 3.0, "bath": 1.5, "sqft": 1599.0, "year_built": "1973", "acres": 0.29}, {"parcel_id": "275041", "address": "629 BROOK DR", "lat": "36.046052", "lon": "-86.691326", "sale_price": -1.0, "sale_date": "", "market_value": 349400.0, "beds": 3.0, "bath": 2.0, "sqft": 1642.0, "year_built": "1973", "acres": 0.24}, {"parcel_id": "278313", "address": "3128 WEATHERSTONE CV W", "lat": "36.049841", "lon": "-86.591071", "sale_price": 300000.0, "sale_date": "24 Aug 2022", "market_value": 355300.0, "beds": 3.0, "bath": 2.0, "sqft": 1299.0, "year_built": "2003", "acres": null}, {"parcel_id": "278359", "address": "5733 MURPHYWOOD XING", "lat": "36.041325", "lon": "-86.624376", "sale_price": 186000.0, "sale_date": "29 Jul 2016", "market_value": 382200.0, "beds": 3.0, "bath": 2.0, "sqft": 2057.25, "year_built": "1999", "acres": 0.18}, {"parcel_id": "279050", "address": "108 CEDARMONT CIR", "lat": "36.041524", "lon": "-86.705665", "sale_price": 175000.0, "sale_date": "20 Mar 2017", "market_value": 345600.0, "beds": 3.0, "bath": 2.0, "sqft": 1248.0, "year_built": "1985", "acres": 0.26}, {"parcel_id": "286203", "address": "636 MAGNOLIA LN", "lat": "36.038586", "lon": "-86.725846", "sale_price": 487963.0, "sale_date": "30 Sep 2022", "market_value": 605000.0, "beds": 3.0, "bath": 2.5, "sqft": 2428.0, "year_built": "2010", "acres": 0.19}, {"parcel_id": "287668", "address": "1481 TIMBER RIDGE CIR", "lat": "36.033924", "lon": "-86.718295", "sale_price": 603300.0, "sale_date": "6 Aug 2022", "market_value": 594600.0, "beds": 3.0, "bath": 2.5, "sqft": 2483.0, "year_built": "2001", "acres": null}, {"parcel_id": "289273", "address": "717 WINTER CT", "lat": "36.023756", "lon": "-86.722258", "sale_price": 216100.0, "sale_date": "10 Mar 2016", "market_value": 481800.0, "beds": 3.0, "bath": 2.0, "sqft": 1810.0, "year_built": "1993", "acres": 0.24}, {"parcel_id": "289891", "address": "632 CEDARMONT DR", "lat": "36.032572", "lon": "-86.70759", "sale_price": 171250.0, "sale_date": "3 Mar 2017", "market_value": 371900.0, "beds": 4.0, "bath": 2.0, "sqft": 1392.0, "year_built": "1978", "acres": 0.32}, {"parcel_id": "292333", "address": "4913 ALEXIS DR", "lat": "36.036169", "lon": "-86.680521", "sale_price": 167700.0, "sale_date": "26 May 2015", "market_value": 405400.0, "beds": 3.0, "bath": 3.0, "sqft": 2358.0, "year_built": "1988", "acres": 0.17}, {"parcel_id": "293431", "address": "5040 TRAILWATER DR", "lat": "36.037809", "lon": "-86.57431", "sale_price": 349900.0, "sale_date": "13 Jun 2022", "market_value": 350800.0, "beds": 3.0, "bath": 2.0, "sqft": 1254.0, "year_built": "2015", "acres": 0.23}, {"parcel_id": "296356", "address": "404 HICKORY WOODS CT", "lat": "36.027626", "lon": "-86.584028", "sale_price": -1.0, "sale_date": "", "market_value": 323400.0, "beds": 3.0, "bath": 2.0, "sqft": 1520.0, "year_built": "1998", "acres": 0.17}, {"parcel_id": "296536", "address": "7815 RAINEY DR", "lat": "36.008331", "lon": "-86.653764", "sale_price": 135000.0, "sale_date": "4 May 2015", "market_value": 281600.0, "beds": 3.0, "bath": 2.0, "sqft": 1116.0, "year_built": "2002", "acres": null}, {"parcel_id": "296555", "address": "7891 RAINEY DR", "lat": "36.010243", "lon": "-86.650693", "sale_price": 170000.0, "sale_date": "20 Jul 2016", "market_value": 381000.0, "beds": 3.0, "bath": 2.5, "sqft": 1716.0, "year_built": "2003", "acres": null}, {"parcel_id": "297439", "address": "5624 CRAFTWOOD CT", "lat": "36.01105", "lon": "-86.622523", "sale_price": 327000.0, "sale_date": "30 Nov 2021", "market_value": 369100.0, "beds": 3.0, "bath": 2.5, "sqft": 1885.0, "year_built": "2003", "acres": null}, {"parcel_id": "299473", "address": "7904 RAINEY DR", "lat": "36.010246", "lon": "-86.649481", "sale_price": 169500.0, "sale_date": "9 Jan 2017", "market_value": 346200.0, "beds": 3.0, "bath": 2.5, "sqft": 1624.0, "year_built": "2010", "acres": null}, {"parcel_id": "300770", "address": "2181 FREEMAN LN", "lat": "36.246695", "lon": "-86.667372", "sale_price": 350000.0, "sale_date": "8 Nov 2021", "market_value": 394300.0, "beds": 3.0, "bath": 2.0, "sqft": 1517.0, "year_built": "2005", "acres": null}, {"parcel_id": "30427", "address": "806 WILLOW TRACE CT", "lat": "36.23964", "lon": "-86.801462", "sale_price": 118000.0, "sale_date": "15 Mar 2017", "market_value": 219000.0, "beds": 3.0, "bath": 2.0, "sqft": 1067.0, "year_built": "1989", "acres": 0.08}, {"parcel_id": "309501", "address": "501 AERIE LNDG", "lat": "36.053682", "lon": "-86.589604", "sale_price": 168000.0, "sale_date": "30 Nov 2009", "market_value": 356700.0, "beds": 3.0, "bath": 2.5, "sqft": 1772.0, "year_built": "2006", "acres": null}, {"parcel_id": "32663", "address": "3652 CHESAPEAKE DR", "lat": "36.245168", "lon": "-86.769208", "sale_price": 145000.0, "sale_date": "15 Mar 2017", "market_value": 308800.0, "beds": 3.0, "bath": 2.0, "sqft": 1264.0, "year_built": "1987", "acres": 0.22}, {"parcel_id": "32773", "address": "3605 CHESAPEAKE DR", "lat": "36.245898", "lon": "-86.77255", "sale_price": 141000.0, "sale_date": "15 Mar 2017", "market_value": 284500.0, "beds": 3.0, "bath": 2.0, "sqft": 1209.0, "year_built": "1987", "acres": 0.22}, {"parcel_id": "33555", "address": "4016 EWING VALLEY RD", "lat": "36.249437", "lon": "-86.770879", "sale_price": 134000.0, "sale_date": "15 Mar 2017", "market_value": 291900.0, "beds": 3.0, "bath": 2.0, "sqft": 1172.0, "year_built": "1987", "acres": 0.23}, {"parcel_id": "362603", "address": "5320 SKIP JACK DR", "lat": "36.063813", "lon": "-86.586346", "sale_price": 151000.0, "sale_date": "31 Aug 2015", "market_value": 381700.0, "beds": 3.0, "bath": 2.0, "sqft": 1664.0, "year_built": "2007", "acres": null}, {"parcel_id": "365480", "address": "1317 RAINGLEN CV", "lat": "36.033635", "lon": "-86.62073", "sale_price": 175000.0, "sale_date": "17 Jun 2016", "market_value": 347600.0, "beds": 3.0, "bath": 2.5, "sqft": 1650.0, "year_built": "2012", "acres": null}, {"parcel_id": "366600", "address": "1626 CARDIGAN WAY", "lat": "36.039193", "lon": "-86.626704", "sale_price": 103000.0, "sale_date": "14 Mar 2016", "market_value": 245300.0, "beds": 2.0, "bath": 2.5, "sqft": 1312.0, "year_built": "2008", "acres": null}, {"parcel_id": "369300", "address": "7932 KIRKFIELD DR", "lat": "36.016141", "lon": "-86.692371", "sale_price": 553800.0, "sale_date": "14 Sep 2022", "market_value": 523500.0, "beds": 3.0, "bath": 2.5, "sqft": 2526.0, "year_built": "2012", "acres": null}, {"parcel_id": "37815", "address": "1913 GULF BREEZE PL", "lat": "36.251408", "lon": "-86.671668", "sale_price": 160000.0, "sale_date": "13 Mar 2017", "market_value": 327100.0, "beds": 3.0, "bath": 2.5, "sqft": 1352.0, "year_built": "1997", "acres": 0.12}, {"parcel_id": "379882", "address": "1800 COTTAGE GROVE WAY", "lat": "36.030733", "lon": "-86.699983", "sale_price": 189900.0, "sale_date": "28 Aug 2015", "market_value": 392600.0, "beds": 3.0, "bath": 2.5, "sqft": 1856.0, "year_built": "2011", "acres": null}, {"parcel_id": "44652", "address": "110 MEADOW ST", "lat": "36.242594", "lon": "-86.641654", "sale_price": 125000.0, "sale_date": "4 May 2015", "market_value": 292300.0, "beds": 3.0, "bath": 2.0, "sqft": 1044.0, "year_built": "2009", "acres": 0.27}, {"parcel_id": "48149", "address": "4112 MEADOW HILL DR", "lat": "36.225149", "lon": "-86.824979", "sale_price": -1.0, "sale_date": "", "market_value": 238800.0, "beds": 4.0, "bath": 1.5, "sqft": 1050.0, "year_built": "1970", "acres": 0.3}, {"parcel_id": "51599", "address": "2698 OLD MATTHEWS RD", "lat": "36.218125", "lon": "-86.791634", "sale_price": 140200.0, "sale_date": "15 Mar 2017", "market_value": 294300.0, "beds": 3.0, "bath": 2.0, "sqft": 1056.0, "year_built": "2001", "acres": 0.22}, {"parcel_id": "59469", "address": "1518 MOHAWK TRL", "lat": "36.233317", "lon": "-86.656423", "sale_price": 136000.0, "sale_date": "15 Mar 2017", "market_value": 303500.0, "beds": 3.0, "bath": 2.0, "sqft": 1110.0, "year_built": "1988", "acres": 0.18}, {"parcel_id": "59582", "address": "1533 MOHAWK TRL", "lat": "36.23252", "lon": "-86.655308", "sale_price": -1.0, "sale_date": "", "market_value": 342700.0, "beds": 3.0, "bath": 2.0, "sqft": 1302.0, "year_built": "1995", "acres": 0.18}, {"parcel_id": "61612", "address": "109 BRIAR OAKS CT", "lat": "36.221387", "lon": "-86.625415", "sale_price": 192000.0, "sale_date": "17 Jun 2016", "market_value": 391200.0, "beds": 4.0, "bath": 3.0, "sqft": 1825.0, "year_built": "1987", "acres": 0.28}, {"parcel_id": "7276", "address": "371 DORR DR", "lat": "36.328708", "lon": "-86.719146", "sale_price": -1.0, "sale_date": "", "market_value": 443000.0, "beds": 3.0, "bath": 2.0, "sqft": 2450.0, "year_built": "1991", "acres": 0.27}, {"parcel_id": "84381", "address": "709 RACHELS TRL", "lat": "36.205385", "lon": "-86.605235", "sale_price": 100000.0, "sale_date": "12 Jun 2015", "market_value": 274300.0, "beds": 3.0, "bath": 2.5, "sqft": 1328.0, "year_built": "1984", "acres": 0.13}, {"parcel_id": "86749", "address": "676 BELGIUM DR", "lat": "36.203665", "lon": "-86.596767", "sale_price": -1.0, "sale_date": "", "market_value": 415300.0, "beds": 3.0, "bath": 2.5, "sqft": 2128.0, "year_built": "2004", "acres": null}, {"parcel_id": "89144", "address": "510 DEBBIE DR", "lat": "36.211054", "lon": "-86.586118", "sale_price": 106000.0, "sale_date": "29 May 2015", "market_value": 251800.0, "beds": 3.0, "bath": 2.0, "sqft": 1326.5, "year_built": "1985", "acres": 0.15}, {"parcel_id": "9890", "address": "108 BUTLEIGH CT", "lat": "36.314543", "lon": "-86.693487", "sale_price": -1.0, "sale_date": "", "market_value": 264300.0, "beds": 2.0, "bath": 1.5, "sqft": 1172.0, "year_built": "1985", "acres": 0.09}, {"parcel_id": "99272", "address": "720 HART AVE", "lat": "36.18391", "lon": "-86.756193", "sale_price": -1.0, "sale_date": "", "market_value": 524700.0, "beds": 4.0, "bath": 3.0, "sqft": 1495.0, "year_built": "1980", "acres": 0.19}]}