{"cluster_id": 1093, "name": "AIRWOOD GROUP LLC", "entity_count": 3, "parcel_count": 10, "total_market_value": 2154950, "total_acres": 0.6, "owner_names": ["AIRWOOD GROUP LLC", "RICHMOND CROSSINGS LLC", "WOODWINN LLC"], "registered_agents": [], "principal_offices": [], "primary_sos_status": "", "primary_foreign_state": "", "brand": "", "opencorporates": "https://opencorporates.com/companies?q=AIRWOOD+GROUP+LLC&utf8=%E2%9C%93", "primary_type": "", "portfolio": {"n_parcels_with_acs": 7, "median_income": 70496, "median_home_value": 349400, "pct_renter": 38, "pct_poverty": null, "pct_vacant": 10, "pct_black": 8, "pct_white": 62, "pct_hispanic": 40, "pct_asian": 2}, "related": [{"owner": "RICHMOND CROSSINGS LLC", "parcels": 3, "via": "mailing address"}, {"owner": "WOODWINN LLC", "parcels": 1, "via": "mailing address"}], "parcels": [{"parcel_id": "139018", "address": "", "lat": "", "lon": ""}, {"parcel_id": "139020", "address": "", "lat": "", "lon": ""}, {"parcel_id": "139025", "address": "", "lat": "", "lon": ""}, {"parcel_id": "139029", "address": "2644 HIBBITTS RD", "lat": "36.158605", "lon": "-86.671399", "sale_price": -1.0, "sale_date": "", "market_value": 547200.0, "beds": 4.0, "bath": 4.0, "sqft": 2016.0, "year_built": "2004", "acres": null}, {"parcel_id": "140784", "address": "2726 WELLMAN DR", "lat": "36.153173", "lon": "-86.666676", "sale_price": -1.0, "sale_date": "", "market_value": 298200.0, "beds": 2.0, "bath": 1.5, "sqft": 1000.0, "year_built": "1980", "acres": 0.36}, {"parcel_id": "140926", "address": "2721 NODYNE DR", "lat": "36.151775", "lon": "-86.668629", "sale_price": -1.0, "sale_date": "", "market_value": 323000.0, "beds": 3.0, "bath": 1.5, "sqft": 1276.0, "year_built": "1959", "acres": 0.22}, {"parcel_id": "454262", "address": "2822 AIRWOOD DR", "lat": "36.159088", "lon": "-86.671474", "sale_price": -1.0, "sale_date": "", "market_value": 250000.0, "beds": 2.0, "bath": 1.0, "sqft": 0.0, "year_built": "1990", "acres": null}, {"parcel_id": "454263", "address": "2824 AIRWOOD DR", "lat": "36.159048", "lon": "-86.671352", "sale_price": -1.0, "sale_date": "", "market_value": 243275.0, "beds": 2.0, "bath": 1.0, "sqft": 0.0, "year_built": "1990", "acres": null}, {"parcel_id": "454289", "address": "2820 AIRWOOD DR", "lat": "36.158991", "lon": "-86.671641", "sale_price": -1.0, "sale_date": "", "market_value": 243275.0, "beds": 3.0, "bath": 1.0, "sqft": 0.0, "year_built": "1990", "acres": null}, {"parcel_id": "454291", "address": "2818 AIRWOOD DR", "lat": "36.15903", "lon": "-86.671749", "sale_price": -1.0, "sale_date": "", "market_value": 250000.0, "beds": 2.0, "bath": 1.0, "sqft": 0.0, "year_built": "1990", "acres": null}]}