{"cluster_id": 1135, "name": "GARRETTE FAMILIY TRUST", "entity_count": 2, "parcel_count": 10, "total_market_value": 3265300, "total_acres": 4.4, "owner_names": ["GARRETTE FAMILIY TRUST", "GARRETTE FAMILY TRUST"], "registered_agents": [], "principal_offices": [], "primary_sos_status": "", "primary_foreign_state": "", "brand": "", "opencorporates": "https://opencorporates.com/companies?q=GARRETTE+FAMILIY+TRUST&utf8=%E2%9C%93", "primary_type": "", "portfolio": {"n_parcels_with_acs": 10, "median_income": 64008, "median_home_value": 358130, "pct_renter": 37, "pct_poverty": null, "pct_vacant": 8, "pct_black": 29, "pct_white": 50, "pct_hispanic": 14, "pct_asian": 2}, "related": [{"owner": "GARRETTE FAMILY TRUST", "parcels": 1, "via": "mailing address"}], "parcels": [{"parcel_id": "101222", "address": "2516 SOLON DR", "lat": "36.18958", "lon": "-86.713025", "sale_price": -1.0, "sale_date": "", "market_value": 495800.0, "beds": 3.0, "bath": 2.0, "sqft": 1171.0, "year_built": "1986", "acres": 0.24}, {"parcel_id": "109797", "address": "6037 PANAMA DR", "lat": "36.190114", "lon": "-86.618458", "sale_price": -1.0, "sale_date": "", "market_value": 215100.0, "beds": 2.0, "bath": 1.0, "sqft": 950.0, "year_built": "1961", "acres": 0.17}, {"parcel_id": "36009", "address": "815 NEELYS BEND RD", "lat": "36.253128", "lon": "-86.694665", "sale_price": -1.0, "sale_date": "", "market_value": 275600.0, "beds": 2.0, "bath": 1.0, "sqft": 854.0, "year_built": "1940", "acres": 0.94}, {"parcel_id": "38741", "address": "637 KINSEY BLVD", "lat": "36.251884", "lon": "-86.68987", "sale_price": -1.0, "sale_date": "", "market_value": 247300.0, "beds": 2.0, "bath": 1.0, "sqft": 1112.0, "year_built": "1950", "acres": 0.71}, {"parcel_id": "38838", "address": "921 NEELYS BEND RD", "lat": "36.25123", "lon": "-86.689645", "sale_price": -1.0, "sale_date": "", "market_value": 295000.0, "beds": 3.0, "bath": 1.0, "sqft": 1150.0, "year_built": "1956", "acres": 0.64}, {"parcel_id": "53442", "address": "4120 SAUNDERS AVE", "lat": "36.225591", "lon": "-86.733525", "sale_price": -1.0, "sale_date": "", "market_value": 449400.0, "beds": 3.0, "bath": 1.0, "sqft": 1375.0, "year_built": "1962", "acres": 0.69}, {"parcel_id": "55826", "address": "3820 SAUNDERS AVE", "lat": "36.217999", "lon": "-86.7376", "sale_price": null, "sale_date": "", "market_value": null, "beds": null, "bath": 0.0, "sqft": null, "year_built": "", "acres": null}, {"parcel_id": "55827", "address": "3820 SAUNDERS AVE", "lat": "36.218262", "lon": "-86.737501", "sale_price": -1.0, "sale_date": "", "market_value": 577200.0, "beds": 4.0, "bath": 1.5, "sqft": 1804.0, "year_built": "1960", "acres": 0.71}, {"parcel_id": "56429", "address": "3712 HILLTOP LN", "lat": "36.214002", "lon": "-86.735395", "sale_price": -1.0, "sale_date": "", "market_value": 315800.0, "beds": 2.0, "bath": 1.0, "sqft": 804.0, "year_built": "1959", "acres": 0.16}, {"parcel_id": "75338", "address": "1412 KIRKLAND AVE", "lat": "36.207411", "lon": "-86.724828", "sale_price": -1.0, "sale_date": "", "market_value": 394100.0, "beds": 2.0, "bath": 1.0, "sqft": 696.0, "year_built": "1975", "acres": 0.17}]}