{"cluster_id": 1136, "name": "STD PROPERTIES LLC", "entity_count": 2, "parcel_count": 10, "total_market_value": 2492200, "total_acres": 1.0, "owner_names": ["GOODRICH UNIT 5 LLC", "STD PROPERTIES LLC"], "registered_agents": [], "principal_offices": [], "primary_sos_status": "", "primary_foreign_state": "", "brand": "", "opencorporates": "https://opencorporates.com/companies?q=STD+PROPERTIES+LLC&utf8=%E2%9C%93", "primary_type": "", "portfolio": {"n_parcels_with_acs": 4, "median_income": 100516, "median_home_value": 530540, "pct_renter": 41, "pct_poverty": null, "pct_vacant": 17, "pct_black": 22, "pct_white": 67, "pct_hispanic": 5, "pct_asian": 2}, "related": [{"owner": "GOODRICH UNIT 5 LLC", "parcels": 1, "via": "mailing address"}], "parcels": [{"parcel_id": "152505", "address": "4215 HARDING PIKE APT 1003", "lat": "36.128113", "lon": "-86.84131", "sale_price": 405000.0, "sale_date": "9 Mar 2023", "market_value": 397800.0, "beds": 1.0, "bath": 1.0, "sqft": 939.0, "year_built": "1995", "acres": 0.0}, {"parcel_id": "161826", "address": "", "lat": "", "lon": ""}, {"parcel_id": "177124", "address": "1008 DAVIDSON RD", "lat": "36.118702", "lon": "-86.891928", "sale_price": 762500.0, "sale_date": "9 Mar 2023", "market_value": 752100.0, "beds": 3.0, "bath": 2.0, "sqft": 1676.0, "year_built": "1990", "acres": 1.03}, {"parcel_id": "186452", "address": "", "lat": "", "lon": ""}, {"parcel_id": "186453", "address": "", "lat": "", "lon": ""}, {"parcel_id": "186454", "address": "", "lat": "", "lon": ""}, {"parcel_id": "412235", "address": "", "lat": "", "lon": ""}, {"parcel_id": "438090", "address": "1910 12TH AVE S", "lat": "36.13406", "lon": "-86.788648"}, {"parcel_id": "438126", "address": "1900 12TH AVE S APT 314", "lat": "36.134025", "lon": "-86.788456", "sale_price": 329900.0, "sale_date": "14 Dec 2018", "market_value": 479900.0, "beds": 2.0, "bath": 1.0, "sqft": 821.0, "year_built": "2016", "acres": null}, {"parcel_id": "461093", "address": "2131 GOODRICH AVE UNIT 5", "lat": "36.196997", "lon": "-86.83016", "sale_price": 965070.0, "sale_date": "6 Oct 2022", "market_value": 862400.0, "beds": 3.0, "bath": 4.0, "sqft": 2190.0, "year_built": "2022", "acres": null}]}