{"cluster_id": 1146, "name": "JASON CARRIE FAMILY TRUST", "entity_count": 2, "parcel_count": 10, "total_market_value": 3767035, "total_acres": 6.2, "owner_names": ["JASON CARRIE FAMILY TRUST", "TUCKER JASON CARRIE FAMILY TRUST"], "registered_agents": [], "principal_offices": [], "primary_sos_status": "", "primary_foreign_state": "", "brand": "", "opencorporates": "https://opencorporates.com/companies?q=JASON+CARRIE+FAMILY+TRUST&utf8=%E2%9C%93", "primary_type": "", "portfolio": {"n_parcels_with_acs": 10, "median_income": 97546, "median_home_value": 382130, "pct_renter": 17, "pct_poverty": null, "pct_vacant": 9, "pct_black": 18, "pct_white": 70, "pct_hispanic": 11, "pct_asian": 2}, "related": [{"owner": "TUCKER JASON CARRIE FAMILY TRUST", "parcels": 1, "via": "mailing address"}], "parcels": [{"parcel_id": "107937", "address": "25 FAIRWAY DR", "lat": "36.176221", "lon": "-86.680659", "sale_price": -1.0, "sale_date": "", "market_value": 304100.0, "beds": 3.0, "bath": 1.0, "sqft": 1339.0, "year_built": "1954", "acres": 0.49}, {"parcel_id": "140247", "address": "2844 EMERY DR", "lat": "36.156647", "lon": "-86.659876", "sale_price": -1.0, "sale_date": "", "market_value": 234800.0, "beds": 2.0, "bath": 1.0, "sqft": 874.0, "year_built": "1955", "acres": 0.31}, {"parcel_id": "141356", "address": "416 LORNA DR", "lat": "36.159196", "lon": "-86.6657", "sale_price": -1.0, "sale_date": "", "market_value": 264500.0, "beds": 3.0, "bath": 1.0, "sqft": 975.0, "year_built": "1955", "acres": 0.48}, {"parcel_id": "141358", "address": "300 DONELSON PIKE", "lat": "36.158948", "lon": "-86.665167", "sale_price": -1.0, "sale_date": "", "market_value": 791735.0, "beds": 2.0, "bath": 0.0, "sqft": 0.0, "year_built": "1980", "acres": 0.83}, {"parcel_id": "171082", "address": "3121 E LAKE DR", "lat": "36.140348", "lon": "-86.639506", "sale_price": 98000.0, "sale_date": "6 Feb 2015", "market_value": 290400.0, "beds": 2.0, "bath": 1.0, "sqft": 1054.0, "year_built": "1981", "acres": 0.28}, {"parcel_id": "176344", "address": "3609 EARHART RD", "lat": "36.140394", "lon": "-86.569434", "sale_price": -1.0, "sale_date": "", "market_value": 308500.0, "beds": 2.0, "bath": 1.0, "sqft": 1284.0, "year_built": "1960", "acres": 0.82}, {"parcel_id": "176345", "address": "3615 EARHART RD", "lat": "36.139986", "lon": "-86.5695", "sale_price": -1.0, "sale_date": "", "market_value": 454600.0, "beds": 3.0, "bath": 2.0, "sqft": 1458.0, "year_built": "1970", "acres": 1.09}, {"parcel_id": "176346", "address": "3605 EARHART RD", "lat": "36.14075", "lon": "-86.569327", "sale_price": 355000.0, "sale_date": "31 Oct 2025", "market_value": 422100.0, "beds": 3.0, "bath": 1.0, "sqft": 1325.0, "year_built": "1985", "acres": 1.03}, {"parcel_id": "176560", "address": "3619 EARHART RD", "lat": "36.139628", "lon": "-86.569626", "sale_price": -1.0, "sale_date": "", "market_value": 336600.0, "beds": 4.0, "bath": 2.0, "sqft": 1895.0, "year_built": "1975", "acres": 0.57}, {"parcel_id": "83917", "address": "606 DENVER DR", "lat": "36.208378", "lon": "-86.599978", "sale_price": -1.0, "sale_date": "", "market_value": 359700.0, "beds": 3.0, "bath": 1.5, "sqft": 1761.0, "year_built": "1969", "acres": 0.26}]}