{"cluster_id": 1155, "name": "TLC HOMES LLC", "entity_count": 3, "parcel_count": 10, "total_market_value": 3777800, "total_acres": 1.7, "owner_names": ["LE TU VAN CHANH THI PHAM REVOCABLE LIVING TRUST", "TLC HOMES LLC", "TU VAN LE CHANH THI PHAM LE REVOCABLE LIVING TRUST"], "registered_agents": [], "principal_offices": [], "primary_sos_status": "", "primary_foreign_state": "", "brand": "", "opencorporates": "https://opencorporates.com/companies?q=TLC+HOMES+LLC&utf8=%E2%9C%93", "primary_type": "", "portfolio": {"n_parcels_with_acs": 10, "median_income": 89451, "median_home_value": 450680, "pct_renter": 30, "pct_poverty": null, "pct_vacant": 3, "pct_black": 4, "pct_white": 74, "pct_hispanic": 7, "pct_asian": 12}, "related": [{"owner": "LE TU VAN CHANH THI PHAM REVOCABLE LIVING TRUST", "parcels": 1, "via": "mailing address"}, {"owner": "TU VAN LE CHANH THI PHAM LE REVOCABLE LIVING TRUST", "parcels": 1, "via": "mailing address"}], "parcels": [{"parcel_id": "114959", "address": "515 ACHIEVEMENT DR", "lat": "36.149287", "lon": "-86.882471", "sale_price": -1.0, "sale_date": "", "market_value": 398600.0, "beds": 2.0, "bath": 1.0, "sqft": 1289.0, "year_built": "1960", "acres": 0.37}, {"parcel_id": "115218", "address": "6410 THUNDERBIRD DR", "lat": "36.149246", "lon": "-86.877827", "sale_price": -1.0, "sale_date": "", "market_value": 446600.0, "beds": 3.0, "bath": 2.0, "sqft": 1104.0, "year_built": "1960", "acres": 0.23}, {"parcel_id": "115685", "address": "488 SUNLINER DR", "lat": "36.152468", "lon": "-86.883993", "sale_price": -1.0, "sale_date": "", "market_value": 386600.0, "beds": 2.0, "bath": 1.0, "sqft": 1352.0, "year_built": "1959", "acres": 0.22}, {"parcel_id": "147311", "address": "512 LANDAU DR", "lat": "36.144102", "lon": "-86.885236", "sale_price": -1.0, "sale_date": "", "market_value": 395400.0, "beds": 2.0, "bath": 1.0, "sqft": 1000.0, "year_built": "1965", "acres": 0.26}, {"parcel_id": "202049", "address": "7806 SAWYER BROWN RD", "lat": "36.090137", "lon": "-86.934147", "sale_price": -1.0, "sale_date": "", "market_value": 282100.0, "beds": 2.0, "bath": 1.5, "sqft": 1202.0, "year_built": "1985", "acres": 0.21}, {"parcel_id": "202661", "address": "7813 INDIAN SPRINGS DR", "lat": "36.090701", "lon": "-86.946341", "sale_price": -1.0, "sale_date": "", "market_value": 807400.0, "beds": 5.0, "bath": 3.5, "sqft": 3599.0, "year_built": "2001", "acres": null}, {"parcel_id": "245987", "address": "108 MCMURRAY CIR", "lat": "36.060896", "lon": "-86.717396", "sale_price": 165000.0, "sale_date": "7 Jun 2019", "market_value": 259200.0, "beds": 2.0, "bath": 1.5, "sqft": 1109.0, "year_built": "1985", "acres": 0.0}, {"parcel_id": "246227", "address": "126 MCMURRAY CIR", "lat": "36.060315", "lon": "-86.718166", "sale_price": 245000.0, "sale_date": "15 Jul 2024", "market_value": 259200.0, "beds": 2.0, "bath": 1.5, "sqft": 1109.0, "year_built": "1985", "acres": 0.0}, {"parcel_id": "271201", "address": "761 HUNTINGTON PKWY", "lat": "36.051247", "lon": "-86.741571", "sale_price": 160000.0, "sale_date": "3 Aug 2017", "market_value": 299400.0, "beds": 4.0, "bath": 2.0, "sqft": 1664.0, "year_built": "1980", "acres": 0.13}, {"parcel_id": "288182", "address": "5813 LABRADOR LN", "lat": "36.03236", "lon": "-86.710712", "sale_price": 133000.0, "sale_date": "13 Dec 2016", "market_value": 243300.0, "beds": 3.0, "bath": 2.0, "sqft": 1074.0, "year_built": "1985", "acres": 0.25}]}