{"cluster_id": 1159, "name": "MARK ONE DEVELOPMENT LLC", "entity_count": 2, "parcel_count": 10, "total_market_value": 3426500, "total_acres": 0.4, "owner_names": ["M 1 REAL ESTATE HOLDINGS LLC", "MARK ONE DEVELOPMENT LLC"], "registered_agents": [], "principal_offices": [], "primary_sos_status": "", "primary_foreign_state": "", "brand": "", "opencorporates": "https://opencorporates.com/companies?q=MARK+ONE+DEVELOPMENT+LLC&utf8=%E2%9C%93", "primary_type": "", "portfolio": {"n_parcels_with_acs": 8, "median_income": 128754, "median_home_value": 613750, "pct_renter": 33, "pct_poverty": null, "pct_vacant": 18, "pct_black": 24, "pct_white": 67, "pct_hispanic": 1, "pct_asian": 4}, "related": [{"owner": "M 1 REAL ESTATE HOLDINGS LLC", "parcels": 1, "via": "mailing address"}], "parcels": [{"parcel_id": "122979", "address": "", "lat": "", "lon": ""}, {"parcel_id": "157687", "address": "3204 OVERLOOK DR", "lat": "36.134545", "lon": "-86.815315", "sale_price": -1.0, "sale_date": "", "market_value": 2680900.0, "beds": 5.0, "bath": 6.0, "sqft": 4539.0, "year_built": "2025", "acres": 0.27}, {"parcel_id": "184122", "address": "", "lat": "", "lon": ""}, {"parcel_id": "467502", "address": "2717 BATAVIA ST", "lat": "36.161024", "lon": "-86.817343"}, {"parcel_id": "467503", "address": "2719 BATAVIA ST", "lat": "36.161009", "lon": "-86.817428"}, {"parcel_id": "468450", "address": "2426 BRITTANY DR", "lat": "36.17546", "lon": "-86.721027"}, {"parcel_id": "468451", "address": "2428 BRITTANY DR", "lat": "36.175451", "lon": "-86.720854"}, {"parcel_id": "471186", "address": "3506 FOXHALL RD", "lat": "36.114741", "lon": "-86.832072"}, {"parcel_id": "471187", "address": "3508 FOXHALL RD", "lat": "36.114621", "lon": "-86.832091"}, {"parcel_id": "95460", "address": "127 CLEVELAND ST", "lat": "36.18746", "lon": "-86.77104", "sale_price": -1.0, "sale_date": "", "market_value": 745600.0, "beds": 4.0, "bath": 3.0, "sqft": 2146.0, "year_built": "2024", "acres": 0.12}]}