{"cluster_id": 1182, "name": "WHITE REV TRUST", "entity_count": 6, "parcel_count": 10, "total_market_value": 5656300, "total_acres": 2.7, "owner_names": ["ROCHLITZ FAMILY IRREVOCABLE TRUST", "TIM S PROPERTIES TOO LLC", "TIMS PROPERTIES LLC", "TIMS PROPERTIES TOO LLC", "WHITE REV TRUST", "WHITE REV TRUST THE"], "registered_agents": [], "principal_offices": [], "primary_sos_status": "", "primary_foreign_state": "", "brand": "", "opencorporates": "https://opencorporates.com/companies?q=WHITE+REV+TRUST&utf8=%E2%9C%93", "primary_type": "", "portfolio": {"n_parcels_with_acs": 10, "median_income": 103080, "median_home_value": 657640, "pct_renter": 44, "pct_poverty": null, "pct_vacant": 8, "pct_black": 21, "pct_white": 69, "pct_hispanic": 4, "pct_asian": 0}, "related": [{"owner": "TIMS PROPERTIES LLC", "parcels": 2, "via": "mailing address"}, {"owner": "ROCHLITZ FAMILY IRREVOCABLE TRUST", "parcels": 2, "via": "mailing address"}, {"owner": "TIM S PROPERTIES TOO LLC", "parcels": 2, "via": "mailing address"}, {"owner": "TIMS PROPERTIES TOO LLC", "parcels": 1, "via": "mailing address"}, {"owner": "WHITE REV TRUST THE", "parcels": 1, "via": "mailing address"}], "parcels": [{"parcel_id": "102059", "address": "1032 MANSFIELD AVE", "lat": "36.181116", "lon": "-86.750468", "sale_price": -1.0, "sale_date": "", "market_value": 513300.0, "beds": 2.0, "bath": 1.0, "sqft": 1333.0, "year_built": "1985", "acres": 0.21}, {"parcel_id": "134115", "address": "1613 ELECTRIC AVE", "lat": "36.167624", "lon": "-86.741801", "sale_price": -1.0, "sale_date": "", "market_value": 412800.0, "beds": 2.0, "bath": 1.0, "sqft": 990.0, "year_built": "1970", "acres": 0.19}, {"parcel_id": "134335", "address": "708 S 12TH ST", "lat": "36.167078", "lon": "-86.750294", "sale_price": -1.0, "sale_date": "", "market_value": 405900.0, "beds": 2.0, "bath": 1.0, "sqft": 768.0, "year_built": "1951", "acres": 0.21}, {"parcel_id": "135425", "address": "1419 ELECTRIC AVE", "lat": "36.166517", "lon": "-86.745671", "sale_price": 110000.0, "sale_date": "29 Oct 2010", "market_value": 453800.0, "beds": 2.0, "bath": 1.0, "sqft": 882.0, "year_built": "1985", "acres": 0.16}, {"parcel_id": "135650", "address": "705 S 15TH ST", "lat": "36.167777", "lon": "-86.74404", "sale_price": 110000.0, "sale_date": "24 Aug 2012", "market_value": 442800.0, "beds": 2.0, "bath": 1.0, "sqft": 702.0, "year_built": "1995", "acres": 0.22}, {"parcel_id": "240181", "address": "5870 E ASHLAND DR", "lat": "36.065562", "lon": "-86.830064", "sale_price": -1.0, "sale_date": "", "market_value": 1590200.0, "beds": 4.0, "bath": 3.0, "sqft": 2574.0, "year_built": "1970", "acres": 1.35}, {"parcel_id": "305952", "address": "309 CHURCH ST APT 303", "lat": "36.163816", "lon": "-86.77793", "sale_price": 290000.0, "sale_date": "27 May 2015", "market_value": 556200.0, "beds": 2.0, "bath": 1.5, "sqft": 1059.0, "year_built": "2005", "acres": null}, {"parcel_id": "97957", "address": "1004 MANSFIELD AVE", "lat": "36.181349", "lon": "-86.752851", "sale_price": -1.0, "sale_date": "", "market_value": 710400.0, "beds": 4.0, "bath": 2.0, "sqft": 1665.0, "year_built": "1995", "acres": 0.19}, {"parcel_id": "97958", "address": "1006 MANSFIELD AVE", "lat": "36.181332", "lon": "-86.752684", "sale_price": -1.0, "sale_date": "", "market_value": 570900.0, "beds": 4.0, "bath": 2.0, "sqft": 1881.0, "year_built": "1975", "acres": 0.19}, {"parcel_id": "99227", "address": "212 BERRY ST", "lat": "36.181042", "lon": "-86.770619", "sale_price": null, "sale_date": "", "market_value": null, "beds": null, "bath": 0.0, "sqft": null, "year_built": "", "acres": null}]}