{"cluster_id": 119, "name": "HC D HILL RETAIL LLC", "entity_count": 48, "parcel_count": 69, "total_market_value": 2483862146, "total_acres": 215.5, "owner_names": ["AERO NASHVILLE LLC", "ALM NASHVILLE LLC", "ARA USH CHICAGO LLC", "BELLEVUE APARTMENT OWNER LLC", "CAROTHERS CROSSING NEIGHBORHOOD ASSOCIATION INC", "CV HOTEL OWNER LLC", "CWS MUSIC ROW CLEAR LAKE LLC ETAL", "DEMONBREUN FCA LLC", "DG NASHVILLE AIRPORT EAST PROPERTY OWNER LP", "FIRST INDUSTRIAL LP", "FLATS TN I LLC", "FRC GENESIS FUNDSUB IV LLC", "GTOM GH 1 LLC", "HAWKINS NASHVILLE LLC", "HC D HILL OFFICE LLC", "HC D HILL PARKING LLC", "HC D HILL RETAIL LLC", "HC HAMMERMILL LLC", "HC VAN BUREN LLC", "INFINITY LOFTS GULCH 2 LLC", "INFINITY MIDTOWN NASHVILLE LLC", "IV5 733 MASSMAN DRIVE LLC", "MCGAVOCK ASSOCIATES LTD", "METROCENTER NORTH OWNER LLC", "METROCENTER SOUTH OWNER LLC", "MUSIC CITY HOTELS LLC", "NF IV I NASHVILLE DT LLC", "NW 5 B MULTIFAMILY LLC", "NW 5 B OFFICE AND RETAIL LLC", "OPRYLAND HOSPITALITY I LLC", "PENNINGTON CENTRE BLVD OWNER LLC", "PEP MUSIC SQUARE LLC", "PR MIG GREENHILLS OWNER LLC", "RB NASHVILLE GARAGE LLC", "RB NASHVILLE LLC", "RW GC MARATHON VILLAGE OWNER LLC", "SEA 137 LLC", "SREIT HICKORY POINT NASHVILLE LLC", "SREIT WATERFORD LANDING APARTMENTS LLC", "SREIT WYNDCHASE BELLEVUE APARTMENTS LLC", "TERMINAL LOGISTICS II FXG GROUND SPE LLC", "TGA OCTAVE APARTMENTS LLC", "TN PRINTERS HOTEL OWNER LLC", "TREA 12 SOUTH APT LLC", "UNION BRICK RE LLC", "WATERLEAF TN LLC", "WEST END VILLAGE APARTMENTS INC", "XHR NASHVILLE GULCH LLC"], "registered_agents": [], "principal_offices": [], "primary_sos_status": "", "primary_foreign_state": "", "brand": "Starwood Capital Group", "opencorporates": "https://opencorporates.com/companies?q=HC+D+HILL+RETAIL+LLC&utf8=%E2%9C%93", "primary_type": "", "portfolio": {"n_parcels_with_acs": 62, "median_income": 75014, "median_home_value": 535396, "pct_renter": 67, "pct_poverty": null, "pct_vacant": 21, "pct_black": 19, "pct_white": 58, "pct_hispanic": 14, "pct_asian": 5}, "related": [{"owner": "FIRST INDUSTRIAL LP", "parcels": 4, "via": "mailing address"}, {"owner": "HC D HILL PARKING LLC", "parcels": 4, "via": "mailing address"}, {"owner": "CAROTHERS CROSSING NEIGHBORHOOD ASSOCIATION INC", "parcels": 3, "via": "mailing address"}, {"owner": "DG NASHVILLE AIRPORT EAST PROPERTY OWNER LP", "parcels": 3, "via": "mailing address"}, {"owner": "HC D HILL OFFICE LLC", "parcels": 2, "via": "mailing address"}, {"owner": "PEP MUSIC SQUARE LLC", "parcels": 2, "via": "mailing address"}, {"owner": "UNION BRICK RE LLC", "parcels": 2, "via": "mailing address"}, {"owner": "HAWKINS NASHVILLE LLC", "parcels": 2, "via": "mailing address"}, {"owner": "ARA USH CHICAGO LLC", "parcels": 2, "via": "mailing address"}, {"owner": "NW 5 B OFFICE AND RETAIL LLC", "parcels": 2, "via": "mailing address"}, {"owner": "NF IV I NASHVILLE DT LLC", "parcels": 2, "via": "mailing address"}, {"owner": "FRC GENESIS FUNDSUB IV LLC", "parcels": 1, "via": "mailing address"}, {"owner": "NW 5 B MULTIFAMILY LLC", "parcels": 1, "via": "mailing address"}, {"owner": "MUSIC CITY HOTELS LLC", "parcels": 1, "via": "mailing address"}, {"owner": "GTOM GH 1 LLC", "parcels": 1, "via": "mailing address"}, {"owner": "TGA OCTAVE APARTMENTS LLC", "parcels": 1, "via": "mailing address"}, {"owner": "MCGAVOCK ASSOCIATES LTD", "parcels": 1, "via": "mailing address"}, {"owner": "RW GC MARATHON VILLAGE OWNER LLC", "parcels": 1, "via": "mailing address"}, {"owner": "IV5 733 MASSMAN DRIVE LLC", "parcels": 1, "via": "mailing address"}, {"owner": "RB NASHVILLE GARAGE LLC", "parcels": 1, "via": "mailing address"}, {"owner": "OPRYLAND HOSPITALITY I LLC", "parcels": 1, "via": "mailing address"}, {"owner": "DEMONBREUN FCA LLC", "parcels": 1, "via": "mailing address"}, {"owner": "SEA 137 LLC", "parcels": 1, "via": "mailing address"}, {"owner": "WATERLEAF TN LLC", "parcels": 1, "via": "mailing address"}, {"owner": "SREIT WATERFORD LANDING APARTMENTS LLC", "parcels": 1, "via": "mailing address"}, {"owner": "SREIT WYNDCHASE BELLEVUE APARTMENTS LLC", "parcels": 1, "via": "mailing address"}, {"owner": "SREIT HICKORY POINT NASHVILLE LLC", "parcels": 1, "via": "mailing address"}, {"owner": "PR MIG GREENHILLS OWNER LLC", "parcels": 1, "via": "mailing address"}, {"owner": "HC HAMMERMILL LLC", "parcels": 1, "via": "mailing address"}, {"owner": "HC VAN BUREN LLC", "parcels": 1, "via": "mailing address"}, {"owner": "INFINITY LOFTS GULCH 2 LLC", "parcels": 1, "via": "mailing address"}, {"owner": "CV HOTEL OWNER LLC", "parcels": 1, "via": "mailing address"}, {"owner": "INFINITY MIDTOWN NASHVILLE LLC", "parcels": 1, "via": "mailing address"}, {"owner": "AERO NASHVILLE LLC", "parcels": 1, "via": "mailing address"}, {"owner": "PENNINGTON CENTRE BLVD OWNER LLC", "parcels": 1, "via": "mailing address"}, {"owner": "METROCENTER NORTH OWNER LLC", "parcels": 1, "via": "mailing address"}, {"owner": "ALM NASHVILLE LLC", "parcels": 1, "via": "mailing address"}, {"owner": "CWS MUSIC ROW CLEAR LAKE LLC ETAL", "parcels": 1, "via": "mailing address"}, {"owner": "FLATS TN I LLC", "parcels": 1, "via": "mailing address"}, {"owner": "TN PRINTERS HOTEL OWNER LLC", "parcels": 1, "via": "mailing address"}], "parcels": [{"parcel_id": "123145", "address": "800 16TH AVE N", "lat": "36.164582", "lon": "-86.798395", "sale_price": 250000.0, "sale_date": "21 Jul 2015", "market_value": 90759900.0, "beds": 0.0, "bath": 0.0, "sqft": 488096.0, "year_built": "2024", "acres": 2.46}, {"parcel_id": "123155", "address": "801 12TH AVE N", "lat": "36.165841", "lon": "-86.796442", "sale_price": -1.0, "sale_date": "", "market_value": 123295900.0, "beds": null, "bath": 0.0, "sqft": 547858.0, "year_built": "2025", "acres": 3.91}, {"parcel_id": "123496", "address": "800 14TH AVE N", "lat": "36.165072", "lon": "-86.797014"}, {"parcel_id": "126718", "address": "2100 HAYES ST", "lat": "36.151601", "lon": "-86.802444", "sale_price": 66200000.0, "sale_date": "22 Dec 2021", "market_value": 68624400.0, "beds": 0.0, "bath": 0.0, "sqft": 205312.0, "year_built": "2018", "acres": 0.62}, {"parcel_id": "127543", "address": "2110 ELLISTON PL", "lat": "36.152392", "lon": "-86.803458", "sale_price": 35900000.0, "sale_date": "3 Jun 2022", "market_value": 31700000.0, "beds": 0.0, "bath": 0.0, "sqft": 0.0, "year_built": "2014", "acres": 0.68}, {"parcel_id": "128261", "address": "900 18TH AVE S", "lat": "36.148129", "lon": "-86.794475", "sale_price": -1.0, "sale_date": "", "market_value": 8974360.0, "beds": 0.0, "bath": 0.0, "sqft": 0.0, "year_built": "1994", "acres": 1.03}, {"parcel_id": "128268", "address": "49 MUSIC SQ W", "lat": "36.148275", "lon": "-86.793859", "sale_price": -1.0, "sale_date": "", "market_value": 8015640.0, "beds": 0.0, "bath": 0.0, "sqft": 0.0, "year_built": "2005", "acres": 0.52}, {"parcel_id": "128918", "address": "315 UNION ST", "lat": "36.165171", "lon": "-86.778962", "sale_price": -1.0, "sale_date": "", "market_value": 45278700.0, "beds": 0.0, "bath": 0.0, "sqft": 101722.0, "year_built": "2020", "acres": 0.19}, {"parcel_id": "128938", "address": "300 CHURCH ST", "lat": "36.164279", "lon": "-86.778201", "sale_price": 29250000.0, "sale_date": "18 Aug 2022", "market_value": 19276300.0, "beds": 0.0, "bath": 0.0, "sqft": 110800.0, "year_built": "2000", "acres": 0.41}, {"parcel_id": "130915", "address": "200 4TH AVE N", "lat": "36.164006", "lon": "-86.778732", "sale_price": -1.0, "sale_date": "", "market_value": 72845700.0, "beds": 0.0, "bath": 0.0, "sqft": 135712.0, "year_built": "2015", "acres": 0.28}, {"parcel_id": "130970", "address": "112 16TH AVE S", "lat": "36.15311", "lon": "-86.791727"}, {"parcel_id": "130971", "address": "1533 MCGAVOCK ST", "lat": "36.1533", "lon": "-86.791547"}, {"parcel_id": "130972", "address": "1531 MCGAVOCK ST", "lat": "36.153305", "lon": "-86.791326"}, {"parcel_id": "130973", "address": "1529 MCGAVOCK ST", "lat": "36.153357", "lon": "-86.791213"}, {"parcel_id": "130998", "address": "525 REP JOHN LEWIS WAY S", "lat": "36.153962", "lon": "-86.774594", "sale_price": 664000.0, "sale_date": "21 Dec 2012", "market_value": 45231700.0, "beds": 0.0, "bath": 0.0, "sqft": 220294.0, "year_built": "2019", "acres": 1.1}, {"parcel_id": "131010", "address": "508 LEA AVE", "lat": "36.153773", "lon": "-86.774817"}, {"parcel_id": "131204", "address": "1522 DEMONBREUN ST", "lat": "36.153153", "lon": "-86.790339", "sale_price": -1.0, "sale_date": "", "market_value": 3459500.0, "beds": 0.0, "bath": 0.0, "sqft": 7418.0, "year_built": "2000", "acres": 0.19}, {"parcel_id": "133076", "address": "1532 DEMONBREUN ST", "lat": "36.152849", "lon": "-86.791167", "sale_price": -1.0, "sale_date": "", "market_value": 24102100.0, "beds": 0.0, "bath": 0.0, "sqft": 66414.0, "year_built": "1985", "acres": 0.8}, {"parcel_id": "133079", "address": "", "lat": "", "lon": ""}, {"parcel_id": "133080", "address": "1528 DEMONBREUN ST", "lat": "36.153008", "lon": "-86.790674", "sale_price": -1.0, "sale_date": "", "market_value": 5822800.0, "beds": 0.0, "bath": 0.0, "sqft": 0.0, "year_built": "2000", "acres": 0.22}, {"parcel_id": "133083", "address": "1524A DEMONBREUN ST", "lat": "36.153085", "lon": "-86.790494", "sale_price": -1.0, "sale_date": "", "market_value": 3784800.0, "beds": 0.0, "bath": 0.0, "sqft": 6965.0, "year_built": "2000", "acres": 0.21}, {"parcel_id": "133453", "address": "300 12TH AVE S", "lat": "36.153223", "lon": "-86.784887", "sale_price": 203360000.0, "sale_date": "29 Mar 2022", "market_value": 178608700.0, "beds": 0.0, "bath": 0.0, "sqft": 361628.0, "year_built": "2021", "acres": 1.16}, {"parcel_id": "134187", "address": "1736 RIVER HILLS DR", "lat": "36.165902", "lon": "-86.711158", "sale_price": -1.0, "sale_date": "", "market_value": 18030000.0, "beds": 0.0, "bath": 0.0, "sqft": 0.0, "year_built": "1978", "acres": 19.08}, {"parcel_id": "143692", "address": "5901 OLD HICKORY BLVD", "lat": "36.166106", "lon": "-86.60013", "sale_price": 25836678.0, "sale_date": "28 Sep 2016", "market_value": 32971000.0, "beds": 0.0, "bath": 0.0, "sqft": 0.0, "year_built": "1998", "acres": 14.96}, {"parcel_id": "152587", "address": "221 31ST AVE N", "lat": "36.145848", "lon": "-86.817455", "sale_price": 51250000.0, "sale_date": "9 Jan 2014", "market_value": 56936000.0, "beds": 0.0, "bath": 0.0, "sqft": 0.0, "year_built": "2013", "acres": 2.61}, {"parcel_id": "155836", "address": "2020 WEDGEWOOD AVE", "lat": "36.137987", "lon": "-86.799589", "sale_price": 795000.0, "sale_date": "7 Dec 2015", "market_value": 2916600.0, "beds": 0.0, "bath": 3.0, "sqft": 2659.0, "year_built": "2015", "acres": 0.23}, {"parcel_id": "161231", "address": "930 SOUTH ST", "lat": "36.147372", "lon": "-86.781969", "sale_price": -1.0, "sale_date": "", "market_value": 5992900.0, "beds": 0.0, "bath": 0.0, "sqft": 1152.0, "year_built": "1994", "acres": 0.85}, {"parcel_id": "162077", "address": "1001 HAWKINS ST", "lat": "36.147466", "lon": "-86.782919", "sale_price": -1.0, "sale_date": "", "market_value": 8943700.0, "beds": 0.0, "bath": 0.0, "sqft": 36056.0, "year_built": "2010", "acres": 1.14}, {"parcel_id": "165716", "address": "2310 12TH AVE S", "lat": "36.126912", "lon": "-86.788737", "sale_price": 43600000.0, "sale_date": "12 Apr 2022", "market_value": 33522000.0, "beds": null, "bath": 0.0, "sqft": 0.0, "year_built": "2013", "acres": 1.22}, {"parcel_id": "166108", "address": "2350 8TH AVE S", "lat": "36.127035", "lon": "-86.776193", "sale_price": 86100000.0, "sale_date": "29 Oct 2020", "market_value": 74250000.0, "beds": 0.0, "bath": 0.0, "sqft": 0.0, "year_built": "2017", "acres": 4.34}, {"parcel_id": "168554", "address": "733 MASSMAN DR", "lat": "36.148235", "lon": "-86.713716", "sale_price": 8600000.0, "sale_date": "30 Jun 2022", "market_value": 4942600.0, "beds": 0.0, "bath": 0.0, "sqft": 16918.0, "year_built": "2010", "acres": 6.61}, {"parcel_id": "169170", "address": "211 ELLERY CT", "lat": "36.146302", "lon": "-86.675863", "sale_price": -1.0, "sale_date": "", "market_value": 10154400.0, "beds": 0.0, "bath": 0.0, "sqft": 77647.0, "year_built": "2002", "acres": null}, {"parcel_id": "170764", "address": "1931 AIR LANE DR", "lat": "36.14733", "lon": "-86.696065", "sale_price": -1.0, "sale_date": "", "market_value": 12072200.0, "beds": 0.0, "bath": 0.0, "sqft": 88560.0, "year_built": "1984", "acres": 10.06}, {"parcel_id": "170782", "address": "0 MCGAVOCK PIKE", "lat": "36.144156", "lon": "-86.681374"}, {"parcel_id": "17702", "address": "430 EDENWOLD RD", "lat": "36.289813", "lon": "-86.700327", "sale_price": -1.0, "sale_date": "", "market_value": 34678300.0, "beds": null, "bath": 0.0, "sqft": 112056.0, "year_built": "2021", "acres": 40.15}, {"parcel_id": "185509", "address": "3800 BEDFORD AVE", "lat": "36.109131", "lon": "-86.819497", "sale_price": -1.0, "sale_date": "", "market_value": 28266800.0, "beds": 0.0, "bath": 0.0, "sqft": 110744.0, "year_built": "2014", "acres": 0.96}, {"parcel_id": "186661", "address": "3811 HILLSBORO PIKE", "lat": "36.107396", "lon": "-86.813327", "sale_price": -1.0, "sale_date": "", "market_value": 5124800.0, "beds": 0.0, "bath": 0.0, "sqft": 3875.0, "year_built": "2010", "acres": 0.39}, {"parcel_id": "198285", "address": "501 AIRPARK COMMERCE DR", "lat": "36.107706", "lon": "-86.639817", "sale_price": -1.0, "sale_date": "", "market_value": 24660700.0, "beds": null, "bath": 0.0, "sqft": 146790.0, "year_built": "2022", "acres": null}, {"parcel_id": "198288", "address": "700 AIRPARK COMMERCE DR", "lat": "36.105606", "lon": "-86.640367", "sale_price": -1.0, "sale_date": "", "market_value": 41252300.0, "beds": null, "bath": 0.0, "sqft": 252000.0, "year_built": "2022", "acres": null}, {"parcel_id": "202850", "address": "1000 AMBERWOOD CIR", "lat": "36.084454", "lon": "-86.917867", "sale_price": 48200000.0, "sale_date": "14 Dec 2021", "market_value": 45750000.0, "beds": 0.0, "bath": 0.0, "sqft": 0.0, "year_built": "1990", "acres": 44.59}, {"parcel_id": "229112", "address": "7221 HIGHWAY 70 S", "lat": "36.072586", "lon": "-86.929046", "sale_price": 36561816.0, "sale_date": "28 Sep 2016", "market_value": 40716000.0, "beds": 0.0, "bath": 0.0, "sqft": 0.0, "year_built": "2005", "acres": 10.77}, {"parcel_id": "245272", "address": "4640 CUMMINGS PARK DR", "lat": "36.072156", "lon": "-86.68003", "sale_price": -1.0, "sale_date": "", "market_value": 9869400.0, "beds": 0.0, "bath": 0.0, "sqft": 100800.0, "year_built": "1995", "acres": 9.8}, {"parcel_id": "268446", "address": "202 SUMMIT VIEW DR", "lat": "36.039076", "lon": "-86.780129", "sale_price": 18719855.0, "sale_date": "12 Nov 2014", "market_value": 11242000.0, "beds": 0.0, "bath": 0.0, "sqft": 72768.0, "year_built": "2005", "acres": 2.74}, {"parcel_id": "271129", "address": "15180 OLD HICKORY BLVD", "lat": "36.048158", "lon": "-86.721317", "sale_price": 91005720.0, "sale_date": "5 May 2022", "market_value": 56840000.0, "beds": 0.0, "bath": 0.0, "sqft": 0.0, "year_built": "2006", "acres": 24.95}, {"parcel_id": "306160", "address": "560 GREAT CIRCLE RD", "lat": "36.194643", "lon": "-86.806293"}, {"parcel_id": "30983", "address": "3301 KNIGHT DR", "lat": "36.237998", "lon": "-86.795305"}, {"parcel_id": "351305", "address": "", "lat": "", "lon": ""}, {"parcel_id": "358228", "address": "1100 PRINCETON HILLS DR", "lat": "35.978431", "lon": "-86.613415"}, {"parcel_id": "358229", "address": "0 CAROTHERS RD", "lat": "35.980806", "lon": "-86.612581"}, {"parcel_id": "358230", "address": "7300 CAROTHERS RD", "lat": "35.9801", "lon": "-86.612083"}, {"parcel_id": "384232", "address": "600 AIRPARK COMMERCE DR", "lat": "36.106109", "lon": "-86.643514", "sale_price": -1.0, "sale_date": "", "market_value": 52179300.0, "beds": null, "bath": 0.0, "sqft": 317520.0, "year_built": "2022", "acres": null}, {"parcel_id": "394760", "address": "2901 OLD FRANKLIN RD", "lat": "36.039855", "lon": "-86.635951", "sale_price": -1.0, "sale_date": "", "market_value": 73000000.0, "beds": null, "bath": 0.0, "sqft": 0.0, "year_built": "2021", "acres": null}, {"parcel_id": "399864", "address": "320 11TH AVE S", "lat": "36.153121", "lon": "-86.782834", "sale_price": 72925000.0, "sale_date": "30 Dec 2020", "market_value": 72376146.0, "beds": null, "bath": 0.0, "sqft": 0.0, "year_built": "2009", "acres": null}, {"parcel_id": "401560", "address": "1505 DEMONBREUN ST", "lat": "36.152406", "lon": "-86.78967", "sale_price": -1.0, "sale_date": "", "market_value": 63836000.0, "beds": 0.0, "bath": 0.0, "sqft": 308533.0, "year_built": "2014", "acres": null}, {"parcel_id": "415145", "address": "225 WALDEN VILLAGE LN", "lat": "36.141327", "lon": "-86.748546", "sale_price": 36000000.0, "sale_date": "30 Sep 2022", "market_value": 28502400.0, "beds": 0.0, "bath": 0.0, "sqft": 176416.0, "year_built": "2017", "acres": null}, {"parcel_id": "421295", "address": "1516 DEMONBREUN ST", "lat": "36.153261", "lon": "-86.790083", "sale_price": -1.0, "sale_date": "", "market_value": 7700400.0, "beds": null, "bath": 0.0, "sqft": 14280.0, "year_built": "2010", "acres": null}, {"parcel_id": "421296", "address": "1514 DEMONBREUN ST", "lat": "36.153412", "lon": "-86.789732"}, {"parcel_id": "424059", "address": "1400 ADAMS ST", "lat": "36.181491", "lon": "-86.784144", "sale_price": 12000000.0, "sale_date": "27 Dec 2021", "market_value": 7530600.0, "beds": null, "bath": 0.0, "sqft": 21109.0, "year_built": "2015", "acres": null}, {"parcel_id": "430207", "address": "530 11TH AVE N", "lat": "36.164633", "lon": "-86.791768", "sale_price": -1.0, "sale_date": "", "market_value": 46653400.0, "beds": 0.0, "bath": 0.0, "sqft": 112595.0, "year_built": "2020", "acres": null}, {"parcel_id": "438073", "address": "501 COMMERCE ST", "lat": "36.161384", "lon": "-86.779507", "sale_price": -1.0, "sale_date": "", "market_value": 252819100.0, "beds": null, "bath": 0.0, "sqft": 842978.0, "year_built": "2020", "acres": null}, {"parcel_id": "438074", "address": "600 BROADWAY # 1001-101", "lat": "36.160483", "lon": "-86.780028", "sale_price": -1.0, "sale_date": "", "market_value": 316026000.0, "beds": null, "bath": 0.0, "sqft": 708740.0, "year_built": "2020", "acres": null}, {"parcel_id": "438075", "address": "500 BROADWAY", "lat": "36.160715", "lon": "-86.779175", "sale_price": -1.0, "sale_date": "", "market_value": 165934000.0, "beds": null, "bath": 0.0, "sqft": 159438.0, "year_built": "2020", "acres": null}, {"parcel_id": "440130", "address": "", "lat": "", "lon": ""}, {"parcel_id": "441748", "address": "330 PENNINGTON CENTRE BLVD", "lat": "36.221095", "lon": "-86.689961", "sale_price": 95700000.0, "sale_date": "7 Feb 2022", "market_value": 59200000.0, "beds": null, "bath": 0.0, "sqft": 0.0, "year_built": "2021", "acres": null}, {"parcel_id": "57614", "address": "220 RUDY CIR", "lat": "36.220669", "lon": "-86.69627", "sale_price": 19599262.0, "sale_date": "12 Nov 2014", "market_value": 20042400.0, "beds": 0.0, "bath": 0.0, "sqft": 67709.0, "year_built": "2005", "acres": 2.16}, {"parcel_id": "57713", "address": "125 MUSIC CITY CIR", "lat": "36.222656", "lon": "-86.697109", "sale_price": 17750000.0, "sale_date": "16 Oct 2018", "market_value": 13265000.0, "beds": 0.0, "bath": 0.0, "sqft": 0.0, "year_built": "2010", "acres": 1.74}, {"parcel_id": "68695", "address": "550 GREAT CIRCLE RD", "lat": "36.195772", "lon": "-86.806758"}, {"parcel_id": "74213", "address": "3021 GALLATIN PIKE", "lat": "36.204664", "lon": "-86.738283", "sale_price": 1100000.0, "sale_date": "31 Oct 2019", "market_value": 1763700.0, "beds": 0.0, "bath": 0.0, "sqft": 2571.0, "year_built": "2000", "acres": 0.46}, {"parcel_id": "95880", "address": "91 VAN BUREN ST", "lat": "36.181436", "lon": "-86.785266", "sale_price": 8000000.0, "sale_date": "22 Dec 2021", "market_value": 14121500.0, "beds": null, "bath": 0.0, "sqft": 7995.0, "year_built": "2019", "acres": 1.87}]}