{"cluster_id": 1192, "name": "TBH PROPERTIES LLC", "entity_count": 1, "parcel_count": 10, "total_market_value": 3012400, "total_acres": 0.7, "owner_names": ["TBH PROPERTIES LLC"], "registered_agents": [], "principal_offices": [], "primary_sos_status": "", "primary_foreign_state": "", "brand": "", "opencorporates": "https://opencorporates.com/companies?q=TBH+PROPERTIES+LLC&utf8=%E2%9C%93", "primary_type": "", "portfolio": {"n_parcels_with_acs": 6, "median_income": 94475, "median_home_value": 677238, "pct_renter": 46, "pct_poverty": null, "pct_vacant": 6, "pct_black": 14, "pct_white": 72, "pct_hispanic": 8, "pct_asian": 1}, "related": [], "parcels": [{"parcel_id": "102931", "address": "1105 PRESTON DR", "lat": "36.187589", "lon": "-86.717531", "sale_price": 348801.0, "sale_date": "29 Mar 2021", "market_value": 1522600.0, "beds": 7.0, "bath": 7.0, "sqft": 6492.0, "year_built": "2020", "acres": 0.34}, {"parcel_id": "134719", "address": "607 S 19TH ST", "lat": "36.168372", "lon": "-86.737491", "sale_price": 285000.0, "sale_date": "24 May 2022", "market_value": 367600.0, "beds": 2.0, "bath": 1.0, "sqft": 768.0, "year_built": "1965", "acres": 0.06}, {"parcel_id": "149083", "address": "", "lat": "", "lon": ""}, {"parcel_id": "149084", "address": "", "lat": "", "lon": ""}, {"parcel_id": "39912", "address": "1128 PETER PAN ST", "lat": "36.245832", "lon": "-86.709969", "sale_price": 83000.0, "sale_date": "21 Dec 2017", "market_value": 348900.0, "beds": 2.0, "bath": 2.5, "sqft": 1185.53, "year_built": "2005", "acres": 0.27}, {"parcel_id": "459052", "address": "5707A MAUDINA AVE", "lat": "36.144122", "lon": "-86.860425", "sale_price": -1.0, "sale_date": "", "market_value": 773300.0, "beds": 4.0, "bath": 4.5, "sqft": 2450.0, "year_built": "2024", "acres": null}, {"parcel_id": "469113", "address": "1510 A HARWOOD DR", "lat": "36.194106", "lon": "-86.718977"}, {"parcel_id": "469114", "address": "1510 B HARWOOD DR", "lat": "36.194159", "lon": "-86.718977"}, {"parcel_id": "469891", "address": "1308A GRAND AVE", "lat": "36.14631", "lon": "-86.788123"}, {"parcel_id": "469892", "address": "1308B GRAND AVE", "lat": "36.146379", "lon": "-86.788117"}]}