{"cluster_id": 1193, "name": "TIMO6 LLC", "entity_count": 1, "parcel_count": 10, "total_market_value": 5317300, "total_acres": 2.3, "owner_names": ["TIMO6 LLC"], "registered_agents": [], "principal_offices": [], "primary_sos_status": "", "primary_foreign_state": "", "brand": "", "opencorporates": "https://opencorporates.com/companies?q=TIMO6+LLC&utf8=%E2%9C%93", "primary_type": "", "portfolio": {"n_parcels_with_acs": 7, "median_income": 114796, "median_home_value": 644557, "pct_renter": 47, "pct_poverty": null, "pct_vacant": 9, "pct_black": 10, "pct_white": 75, "pct_hispanic": 6, "pct_asian": 2}, "related": [], "parcels": [{"parcel_id": "122036", "address": "304 54TH AVE N", "lat": "36.148866", "lon": "-86.852688", "sale_price": 1950000.0, "sale_date": "30 Apr 2026", "market_value": 1788500.0, "beds": 4.0, "bath": 4.5, "sqft": 3858.0, "year_built": "2025", "acres": 0.17}, {"parcel_id": "145907", "address": "832 BELTON DR", "lat": "36.125038", "lon": "-86.894766", "sale_price": 925000.0, "sale_date": "27 Feb 2026", "market_value": 771500.0, "beds": 3.0, "bath": 2.5, "sqft": 1683.0, "year_built": "1975", "acres": 0.93}, {"parcel_id": "146146", "address": "720 ADKISSON LN", "lat": "36.130147", "lon": "-86.891773", "sale_price": -1.0, "sale_date": "", "market_value": 1531200.0, "beds": 4.0, "bath": 6.0, "sqft": 5671.0, "year_built": "2026", "acres": 0.95}, {"parcel_id": "153973", "address": "3304 LOVE CIR", "lat": "36.139566", "lon": "-86.816221", "sale_price": -1.0, "sale_date": "", "market_value": 1226100.0, "beds": 4.0, "bath": 6.0, "sqft": 3694.0, "year_built": "2026", "acres": 0.21}, {"parcel_id": "470678", "address": "326A E TRINITY LN", "lat": "36.2053", "lon": "-86.762485"}, {"parcel_id": "470679", "address": "326B E TRINITY LN", "lat": "36.205106", "lon": "-86.762506"}, {"parcel_id": "470680", "address": "326C E TRINITY LN", "lat": "36.205028", "lon": "-86.762563"}, {"parcel_id": "70208", "address": "", "lat": "", "lon": ""}, {"parcel_id": "78865", "address": "", "lat": "", "lon": ""}, {"parcel_id": "78866", "address": "", "lat": "", "lon": ""}]}