{"cluster_id": 1212, "name": "A B FAMILY LP", "entity_count": 4, "parcel_count": 9, "total_market_value": 20022800, "total_acres": 5.4, "owner_names": ["A B FAMILY LP", "A D H PARTNERSHIP", "AB FAMILY LP", "ADH PARTNERSHIP"], "registered_agents": [], "principal_offices": [], "primary_sos_status": "", "primary_foreign_state": "", "brand": "", "opencorporates": "https://opencorporates.com/companies?q=A+B+FAMILY+LP&utf8=%E2%9C%93", "primary_type": "", "portfolio": {"n_parcels_with_acs": 6, "median_income": 84526, "median_home_value": 466350, "pct_renter": 49, "pct_poverty": null, "pct_vacant": 10, "pct_black": 31, "pct_white": 52, "pct_hispanic": 14, "pct_asian": 1}, "related": [{"owner": "AB FAMILY LP", "parcels": 2, "via": "mailing address"}, {"owner": "ADH PARTNERSHIP", "parcels": 1, "via": "mailing address"}, {"owner": "A D H PARTNERSHIP", "parcels": 1, "via": "mailing address"}], "parcels": [{"parcel_id": "135138", "address": "199 SPENCE LN", "lat": "36.154758", "lon": "-86.721812", "sale_price": -1.0, "sale_date": "", "market_value": 1350700.0, "beds": 0.0, "bath": 0.0, "sqft": 15000.0, "year_built": "1974", "acres": 0.69}, {"parcel_id": "164757", "address": "1516 8TH AVE S", "lat": "36.137626", "lon": "-86.778331", "sale_price": -1.0, "sale_date": "", "market_value": 2146900.0, "beds": 0.0, "bath": 0.0, "sqft": 9000.0, "year_built": "1990", "acres": 0.24}, {"parcel_id": "189977", "address": "2605 GRISSOM DR", "lat": "36.124278", "lon": "-86.764782", "sale_price": -1.0, "sale_date": "", "market_value": 2328000.0, "beds": 0.0, "bath": 0.0, "sqft": 0.0, "year_built": "2015", "acres": 0.54}, {"parcel_id": "189991", "address": "513 LIGON DR", "lat": "36.121986", "lon": "-86.764187", "sale_price": 2156500.0, "sale_date": "14 Apr 2022", "market_value": 2659000.0, "beds": 0.0, "bath": 0.0, "sqft": 0.0, "year_built": "1986", "acres": 0.57}, {"parcel_id": "191446", "address": "2940 KRAFT DR", "lat": "36.107772", "lon": "-86.757763", "sale_price": -1.0, "sale_date": "", "market_value": 11538200.0, "beds": 0.0, "bath": 0.0, "sqft": 76275.0, "year_built": "2000", "acres": 3.37}, {"parcel_id": "59320", "address": "0 OLD HICKORY BLVD", "lat": "36.218997", "lon": "-86.62511"}, {"parcel_id": "61415", "address": "4321 OLD HICKORY BLVD", "lat": "36.218153", "lon": "-86.625443"}, {"parcel_id": "96473", "address": "1218 JEFFERSON ST", "lat": "36.171379", "lon": "-86.800254"}, {"parcel_id": "96474", "address": "1212 JEFFERSON ST", "lat": "36.171426", "lon": "-86.800065"}]}