{"cluster_id": 1236, "name": "CENTENNIAL PARTNERS V LLC", "entity_count": 7, "parcel_count": 9, "total_market_value": 3410000, "total_acres": 1.4, "owner_names": ["CENTENNIAL PARTNERS V LLC", "O I C HOMES AT 300 STEWARTS FERRY PIKE", "O I C HOMES AT 80 BROOKWOOD TERRACE", "O I C HOMES AT GLEN ECHO", "STRINGFELLOW JOINT REVOCABLE TRUST", "STRINGHOUSE 1 LLC", "STRINGHOUSE I LLC"], "registered_agents": [], "principal_offices": [], "primary_sos_status": "", "primary_foreign_state": "", "brand": "", "opencorporates": "https://opencorporates.com/companies?q=CENTENNIAL+PARTNERS+V+LLC&utf8=%E2%9C%93", "primary_type": "", "portfolio": {"n_parcels_with_acs": 5, "median_income": 134037, "median_home_value": 900183, "pct_renter": 35, "pct_poverty": null, "pct_vacant": 6, "pct_black": 6, "pct_white": 83, "pct_hispanic": 8, "pct_asian": 2}, "related": [{"owner": "STRINGFELLOW JOINT REVOCABLE TRUST", "parcels": 1, "via": "mailing address"}, {"owner": "STRINGHOUSE I LLC", "parcels": 1, "via": "mailing address"}, {"owner": "STRINGHOUSE 1 LLC", "parcels": 1, "via": "mailing address"}, {"owner": "O I C HOMES AT 80 BROOKWOOD TERRACE", "parcels": 1, "via": "mailing address"}, {"owner": "O I C HOMES AT 300 STEWARTS FERRY PIKE", "parcels": 1, "via": "mailing address"}, {"owner": "O I C HOMES AT GLEN ECHO", "parcels": 1, "via": "mailing address"}], "parcels": [{"parcel_id": "115970", "address": "", "lat": "", "lon": ""}, {"parcel_id": "115971", "address": "", "lat": "", "lon": ""}, {"parcel_id": "115972", "address": "", "lat": "", "lon": ""}, {"parcel_id": "163885", "address": "1012 BATE AVE", "lat": "36.131888", "lon": "-86.786762", "sale_price": 735000.0, "sale_date": "17 Feb 2026", "market_value": 802700.0, "beds": 2.0, "bath": 1.0, "sqft": 1887.0, "year_built": "1970", "acres": 0.16}, {"parcel_id": "166891", "address": "2113 EASTWOOD AVE", "lat": "36.129721", "lon": "-86.790421", "sale_price": -1.0, "sale_date": "", "market_value": 1253500.0, "beds": 4.0, "bath": 4.0, "sqft": 4521.0, "year_built": "2026", "acres": 0.16}, {"parcel_id": "213116", "address": "1343 BURTON VALLEY RD", "lat": "36.086846", "lon": "-86.814545", "sale_price": 1686500.0, "sale_date": "8 Mar 2024", "market_value": 1353800.0, "beds": 4.0, "bath": 3.0, "sqft": 3135.0, "year_built": "2010", "acres": 1.03}, {"parcel_id": "434074", "address": "300B STEWARTS FERRY PIKE", "lat": "36.160982", "lon": "-86.645913"}, {"parcel_id": "439884", "address": "1738C GLEN ECHO RD", "lat": "36.107869", "lon": "-86.806381"}, {"parcel_id": "461784", "address": "80C BROOKWOOD TER", "lat": "36.130447", "lon": "-86.85974"}]}