{"cluster_id": 1249, "name": "DOLLAR GENERAL CORP", "entity_count": 1, "parcel_count": 9, "total_market_value": 71419100, "total_acres": 23.6, "owner_names": ["DOLLAR GENERAL CORP"], "registered_agents": [], "principal_offices": [], "primary_sos_status": "", "primary_foreign_state": "", "brand": "", "opencorporates": "https://opencorporates.com/companies?q=DOLLAR+GENERAL+CORP&utf8=%E2%9C%93", "primary_type": "", "portfolio": {"n_parcels_with_acs": 9, "median_income": 59867, "median_home_value": 289800, "pct_renter": 75, "pct_poverty": null, "pct_vacant": 7, "pct_black": 46, "pct_white": 46, "pct_hispanic": 2, "pct_asian": 0}, "related": [], "parcels": [{"parcel_id": "10674", "address": "0 CONFERENCE DR", "lat": "36.3105", "lon": "-86.698799"}, {"parcel_id": "10916", "address": "0 CONFERENCE DR", "lat": "36.310637", "lon": "-86.695356"}, {"parcel_id": "11020", "address": "0 CONFERENCE DR", "lat": "36.311712", "lon": "-86.695147"}, {"parcel_id": "12188", "address": "626 WADE CIR", "lat": "36.308249", "lon": "-86.69948", "sale_price": -1.0, "sale_date": "", "market_value": 1169100.0, "beds": null, "bath": 0.0, "sqft": 5468.0, "year_built": "2000", "acres": 0.87}, {"parcel_id": "9149", "address": "1000 NORTHCHASE DR", "lat": "36.310439", "lon": "-86.701018", "sale_price": -1.0, "sale_date": "", "market_value": 8350000.0, "beds": 0.0, "bath": 0.0, "sqft": 0.0, "year_built": "1988", "acres": 3.18}, {"parcel_id": "9150", "address": "100 MISSION RIDGE DR", "lat": "36.309079", "lon": "-86.699308", "sale_price": -1.0, "sale_date": "", "market_value": 61900000.0, "beds": 0.0, "bath": 0.0, "sqft": 0.0, "year_built": "2000", "acres": 19.59}, {"parcel_id": "9264", "address": "0 PROFESSIONAL PARK DR", "lat": "36.311337", "lon": "-86.700599"}, {"parcel_id": "9266", "address": "0 PROFESSIONAL PARK DR", "lat": "36.310944", "lon": "-86.699596"}, {"parcel_id": "9271", "address": "0 CONFERENCE DR", "lat": "36.310305", "lon": "-86.696746"}]}