{"cluster_id": 125, "name": "HAMILTON REALTY INVESTMENTS", "entity_count": 20, "parcel_count": 68, "total_market_value": 21010200, "total_acres": 16.3, "owner_names": ["1507BREVARD LLC", "1509WOOD LLC", "ANTMISC LLC", "APOLLO LA TUSC LLC", "BREW 1 LLC", "BREW 2 WIND LLC", "CALBAT15 LLC", "HAMILTON REALTY INVESTMENTS", "KENTBAT7 LLC", "KNORMOSA LLC", "MADSON LLC", "MARK HAMILTON RENTAL PROPERTIES LLC", "NETHER LLC", "NORLEW LLC", "RAYCOM LLC", "TIBBS CURREY LLC", "TUS BRANCH46 LA TUSC LLC", "TUS XAV50 LLC", "VALLEY TWIN LLC", "YORKBAT5 LLC"], "registered_agents": [], "principal_offices": [], "primary_sos_status": "", "primary_foreign_state": "", "brand": "", "opencorporates": "https://opencorporates.com/companies?q=HAMILTON+REALTY+INVESTMENTS&utf8=%E2%9C%93", "primary_type": "", "portfolio": {"n_parcels_with_acs": 67, "median_income": 78121, "median_home_value": 358050, "pct_renter": 42, "pct_poverty": null, "pct_vacant": 7, "pct_black": 26, "pct_white": 48, "pct_hispanic": 26, "pct_asian": 1}, "related": [{"owner": "KNORMOSA LLC", "parcels": 5, "via": "mailing address"}, {"owner": "MADSON LLC", "parcels": 5, "via": "mailing address"}, {"owner": "TUS BRANCH46 LA TUSC LLC", "parcels": 5, "via": "mailing address"}, {"owner": "APOLLO LA TUSC LLC", "parcels": 4, "via": "mailing address"}, {"owner": "NETHER LLC", "parcels": 4, "via": "mailing address"}, {"owner": "TUS XAV50 LLC", "parcels": 4, "via": "mailing address"}, {"owner": "ANTMISC LLC", "parcels": 4, "via": "mailing address"}, {"owner": "NORLEW LLC", "parcels": 3, "via": "mailing address"}, {"owner": "BREW 2 WIND LLC", "parcels": 3, "via": "mailing address"}, {"owner": "1509WOOD LLC", "parcels": 3, "via": "mailing address"}, {"owner": "RAYCOM LLC", "parcels": 3, "via": "mailing address"}, {"owner": "VALLEY TWIN LLC", "parcels": 3, "via": "mailing address"}, {"owner": "BREW 1 LLC", "parcels": 3, "via": "mailing address"}, {"owner": "TIBBS CURREY LLC", "parcels": 3, "via": "mailing address"}, {"owner": "1507BREVARD LLC", "parcels": 2, "via": "mailing address"}, {"owner": "KENTBAT7 LLC", "parcels": 2, "via": "mailing address"}, {"owner": "YORKBAT5 LLC", "parcels": 2, "via": "mailing address"}, {"owner": "CALBAT15 LLC", "parcels": 2, "via": "mailing address"}, {"owner": "MARK HAMILTON RENTAL PROPERTIES LLC", "parcels": 1, "via": "mailing address"}], "parcels": [{"parcel_id": "106829", "address": "1509A BOSCOBEL ST", "lat": "36.171779", "lon": "-86.743742", "sale_price": -1.0, "sale_date": "", "market_value": 561000.0, "beds": 3.0, "bath": 3.0, "sqft": 1680.0, "year_built": "1965", "acres": 0.17}, {"parcel_id": "106830", "address": "1507A BOSCOBEL ST", "lat": "36.171795", "lon": "-86.74391", "sale_price": -1.0, "sale_date": "", "market_value": 562500.0, "beds": 3.0, "bath": 3.0, "sqft": 1624.0, "year_built": "1965", "acres": 0.17}, {"parcel_id": "113542", "address": "4273 VALLEY GROVE DR", "lat": "36.17537", "lon": "-86.591218", "sale_price": -1.0, "sale_date": "", "market_value": 288200.0, "beds": 3.0, "bath": 2.0, "sqft": 1030.0, "year_built": "1990", "acres": 0.26}, {"parcel_id": "113612", "address": "4537 BROOKE VALLEY DR", "lat": "36.176533", "lon": "-86.58749", "sale_price": -1.0, "sale_date": "", "market_value": 328300.0, "beds": 4.0, "bath": 2.0, "sqft": 1519.0, "year_built": "1985", "acres": 0.21}, {"parcel_id": "113613", "address": "4328 VALLEY GROVE DR", "lat": "36.176555", "lon": "-86.587807", "sale_price": -1.0, "sale_date": "", "market_value": 337300.0, "beds": 4.0, "bath": 4.0, "sqft": 1550.0, "year_built": "1985", "acres": 0.2}, {"parcel_id": "114331", "address": "4312 VALLEY GROVE DR", "lat": "36.176291", "lon": "-86.588724", "sale_price": 130025.0, "sale_date": "14 Sep 2018", "market_value": 256900.0, "beds": 3.0, "bath": 2.0, "sqft": 1124.0, "year_built": "1985", "acres": 0.19}, {"parcel_id": "114869", "address": "6116A NEW YORK AVE", "lat": "36.167512", "lon": "-86.860684", "sale_price": -1.0, "sale_date": "", "market_value": 440300.0, "beds": 6.0, "bath": 3.0, "sqft": 1920.0, "year_built": "1955", "acres": 0.18}, {"parcel_id": "115482", "address": "6001 CALIFORNIA AVE", "lat": "36.164791", "lon": "-86.85934", "sale_price": -1.0, "sale_date": "", "market_value": 476900.0, "beds": 7.0, "bath": 3.0, "sqft": 2252.0, "year_built": "1955", "acres": 0.17}, {"parcel_id": "117947", "address": "4607 KENTUCKY AVE", "lat": "36.159741", "lon": "-86.843234", "sale_price": -1.0, "sale_date": "", "market_value": 511100.0, "beds": 7.0, "bath": 3.0, "sqft": 2275.0, "year_built": "1960", "acres": 0.18}, {"parcel_id": "124284", "address": "3015 BATAVIA ST", "lat": "36.160523", "lon": "-86.822486", "sale_price": -1.0, "sale_date": "", "market_value": 451700.0, "beds": 6.0, "bath": 4.0, "sqft": 2678.0, "year_built": "1968", "acres": 0.17}, {"parcel_id": "124286", "address": "3007 BATAVIA ST", "lat": "36.160573", "lon": "-86.822064", "sale_price": -1.0, "sale_date": "", "market_value": 399400.0, "beds": 6.0, "bath": 3.0, "sqft": 2095.0, "year_built": "1969", "acres": 0.17}, {"parcel_id": "124287", "address": "3005 BATAVIA ST", "lat": "36.160612", "lon": "-86.821857", "sale_price": -1.0, "sale_date": "", "market_value": 415600.0, "beds": 8.0, "bath": 4.0, "sqft": 2720.0, "year_built": "1966", "acres": 0.25}, {"parcel_id": "140151", "address": "2932 TWIN LAWN DR", "lat": "36.152744", "lon": "-86.654663", "sale_price": -1.0, "sale_date": "", "market_value": 282500.0, "beds": 2.0, "bath": 2.0, "sqft": 975.0, "year_built": "1980", "acres": 0.26}, {"parcel_id": "165629", "address": "2130 CANADY AVE", "lat": "36.127196", "lon": "-86.754969"}, {"parcel_id": "167651", "address": "2173 CARSON ST", "lat": "36.128921", "lon": "-86.753859", "sale_price": -1.0, "sale_date": "", "market_value": 393600.0, "beds": 2.0, "bath": 2.0, "sqft": 1218.0, "year_built": "1970", "acres": 0.12}, {"parcel_id": "17304", "address": "1412 BAIN DR", "lat": "36.28483", "lon": "-86.698497", "sale_price": -1.0, "sale_date": "", "market_value": 232500.0, "beds": 3.0, "bath": 1.0, "sqft": 950.0, "year_built": "1967", "acres": 0.16}, {"parcel_id": "18255", "address": "213 EDGEMEADE DR", "lat": "36.282919", "lon": "-86.703812", "sale_price": 80000.0, "sale_date": "24 Feb 2017", "market_value": 233200.0, "beds": 3.0, "bath": 1.0, "sqft": 1000.0, "year_built": "1964", "acres": 0.19}, {"parcel_id": "18361", "address": "226 EDGEMEADE DR", "lat": "36.282376", "lon": "-86.703684", "sale_price": 112000.0, "sale_date": "12 May 2017", "market_value": 258700.0, "beds": 3.0, "bath": 1.0, "sqft": 1180.0, "year_built": "1965", "acres": 0.15}, {"parcel_id": "195286", "address": "2522A GLENROSE AVE", "lat": "36.118405", "lon": "-86.728229", "sale_price": -1.0, "sale_date": "", "market_value": 338200.0, "beds": 4.0, "bath": 4.0, "sqft": 1440.0, "year_built": "1970", "acres": 0.21}, {"parcel_id": "199087", "address": "1204 CURREY RD", "lat": "36.105593", "lon": "-86.704906", "sale_price": -1.0, "sale_date": "", "market_value": 348600.0, "beds": 4.0, "bath": 2.0, "sqft": 1512.0, "year_built": "1984", "acres": 0.25}, {"parcel_id": "199088", "address": "1206 CURREY RD", "lat": "36.105539", "lon": "-86.704645", "sale_price": -1.0, "sale_date": "", "market_value": 339300.0, "beds": 4.0, "bath": 2.0, "sqft": 1512.0, "year_built": "1984", "acres": 0.22}, {"parcel_id": "215680", "address": "3695 TIBBS DR", "lat": "36.094605", "lon": "-86.734456", "sale_price": 278025.0, "sale_date": "18 Apr 2019", "market_value": 578800.0, "beds": 4.0, "bath": 4.0, "sqft": 3248.0, "year_built": "1972", "acres": 0.2}, {"parcel_id": "219083", "address": "212 BREVARD CT", "lat": "36.093036", "lon": "-86.712287", "sale_price": -1.0, "sale_date": "", "market_value": 346000.0, "beds": 4.0, "bath": 4.0, "sqft": 2108.0, "year_built": "1980", "acres": 0.23}, {"parcel_id": "223082", "address": "1711 SOUTHWIND DR", "lat": "36.098559", "lon": "-86.66845", "sale_price": -1.0, "sale_date": "", "market_value": 210400.0, "beds": 3.0, "bath": 1.0, "sqft": 936.0, "year_built": "1963", "acres": 0.22}, {"parcel_id": "245788", "address": "5136 LINBAR DR", "lat": "36.080164", "lon": "-86.697246", "sale_price": 180000.0, "sale_date": "6 Oct 2016", "market_value": 432000.0, "beds": 8.0, "bath": 4.0, "sqft": 2244.0, "year_built": "1983", "acres": 0.18}, {"parcel_id": "250039", "address": "4806 APOLLO DR", "lat": "36.071929", "lon": "-86.665572", "sale_price": -1.0, "sale_date": "", "market_value": 278200.0, "beds": 3.0, "bath": 2.0, "sqft": 1406.0, "year_built": "1979", "acres": 0.18}, {"parcel_id": "250040", "address": "4810 APOLLO DR", "lat": "36.071758", "lon": "-86.665423", "sale_price": 180500.0, "sale_date": "15 Mar 2019", "market_value": 336200.0, "beds": 3.0, "bath": 2.0, "sqft": 1901.0, "year_built": "1979", "acres": 0.22}, {"parcel_id": "250041", "address": "4814 APOLLO DR", "lat": "36.071612", "lon": "-86.665285", "sale_price": 141000.0, "sale_date": "9 May 2018", "market_value": 298400.0, "beds": 3.0, "bath": 2.0, "sqft": 1406.0, "year_built": "1979", "acres": 0.2}, {"parcel_id": "250042", "address": "4818 APOLLO DR", "lat": "36.071466", "lon": "-86.665148", "sale_price": -1.0, "sale_date": "", "market_value": 281000.0, "beds": 3.0, "bath": 2.0, "sqft": 1406.0, "year_built": "1980", "acres": 0.21}, {"parcel_id": "25045", "address": "622 BIXLER AVE", "lat": "36.268795", "lon": "-86.704395", "sale_price": 149000.0, "sale_date": "12 Jan 2015", "market_value": 473300.0, "beds": 4.0, "bath": 2.0, "sqft": 2750.0, "year_built": "1963", "acres": 0.45}, {"parcel_id": "252229", "address": "4500 XAVIER DR", "lat": "36.075723", "lon": "-86.67415", "sale_price": -1.0, "sale_date": "", "market_value": 272600.0, "beds": 3.0, "bath": 1.5, "sqft": 1685.0, "year_built": "1973", "acres": 0.25}, {"parcel_id": "252232", "address": "4512 XAVIER DR", "lat": "36.075222", "lon": "-86.674245", "sale_price": -1.0, "sale_date": "", "market_value": 292200.0, "beds": 3.0, "bath": 1.5, "sqft": 1550.0, "year_built": "1973", "acres": 0.18}, {"parcel_id": "252351", "address": "2366 UNA ANTIOCH PIKE", "lat": "36.072271", "lon": "-86.663722", "sale_price": 82000.0, "sale_date": "23 May 2016", "market_value": 241000.0, "beds": 3.0, "bath": 1.5, "sqft": 1370.0, "year_built": "1961", "acres": 0.62}, {"parcel_id": "252560", "address": "4737 MINERS CV", "lat": "36.070339", "lon": "-86.66828", "sale_price": -1.0, "sale_date": "", "market_value": 251200.0, "beds": 3.0, "bath": 1.0, "sqft": 1008.0, "year_built": "1978", "acres": 0.21}, {"parcel_id": "253195", "address": "4428 DOWDY DR", "lat": "36.07201", "lon": "-86.673334", "sale_price": 165000.0, "sale_date": "3 May 2019", "market_value": 299700.0, "beds": 3.0, "bath": 1.0, "sqft": 1075.0, "year_built": "1978", "acres": 0.21}, {"parcel_id": "253715", "address": "4617 LONG BR", "lat": "36.07332", "lon": "-86.670123", "sale_price": 41500.0, "sale_date": "4 Jan 2012", "market_value": 248500.0, "beds": 3.0, "bath": 1.0, "sqft": 1008.0, "year_built": "1978", "acres": 0.22}, {"parcel_id": "253716", "address": "4621 LONG BR", "lat": "36.073388", "lon": "-86.670398", "sale_price": -1.0, "sale_date": "", "market_value": 250000.0, "beds": 3.0, "bath": 1.0, "sqft": 1008.0, "year_built": "1978", "acres": 0.22}, {"parcel_id": "254203", "address": "4709 LONG BR", "lat": "36.075302", "lon": "-86.673716", "sale_price": -1.0, "sale_date": "", "market_value": 249400.0, "beds": 3.0, "bath": 1.0, "sqft": 1008.0, "year_built": "1979", "acres": 0.22}, {"parcel_id": "25531", "address": "556 SINGER DR", "lat": "36.269804", "lon": "-86.697244", "sale_price": 255000.0, "sale_date": "30 Dec 2024", "market_value": 239500.0, "beds": 3.0, "bath": 1.0, "sqft": 1055.0, "year_built": "1973", "acres": 0.22}, {"parcel_id": "25800", "address": "311 KATE ST", "lat": "36.264352", "lon": "-86.707776", "sale_price": -1.0, "sale_date": "", "market_value": 278600.0, "beds": 4.0, "bath": 2.0, "sqft": 1323.0, "year_built": "1979", "acres": 0.23}, {"parcel_id": "25801", "address": "0 KATE ST", "lat": "36.264243", "lon": "-86.708006"}, {"parcel_id": "26719", "address": "401 IDLEWILD AVE", "lat": "36.258444", "lon": "-86.70661", "sale_price": 140025.0, "sale_date": "20 Jul 2018", "market_value": 333900.0, "beds": 3.0, "bath": 1.0, "sqft": 1271.0, "year_built": "1970", "acres": 0.18}, {"parcel_id": "270685", "address": "5011 BREWER CT", "lat": "36.059532", "lon": "-86.728682", "sale_price": -1.0, "sale_date": "", "market_value": 346300.0, "beds": 4.0, "bath": 2.0, "sqft": 1500.0, "year_built": "1966", "acres": 0.51}, {"parcel_id": "270686", "address": "5009A BREWER CT", "lat": "36.059709", "lon": "-86.728413", "sale_price": -1.0, "sale_date": "", "market_value": 366500.0, "beds": 4.0, "bath": 2.0, "sqft": 1500.0, "year_built": "1966", "acres": 0.89}, {"parcel_id": "270687", "address": "5007A BREWER CT", "lat": "36.059635", "lon": "-86.727941", "sale_price": -1.0, "sale_date": "", "market_value": 346300.0, "beds": 4.0, "bath": 2.0, "sqft": 1500.0, "year_built": "1966", "acres": 0.62}, {"parcel_id": "270688", "address": "5005 BREWER CT", "lat": "36.059526", "lon": "-86.727546", "sale_price": -1.0, "sale_date": "", "market_value": 400700.0, "beds": 4.0, "bath": 2.0, "sqft": 1500.0, "year_built": "1966", "acres": 0.55}, {"parcel_id": "270689", "address": "5003 BREWER CT", "lat": "36.059469", "lon": "-86.727132", "sale_price": -1.0, "sale_date": "", "market_value": 346400.0, "beds": 4.0, "bath": 2.0, "sqft": 1500.0, "year_built": "1966", "acres": 0.6}, {"parcel_id": "273998", "address": "150 TUSCULUM RD", "lat": "36.053449", "lon": "-86.689986", "sale_price": -1.0, "sale_date": "", "market_value": 246900.0, "beds": 4.0, "bath": 2.0, "sqft": 1536.0, "year_built": "1972", "acres": 0.26}, {"parcel_id": "273999", "address": "148 TUSCULUM RD", "lat": "36.053392", "lon": "-86.689734", "sale_price": -1.0, "sale_date": "", "market_value": 276100.0, "beds": 4.0, "bath": 2.0, "sqft": 1647.0, "year_built": "1972", "acres": 0.26}, {"parcel_id": "274000", "address": "146 TUSCULUM RD", "lat": "36.053312", "lon": "-86.689474", "sale_price": -1.0, "sale_date": "", "market_value": 300700.0, "beds": 4.0, "bath": 2.0, "sqft": 1608.0, "year_built": "1972", "acres": 0.33}, {"parcel_id": "274001", "address": "144 TUSCULUM RD", "lat": "36.05325", "lon": "-86.689183", "sale_price": -1.0, "sale_date": "", "market_value": 279800.0, "beds": 4.0, "bath": 2.0, "sqft": 1536.0, "year_built": "1972", "acres": 0.3}, {"parcel_id": "275464", "address": "100 BENZING RD", "lat": "36.052106", "lon": "-86.683109", "sale_price": -1.0, "sale_date": "", "market_value": 228500.0, "beds": 3.0, "bath": 1.0, "sqft": 1000.0, "year_built": "1979", "acres": 0.23}, {"parcel_id": "280495", "address": "612 CEDARHILL CT", "lat": "36.04048", "lon": "-86.709211", "sale_price": 259000.0, "sale_date": "31 Jan 2025", "market_value": 259500.0, "beds": 3.0, "bath": 2.0, "sqft": 1224.0, "year_built": "1988", "acres": 0.26}, {"parcel_id": "28339", "address": "107 RAYON DR", "lat": "36.269594", "lon": "-86.662909", "sale_price": -1.0, "sale_date": "", "market_value": 484100.0, "beds": 0.0, "bath": 0.0, "sqft": 3741.0, "year_built": "1970", "acres": 0.16}, {"parcel_id": "29118", "address": "115 NEWELL AVE", "lat": "36.271267", "lon": "-86.664996", "sale_price": -1.0, "sale_date": "", "market_value": 216600.0, "beds": 3.0, "bath": 1.0, "sqft": 948.0, "year_built": "1934", "acres": 0.0}, {"parcel_id": "29489", "address": "369 RAYON DR", "lat": "36.272741", "lon": "-86.664899", "sale_price": -1.0, "sale_date": "", "market_value": 152900.0, "beds": 3.0, "bath": 1.0, "sqft": 832.0, "year_built": "1940", "acres": 0.17}, {"parcel_id": "51484", "address": "2745 COMBS DR", "lat": "36.218208", "lon": "-86.792372", "sale_price": -1.0, "sale_date": "", "market_value": 261800.0, "beds": 3.0, "bath": 1.5, "sqft": 1584.0, "year_built": "1973", "acres": 0.25}, {"parcel_id": "64081", "address": "4324 SAUNDERSVILLE RD", "lat": "36.22887", "lon": "-86.589169", "sale_price": 107000.0, "sale_date": "7 Aug 2015", "market_value": 250800.0, "beds": 4.0, "bath": 4.0, "sqft": 1792.0, "year_built": "1985", "acres": 0.49}, {"parcel_id": "67079", "address": "3701 JOHN MALLETTE DR", "lat": "36.195373", "lon": "-86.839577", "sale_price": -1.0, "sale_date": "", "market_value": 285800.0, "beds": 2.0, "bath": 1.0, "sqft": 1036.0, "year_built": "1960", "acres": 0.37}, {"parcel_id": "87305", "address": "818 NETHERLANDS DR", "lat": "36.197854", "lon": "-86.601339", "sale_price": -1.0, "sale_date": "", "market_value": 225100.0, "beds": 3.0, "bath": 1.5, "sqft": 1120.0, "year_built": "1987", "acres": 0.13}, {"parcel_id": "87309", "address": "826 NETHERLANDS DR", "lat": "36.197883", "lon": "-86.601829", "sale_price": -1.0, "sale_date": "", "market_value": 244600.0, "beds": 3.0, "bath": 2.0, "sqft": 1134.0, "year_built": "1987", "acres": 0.13}, {"parcel_id": "87430", "address": "816 NETHERLANDS DR", "lat": "36.197874", "lon": "-86.601223", "sale_price": -1.0, "sale_date": "", "market_value": 225100.0, "beds": 3.0, "bath": 1.5, "sqft": 1120.0, "year_built": "1987", "acres": 0.13}, {"parcel_id": "87432", "address": "824 NETHERLANDS DR", "lat": "36.197881", "lon": "-86.601699", "sale_price": -1.0, "sale_date": "", "market_value": 246100.0, "beds": 3.0, "bath": 2.0, "sqft": 1134.0, "year_built": "1987", "acres": 0.13}, {"parcel_id": "90473", "address": "1480 SNELL BLVD", "lat": "36.179123", "lon": "-86.841897", "sale_price": -1.0, "sale_date": "", "market_value": 237400.0, "beds": 3.0, "bath": 1.0, "sqft": 1050.0, "year_built": "1970", "acres": 0.27}, {"parcel_id": "91801", "address": "1622 25TH AVE N", "lat": "36.175119", "lon": "-86.815786", "sale_price": -1.0, "sale_date": "", "market_value": 382100.0, "beds": 3.0, "bath": 2.0, "sqft": 1176.0, "year_built": "2005", "acres": 0.17}, {"parcel_id": "94061", "address": "1704 KNOWLES ST", "lat": "36.173186", "lon": "-86.805764", "sale_price": -1.0, "sale_date": "", "market_value": 289700.0, "beds": 6.0, "bath": 2.0, "sqft": 1729.555, "year_built": "1930", "acres": 0.11}, {"parcel_id": "94403", "address": "1605 HEIMAN ST", "lat": "36.17201", "lon": "-86.803797", "sale_price": -1.0, "sale_date": "", "market_value": 235200.0, "beds": 3.0, "bath": 1.0, "sqft": 997.0, "year_built": "1924", "acres": 0.13}, {"parcel_id": "98648", "address": "410 N 9TH ST", "lat": "36.181266", "lon": "-86.759119", "sale_price": -1.0, "sale_date": "", "market_value": 228500.0, "beds": 2.0, "bath": 1.0, "sqft": 512.0, "year_built": "1920", "acres": 0.11}]}