{"cluster_id": 1251, "name": "NWI WAREHOUSE GROUP II LLC", "entity_count": 5, "parcel_count": 9, "total_market_value": 172390500, "total_acres": 93.7, "owner_names": ["DUKE REALTY LP", "DUKE REALTY MELROSE AVENUE LLC", "DUKE SECURED FINANCING 2009 UNM LLC", "NWI WAREHOUSE GROUP II LLC", "NWI WAREHOUSE GROUP LP"], "registered_agents": [], "principal_offices": [], "primary_sos_status": "", "primary_foreign_state": "", "brand": "", "opencorporates": "https://opencorporates.com/companies?q=NWI+WAREHOUSE+GROUP+II+LLC&utf8=%E2%9C%93", "primary_type": "", "portfolio": {"n_parcels_with_acs": 7, "median_income": 85550, "median_home_value": 456400, "pct_renter": 44, "pct_poverty": null, "pct_vacant": 12, "pct_black": 35, "pct_white": 56, "pct_hispanic": 4, "pct_asian": 4}, "related": [{"owner": "NWI WAREHOUSE GROUP LP", "parcels": 2, "via": "mailing address"}, {"owner": "DUKE REALTY LP", "parcels": 1, "via": "mailing address"}, {"owner": "DUKE REALTY MELROSE AVENUE LLC", "parcels": 1, "via": "mailing address"}, {"owner": "DUKE SECURED FINANCING 2009 UNM LLC", "parcels": 1, "via": "mailing address"}], "parcels": [{"parcel_id": "188827", "address": "731 MELROSE AVE", "lat": "36.119426", "lon": "-86.762692", "sale_price": -1.0, "sale_date": "", "market_value": 27830000.0, "beds": 0.0, "bath": 0.0, "sqft": 0.0, "year_built": "1995", "acres": 10.31}, {"parcel_id": "189879", "address": "684 MELROSE AVE", "lat": "36.120544", "lon": "-86.760587", "sale_price": -1.0, "sale_date": "", "market_value": 33228400.0, "beds": 0.0, "bath": 0.0, "sqft": 266775.0, "year_built": "1997", "acres": 21.74}, {"parcel_id": "192120", "address": "701 MELROSE AVE", "lat": "36.118241", "lon": "-86.760187", "sale_price": 6500000.0, "sale_date": "21 Dec 2010", "market_value": 24140000.0, "beds": 0.0, "bath": 0.0, "sqft": 0.0, "year_built": "1996", "acres": 9.23}, {"parcel_id": "198286", "address": "800 AIRPARK COMMERCE DR", "lat": "36.105036", "lon": "-86.63785", "sale_price": -1.0, "sale_date": "", "market_value": 14243400.0, "beds": 0.0, "bath": 0.0, "sqft": 120150.0, "year_built": "2001", "acres": null}, {"parcel_id": "30217", "address": "", "lat": "", "lon": ""}, {"parcel_id": "30911", "address": "", "lat": "", "lon": ""}, {"parcel_id": "33921", "address": "3300 BRILEY PARK BLVD S", "lat": "36.242619", "lon": "-86.783857", "sale_price": -1.0, "sale_date": "", "market_value": 26260100.0, "beds": 0.0, "bath": 0.0, "sqft": 195176.0, "year_built": "2005", "acres": 13.75}, {"parcel_id": "33923", "address": "3438 BRILEY PARK BLVD N", "lat": "36.247575", "lon": "-86.781125", "sale_price": -1.0, "sale_date": "", "market_value": 46688600.0, "beds": 0.0, "bath": 0.0, "sqft": 511019.0, "year_built": "2005", "acres": 38.69}, {"parcel_id": "33924", "address": "0 BRICK CHURCH LN", "lat": "36.242829", "lon": "-86.782596"}]}