{"cluster_id": 1259, "name": "FESMIRE INVESTMENT HOLDINGS", "entity_count": 4, "parcel_count": 9, "total_market_value": 2917690, "total_acres": 52.0, "owner_names": ["FESMIRE INVESTMENT HOLDINGS", "FESMIRE INVESTMENT HOLDINGS GP", "FESMIRE INVESTMENTS HOLDINGS", "FESMIRE INVESTMENTS LP"], "registered_agents": [], "principal_offices": [], "primary_sos_status": "", "primary_foreign_state": "", "brand": "", "opencorporates": "https://opencorporates.com/companies?q=FESMIRE+INVESTMENT+HOLDINGS&utf8=%E2%9C%93", "primary_type": "", "portfolio": {"n_parcels_with_acs": 8, "median_income": 91995, "median_home_value": 410600, "pct_renter": 33, "pct_poverty": null, "pct_vacant": 7, "pct_black": 19, "pct_white": 70, "pct_hispanic": 7, "pct_asian": 3}, "related": [{"owner": "FESMIRE INVESTMENTS HOLDINGS", "parcels": 1, "via": "mailing address"}, {"owner": "FESMIRE INVESTMENTS LP", "parcels": 1, "via": "mailing address"}, {"owner": "FESMIRE INVESTMENT HOLDINGS GP", "parcels": 1, "via": "mailing address"}], "parcels": [{"parcel_id": "112799", "address": "3617 PIERSIDE DR", "lat": "36.176371", "lon": "-86.62209", "sale_price": -1.0, "sale_date": "", "market_value": 318000.0, "beds": 3.0, "bath": 2.0, "sqft": 1067.0, "year_built": "1991", "acres": 0.23}, {"parcel_id": "118114", "address": "538 STEVENSON ST", "lat": "36.153888", "lon": "-86.866003", "sale_price": 225000.0, "sale_date": "7 Jun 2017", "market_value": 424000.0, "beds": 4.0, "bath": 2.0, "sqft": 2118.0, "year_built": "1945", "acres": 0.3}, {"parcel_id": "118474", "address": "5919 MAXON AVE", "lat": "36.153748", "lon": "-86.865659", "sale_price": -1.0, "sale_date": "", "market_value": 378300.0, "beds": 3.0, "bath": 1.0, "sqft": 885.0, "year_built": "1960", "acres": 0.21}, {"parcel_id": "143673", "address": "111 LAKEBRINK DR", "lat": "36.150272", "lon": "-86.632952", "sale_price": -1.0, "sale_date": "", "market_value": 254800.0, "beds": 2.0, "bath": 1.5, "sqft": 1177.0, "year_built": "1987", "acres": 0.02}, {"parcel_id": "170575", "address": "1929 KAREN DR", "lat": "36.139436", "lon": "-86.702574", "sale_price": -1.0, "sale_date": "", "market_value": 225800.0, "beds": 3.0, "bath": 1.0, "sqft": 950.0, "year_built": "1960", "acres": 0.2}, {"parcel_id": "232274", "address": "810 BELLEVUE RD APT 298", "lat": "36.071954", "lon": "-86.936116", "sale_price": 72000.0, "sale_date": "20 Jun 2017", "market_value": 243400.0, "beds": 2.0, "bath": 1.0, "sqft": 1058.0, "year_built": "1977", "acres": 0.0}, {"parcel_id": "304933", "address": "5823 MACKIE PL", "lat": "36.156959", "lon": "-86.861196", "sale_price": 79000.0, "sale_date": "28 Oct 2013", "market_value": 374900.0, "beds": 2.0, "bath": 1.0, "sqft": 768.0, "year_built": "1998", "acres": null}, {"parcel_id": "360707", "address": "8400 CHARBAY CIR", "lat": "36.001192", "lon": "-86.692721", "sale_price": -1.0, "sale_date": "", "market_value": 370300.0, "beds": 3.0, "bath": 2.5, "sqft": 1606.0, "year_built": "2007", "acres": null}, {"parcel_id": "89168", "address": "4440 OLD HICKORY BLVD", "lat": "36.170447", "lon": "-86.928255", "sale_price": -1.0, "sale_date": "", "market_value": 328190.0, "beds": 2.0, "bath": 1.0, "sqft": 1336.0, "year_built": "1950", "acres": 51.0}]}