{"cluster_id": 1262, "name": "FRONT PORCH REALTY LLC", "entity_count": 1, "parcel_count": 9, "total_market_value": 2363700, "total_acres": 0.0, "owner_names": ["FRONT PORCH REALTY LLC"], "registered_agents": [], "principal_offices": [], "primary_sos_status": "", "primary_foreign_state": "", "brand": "", "opencorporates": "https://opencorporates.com/companies?q=FRONT+PORCH+REALTY+LLC&utf8=%E2%9C%93", "primary_type": "", "portfolio": {"n_parcels_with_acs": 9, "median_income": 66128, "median_home_value": 285489, "pct_renter": 57, "pct_poverty": null, "pct_vacant": 6, "pct_black": 31, "pct_white": 46, "pct_hispanic": 22, "pct_asian": 3}, "related": [], "parcels": [{"parcel_id": "111147", "address": "1009 SADDLESTONE DR", "lat": "36.177635", "lon": "-86.597196", "sale_price": -1.0, "sale_date": "", "market_value": 316700.0, "beds": 3.0, "bath": 2.0, "sqft": 1092.0, "year_built": "2002", "acres": null}, {"parcel_id": "111150", "address": "205 SADDLESTONE CT N", "lat": "36.178054", "lon": "-86.597042", "sale_price": -1.0, "sale_date": "", "market_value": 319200.0, "beds": 3.0, "bath": 2.0, "sqft": 1053.0, "year_built": "2001", "acres": null}, {"parcel_id": "112045", "address": "536 CHANDLER PL", "lat": "36.182766", "lon": "-86.610168", "sale_price": 88950.0, "sale_date": "26 Feb 2009", "market_value": 253900.0, "beds": 2.0, "bath": 1.5, "sqft": 1300.0, "year_built": "1986", "acres": 0.0}, {"parcel_id": "175761", "address": "3535 BELL RD APT 507", "lat": "36.142529", "lon": "-86.625095", "sale_price": -1.0, "sale_date": "", "market_value": 273200.0, "beds": 2.0, "bath": 1.5, "sqft": 1088.0, "year_built": "2004", "acres": null}, {"parcel_id": "175869", "address": "3535 BELL RD APT 807", "lat": "36.143256", "lon": "-86.625635", "sale_price": 130000.0, "sale_date": "22 Dec 2016", "market_value": 270500.0, "beds": 2.0, "bath": 1.5, "sqft": 1088.0, "year_built": "2004", "acres": null}, {"parcel_id": "175989", "address": "1513 LINCOYA BAY DR", "lat": "36.143091", "lon": "-86.623679", "sale_price": -1.0, "sale_date": "", "market_value": 343000.0, "beds": 2.0, "bath": 2.5, "sqft": 1842.0, "year_built": "2005", "acres": null}, {"parcel_id": "221953", "address": "1959 NASHBORO BLVD", "lat": "36.089172", "lon": "-86.632513", "sale_price": -1.0, "sale_date": "", "market_value": 284600.0, "beds": 2.0, "bath": 2.5, "sqft": 1320.0, "year_built": "2006", "acres": null}, {"parcel_id": "249918", "address": "0 RURAL HILL RD", "lat": "36.062476", "lon": "-86.646911"}, {"parcel_id": "304502", "address": "1742 LINCOYA BAY DR", "lat": "36.144036", "lon": "-86.620588", "sale_price": -1.0, "sale_date": "", "market_value": 302600.0, "beds": 2.0, "bath": 2.5, "sqft": 1129.0, "year_built": "2005", "acres": null}]}