{"cluster_id": 1264, "name": "GIOIA TENNESSEE COMMUNITY PROPERTY TRUST", "entity_count": 2, "parcel_count": 9, "total_market_value": 4458100, "total_acres": 0.8, "owner_names": ["GIOIA TENNESSE COMMUNITY PROPERTY TRUST", "GIOIA TENNESSEE COMMUNITY PROPERTY TRUST"], "registered_agents": [], "principal_offices": [], "primary_sos_status": "", "primary_foreign_state": "", "brand": "", "opencorporates": "https://opencorporates.com/companies?q=GIOIA+TENNESSEE+COMMUNITY+PROPERTY+TRUST&utf8=%E2%9C%93", "primary_type": "", "portfolio": {"n_parcels_with_acs": 8, "median_income": 84603, "median_home_value": 1039580, "pct_renter": 62, "pct_poverty": null, "pct_vacant": 6, "pct_black": 32, "pct_white": 56, "pct_hispanic": 5, "pct_asian": 2}, "related": [{"owner": "GIOIA TENNESSE COMMUNITY PROPERTY TRUST", "parcels": 1, "via": "mailing address"}], "parcels": [{"parcel_id": "116079", "address": "", "lat": "", "lon": ""}, {"parcel_id": "121870", "address": "1033 31ST AVE N", "lat": "36.166061", "lon": "-86.824486", "sale_price": -1.0, "sale_date": "", "market_value": 439800.0, "beds": 6.0, "bath": 3.0, "sqft": 2373.0, "year_built": "1960", "acres": 0.17}, {"parcel_id": "121871", "address": "1035 31ST AVE N", "lat": "36.166195", "lon": "-86.824518"}, {"parcel_id": "121872", "address": "1037 31ST AVE N", "lat": "36.166332", "lon": "-86.824546", "sale_price": -1.0, "sale_date": "", "market_value": 427700.0, "beds": 6.0, "bath": 3.0, "sqft": 2096.0, "year_built": "1969", "acres": 0.17}, {"parcel_id": "126801", "address": "3322 PARK AVE", "lat": "36.152008", "lon": "-86.825447", "sale_price": -1.0, "sale_date": "", "market_value": 571300.0, "beds": 2.0, "bath": 1.0, "sqft": 1310.0, "year_built": "1975", "acres": 0.17}, {"parcel_id": "155941", "address": "3701 W END AVE APT 7", "lat": "36.133004", "lon": "-86.828366", "sale_price": -1.0, "sale_date": "", "market_value": 1468800.0, "beds": 3.0, "bath": 3.5, "sqft": 2288.0, "year_built": "2000", "acres": 0.0}, {"parcel_id": "162062", "address": "117 13TH AVENUE CIR", "lat": "36.145327", "lon": "-86.788396", "sale_price": -1.0, "sale_date": "", "market_value": 706000.0, "beds": 4.0, "bath": 2.0, "sqft": 0.0, "year_built": "1976", "acres": 0.14}, {"parcel_id": "189573", "address": "913 MONTROSE AVE", "lat": "36.123026", "lon": "-86.784902", "sale_price": -1.0, "sale_date": "", "market_value": 844500.0, "beds": 3.0, "bath": 2.5, "sqft": 1729.75, "year_built": "1990", "acres": 0.16}, {"parcel_id": "471621", "address": "5501 CALIFORNIA AVE", "lat": "36.163864", "lon": "-86.854627"}]}