{"cluster_id": 1265, "name": "GRASSMERE GROUP LLC", "entity_count": 3, "parcel_count": 9, "total_market_value": 6452900, "total_acres": 4.7, "owner_names": ["GRASSMERE GROUP LLC", "GRASSMERE GROUP LLC THE", "GRASSMERE GROUP THE LLC"], "registered_agents": [], "principal_offices": [], "primary_sos_status": "", "primary_foreign_state": "", "brand": "", "opencorporates": "https://opencorporates.com/companies?q=GRASSMERE+GROUP+LLC&utf8=%E2%9C%93", "primary_type": "", "portfolio": {"n_parcels_with_acs": 9, "median_income": 86540, "median_home_value": 431325, "pct_renter": 54, "pct_poverty": null, "pct_vacant": 14, "pct_black": 12, "pct_white": 48, "pct_hispanic": 38, "pct_asian": 2}, "related": [{"owner": "GRASSMERE GROUP LLC THE", "parcels": 3, "via": "mailing address"}, {"owner": "GRASSMERE GROUP THE LLC", "parcels": 1, "via": "mailing address"}], "parcels": [{"parcel_id": "147660", "address": "836 WATTS LN", "lat": "36.14384", "lon": "-86.871958", "sale_price": 227500.0, "sale_date": "16 Sep 2013", "market_value": 1062300.0, "beds": 0.0, "bath": 0.0, "sqft": 2816.0, "year_built": "1981", "acres": 0.96}, {"parcel_id": "167144", "address": "318 WILHAGAN RD", "lat": "36.134893", "lon": "-86.717545", "sale_price": 825000.0, "sale_date": "29 Jul 2025", "market_value": 526200.0, "beds": 0.0, "bath": 0.0, "sqft": 3902.0, "year_built": "1975", "acres": 0.92}, {"parcel_id": "216176", "address": "127 MCCALL ST", "lat": "36.098009", "lon": "-86.726124", "sale_price": -1.0, "sale_date": "", "market_value": 466600.0, "beds": 3.0, "bath": 2.0, "sqft": 1707.0, "year_built": "1955", "acres": 0.36}, {"parcel_id": "218308", "address": "3744 NOLENSVILLE PIKE", "lat": "36.091772", "lon": "-86.734726", "sale_price": -1.0, "sale_date": "", "market_value": 996700.0, "beds": 0.0, "bath": 0.0, "sqft": 0.0, "year_built": "1995", "acres": 0.66}, {"parcel_id": "218419", "address": "3734 NOLENSVILLE PIKE", "lat": "36.092355", "lon": "-86.735136", "sale_price": 477500.0, "sale_date": "30 Apr 2009", "market_value": 1216400.0, "beds": 0.0, "bath": 0.0, "sqft": 6674.0, "year_built": "1977", "acres": 0.45}, {"parcel_id": "218420", "address": "111 YELTON CT", "lat": "36.091718", "lon": "-86.733743"}, {"parcel_id": "241829", "address": "4831 FOLEY DR", "lat": "36.076987", "lon": "-86.717605", "sale_price": 146000.0, "sale_date": "21 Nov 2016", "market_value": 408100.0, "beds": 3.0, "bath": 1.0, "sqft": 1873.0, "year_built": "1958", "acres": 1.0}, {"parcel_id": "241936", "address": "541 HARDING PL", "lat": "36.076809", "lon": "-86.737604", "sale_price": -1.0, "sale_date": "", "market_value": 587200.0, "beds": 4.0, "bath": 3.0, "sqft": 2430.4975, "year_built": "2005", "acres": 0.34}, {"parcel_id": "305415", "address": "398 HARDING PL", "lat": "36.080441", "lon": "-86.724823", "sale_price": -1.0, "sale_date": "", "market_value": 1189400.0, "beds": 0.0, "bath": 0.0, "sqft": 4824.0, "year_built": "2005", "acres": null}]}