{"cluster_id": 1277, "name": "LL E HOLDINGS LLC", "entity_count": 5, "parcel_count": 9, "total_market_value": 10055100, "total_acres": 1.7, "owner_names": ["HPH 2 LLC", "HPH2 LLC", "LL E HOLDINGS LLC", "O I C HOMES AT 4605 SLOAN", "SLOAN PARTNERS LLC GUNDRY DEVON"], "registered_agents": [], "principal_offices": [], "primary_sos_status": "", "primary_foreign_state": "", "brand": "", "opencorporates": "https://opencorporates.com/companies?q=LL+E+HOLDINGS+LLC&utf8=%E2%9C%93", "primary_type": "", "portfolio": {"n_parcels_with_acs": 6, "median_income": 99566, "median_home_value": 555000, "pct_renter": 36, "pct_poverty": null, "pct_vacant": 12, "pct_black": 8, "pct_white": 80, "pct_hispanic": 6, "pct_asian": 1}, "related": [{"owner": "O I C HOMES AT 4605 SLOAN", "parcels": 1, "via": "mailing address"}, {"owner": "SLOAN PARTNERS LLC GUNDRY DEVON", "parcels": 1, "via": "mailing address"}, {"owner": "HPH2 LLC", "parcels": 1, "via": "mailing address"}, {"owner": "HPH 2 LLC", "parcels": 1, "via": "mailing address"}], "parcels": [{"parcel_id": "151088", "address": "", "lat": "", "lon": ""}, {"parcel_id": "151089", "address": "", "lat": "", "lon": ""}, {"parcel_id": "151090", "address": "", "lat": "", "lon": ""}, {"parcel_id": "163459", "address": "407 HUMPHREYS ST", "lat": "36.1414", "lon": "-86.765131", "sale_price": -1.0, "sale_date": "", "market_value": 2540400.0, "beds": 0.0, "bath": 0.0, "sqft": 5460.0, "year_built": "2015", "acres": 0.17}, {"parcel_id": "408001", "address": "1004 RUSSELL ST APT 6", "lat": "36.17529", "lon": "-86.751376", "sale_price": -1.0, "sale_date": "", "market_value": 647200.0, "beds": 3.0, "bath": 3.5, "sqft": 1717.0, "year_built": "2015", "acres": null}, {"parcel_id": "408004", "address": "1004 RUSSELL ST APT 3", "lat": "36.175467", "lon": "-86.751343", "sale_price": 482900.0, "sale_date": "25 Sep 2017", "market_value": 647200.0, "beds": 3.0, "bath": 3.5, "sqft": 1717.0, "year_built": "2015", "acres": null}, {"parcel_id": "444074", "address": "4601 SLOAN RD UNIT 4", "lat": "36.138665", "lon": "-86.840194", "sale_price": -1.0, "sale_date": "", "market_value": 1626000.0, "beds": 3.0, "bath": 3.5, "sqft": 0.0, "year_built": "2023", "acres": null}, {"parcel_id": "461966", "address": "4603B SLOAN RD", "lat": "36.138736", "lon": "-86.840483"}, {"parcel_id": "9401", "address": "515 RIVERGATE PKWY", "lat": "36.313053", "lon": "-86.708422", "sale_price": -1.0, "sale_date": "", "market_value": 4594300.0, "beds": 0.0, "bath": 0.0, "sqft": 20275.0, "year_built": "2020", "acres": 1.5}]}