{"cluster_id": 1297, "name": "MCLEOD PROPERTIES LLC", "entity_count": 2, "parcel_count": 9, "total_market_value": 1632700, "total_acres": 0.9, "owner_names": ["MAGI GROUP LLC", "MCLEOD PROPERTIES LLC"], "registered_agents": [], "principal_offices": [], "primary_sos_status": "", "primary_foreign_state": "", "brand": "", "opencorporates": "https://opencorporates.com/companies?q=MCLEOD+PROPERTIES+LLC&utf8=%E2%9C%93", "primary_type": "", "portfolio": {"n_parcels_with_acs": 9, "median_income": 65270, "median_home_value": 441000, "pct_renter": 25, "pct_poverty": null, "pct_vacant": 7, "pct_black": 26, "pct_white": 60, "pct_hispanic": 9, "pct_asian": 1}, "related": [{"owner": "MAGI GROUP LLC", "parcels": 3, "via": "mailing address"}], "parcels": [{"parcel_id": "138314", "address": "446 HENEY DR", "lat": "36.151774", "lon": "-86.671296", "sale_price": -1.0, "sale_date": "", "market_value": 392200.0, "beds": 3.0, "bath": 1.5, "sqft": 1050.0, "year_built": "1990", "acres": 0.38}, {"parcel_id": "163141", "address": "407 MALLORY ST", "lat": "36.137188", "lon": "-86.762097", "sale_price": -1.0, "sale_date": "", "market_value": 403900.0, "beds": 1.0, "bath": 1.0, "sqft": 666.0, "year_built": "1980", "acres": 0.12}, {"parcel_id": "241803", "address": "310 BINKLEY DR", "lat": "36.078636", "lon": "-86.739562", "sale_price": -1.0, "sale_date": "", "market_value": 533700.0, "beds": 3.0, "bath": 2.0, "sqft": 1300.0, "year_built": "1962", "acres": 0.3}, {"parcel_id": "59973", "address": "0 PAWNEE TRL", "lat": "36.235003", "lon": "-86.652178"}, {"parcel_id": "59974", "address": "0 PAWNEE TRL", "lat": "36.234763", "lon": "-86.652093"}, {"parcel_id": "59975", "address": "0 PAWNEE TRL", "lat": "36.23449", "lon": "-86.652143"}, {"parcel_id": "59976", "address": "0 PAWNEE TRL", "lat": "36.234228", "lon": "-86.652217"}, {"parcel_id": "59977", "address": "0 PAWNEE TRL", "lat": "36.233223", "lon": "-86.652922"}, {"parcel_id": "70356", "address": "1225B KATIE AVE", "lat": "36.198029", "lon": "-86.779694", "sale_price": 120000.0, "sale_date": "7 Oct 2020", "market_value": 302900.0, "beds": 2.0, "bath": 1.0, "sqft": 960.0, "year_built": "1987", "acres": 0.07}]}