{"cluster_id": 1299, "name": "MIDDLE TENNESSEE PROPERTY GROUP LLC", "entity_count": 1, "parcel_count": 9, "total_market_value": 2219700, "total_acres": 3.4, "owner_names": ["MIDDLE TENNESSEE PROPERTY GROUP LLC"], "registered_agents": [], "principal_offices": [], "primary_sos_status": "", "primary_foreign_state": "", "brand": "", "opencorporates": "https://opencorporates.com/companies?q=MIDDLE+TENNESSEE+PROPERTY+GROUP+LLC&utf8=%E2%9C%93", "primary_type": "", "portfolio": {"n_parcels_with_acs": 9, "median_income": 63573, "median_home_value": 315538, "pct_renter": 52, "pct_poverty": null, "pct_vacant": 2, "pct_black": 41, "pct_white": 37, "pct_hispanic": 19, "pct_asian": 0}, "related": [], "parcels": [{"parcel_id": "24624", "address": "709 MAY DR", "lat": "36.276937", "lon": "-86.696507", "sale_price": -1.0, "sale_date": "", "market_value": 243300.0, "beds": 3.0, "bath": 1.0, "sqft": 1097.0, "year_built": "1969", "acres": 0.27}, {"parcel_id": "25403", "address": "537 SINGER DR", "lat": "36.270412", "lon": "-86.698325", "sale_price": -1.0, "sale_date": "", "market_value": 266800.0, "beds": 3.0, "bath": 1.0, "sqft": 986.0, "year_built": "1971", "acres": 0.21}, {"parcel_id": "26182", "address": "1218 PIERCE RD", "lat": "36.278549", "lon": "-86.701191", "sale_price": -1.0, "sale_date": "", "market_value": 372700.0, "beds": 3.0, "bath": 2.0, "sqft": 1492.0, "year_built": "1965", "acres": 1.14}, {"parcel_id": "27202", "address": "500 E MAPLE ST", "lat": "36.261119", "lon": "-86.702971"}, {"parcel_id": "28096", "address": "111 VANDIVER DR", "lat": "36.263528", "lon": "-86.678468", "sale_price": 107500.0, "sale_date": "30 Jan 2019", "market_value": 246700.0, "beds": 3.0, "bath": 1.0, "sqft": 854.0, "year_built": "1985", "acres": 0.25}, {"parcel_id": "39427", "address": "1051 NEELYS BEND RD", "lat": "36.248421", "lon": "-86.682482", "sale_price": -1.0, "sale_date": "", "market_value": 325700.0, "beds": 3.0, "bath": 1.0, "sqft": 936.0, "year_built": "1955", "acres": 0.6}, {"parcel_id": "5627", "address": "105 FANNIN DR", "lat": "36.334494", "lon": "-86.718268", "sale_price": 257000.0, "sale_date": "15 Mar 2023", "market_value": 259400.0, "beds": 3.0, "bath": 2.0, "sqft": 1232.0, "year_built": "2020", "acres": 0.54}, {"parcel_id": "60086", "address": "1524 MOHAWK TRL", "lat": "36.232938", "lon": "-86.656241", "sale_price": -1.0, "sale_date": "", "market_value": 297100.0, "beds": 3.0, "bath": 2.0, "sqft": 1067.0, "year_built": "1988", "acres": 0.14}, {"parcel_id": "65076", "address": "3454 W HAMILTON AVE", "lat": "36.207829", "lon": "-86.835746", "sale_price": -1.0, "sale_date": "", "market_value": 208000.0, "beds": 3.0, "bath": 1.5, "sqft": 1155.0, "year_built": "1972", "acres": 0.29}]}