{"cluster_id": 130, "name": "INTUITION DEVELOPMENT LLC", "entity_count": 18, "parcel_count": 66, "total_market_value": 11332900, "total_acres": 4.0, "owner_names": ["1400 5TH LLC", "207N LLC", "INTUITION DEVELOPMENT INC", "INTUITION DEVELOPMENT LLC", "O I C HOMES AT 1508 WENDELL AVENUE", "O I C HOMES AT 1623 NORTHVIEW AVENUE", "O I C HOMES AT 1806 ELLIOTT AVENUE", "O I C HOMES AT 2411 BRANCH STREET", "O I C HOMES AT 315 EDITH AVENUE", "O I C HOMES AT 5825 MAXON AVENUE", "O I C HOMES AT 5901 MAXON AVENUE", "O I C HOMES AT 715 RIES AVENUE", "OUR COWS TRUST", "OWEN DEVELOPMENT LLC", "PARAGON GROUP LLC", "PARGON GROUP LLC ARMSTRONG REAL ESTATE LLC", "TBD HOLDINGS LLC", "WEDGEWOOD HOLDINGS LLC"], "registered_agents": [], "principal_offices": [], "primary_sos_status": "", "primary_foreign_state": "", "brand": "", "opencorporates": "https://opencorporates.com/companies?q=INTUITION+DEVELOPMENT+LLC&utf8=%E2%9C%93", "primary_type": "", "portfolio": {"n_parcels_with_acs": 49, "median_income": 101660, "median_home_value": 589167, "pct_renter": 40, "pct_poverty": null, "pct_vacant": 10, "pct_black": 30, "pct_white": 58, "pct_hispanic": 7, "pct_asian": 2}, "related": [{"owner": "OWEN DEVELOPMENT LLC", "parcels": 10, "via": "mailing address"}, {"owner": "INTUITION DEVELOPMENT INC", "parcels": 7, "via": "mailing address"}, {"owner": "PARAGON GROUP LLC", "parcels": 5, "via": "mailing address"}, {"owner": "207N LLC", "parcels": 4, "via": "mailing address"}, {"owner": "OUR COWS TRUST", "parcels": 3, "via": "mailing address"}, {"owner": "O I C HOMES AT 715 RIES AVENUE", "parcels": 1, "via": "mailing address"}, {"owner": "PARGON GROUP LLC ARMSTRONG REAL ESTATE LLC", "parcels": 1, "via": "mailing address"}, {"owner": "O I C HOMES AT 1806 ELLIOTT AVENUE", "parcels": 1, "via": "mailing address"}, {"owner": "WEDGEWOOD HOLDINGS LLC", "parcels": 1, "via": "mailing address"}, {"owner": "O I C HOMES AT 315 EDITH AVENUE", "parcels": 1, "via": "mailing address"}, {"owner": "O I C HOMES AT 5901 MAXON AVENUE", "parcels": 1, "via": "mailing address"}, {"owner": "O I C HOMES AT 2411 BRANCH STREET", "parcels": 1, "via": "mailing address"}, {"owner": "TBD HOLDINGS LLC", "parcels": 1, "via": "mailing address"}, {"owner": "O I C HOMES AT 1623 NORTHVIEW AVENUE", "parcels": 1, "via": "mailing address"}, {"owner": "O I C HOMES AT 1508 WENDELL AVENUE", "parcels": 1, "via": "mailing address"}, {"owner": "1400 5TH LLC", "parcels": 1, "via": "mailing address"}, {"owner": "O I C HOMES AT 5825 MAXON AVENUE", "parcels": 1, "via": "mailing address"}], "parcels": [{"parcel_id": "104673", "address": "201 S 12TH ST", "lat": "36.175845", "lon": "-86.748326"}, {"parcel_id": "104941", "address": "1712 FOREST AVE", "lat": "36.177751", "lon": "-86.738545", "sale_price": null, "sale_date": "", "market_value": null, "beds": null, "bath": 0.0, "sqft": null, "year_built": "", "acres": null}, {"parcel_id": "109064", "address": "1160 TULIP GROVE RD", "lat": "36.177342", "lon": "-86.595248"}, {"parcel_id": "115001", "address": "", "lat": "", "lon": ""}, {"parcel_id": "118212", "address": "", "lat": "", "lon": ""}, {"parcel_id": "132239", "address": "", "lat": "", "lon": ""}, {"parcel_id": "163436", "address": "", "lat": "", "lon": ""}, {"parcel_id": "164257", "address": "910 WEDGEWOOD AVE", "lat": "36.135092", "lon": "-86.783318", "sale_price": 700000.0, "sale_date": "15 Sep 2016", "market_value": 792400.0, "beds": 0.0, "bath": 0.0, "sqft": 4399.0, "year_built": "1987", "acres": 0.6}, {"parcel_id": "215273", "address": "4615 FRANKLIN PIKE", "lat": "36.084132", "lon": "-86.773449", "sale_price": -1.0, "sale_date": "", "market_value": 2295300.0, "beds": 7.0, "bath": 5.0, "sqft": 4166.0, "year_built": "1972", "acres": 2.93}, {"parcel_id": "274334", "address": "", "lat": "", "lon": ""}, {"parcel_id": "274335", "address": "5215 BLUE HOLE RD", "lat": "36.047951", "lon": "-86.674161"}, {"parcel_id": "284332", "address": "0 MT VIEW RD", "lat": "36.055747", "lon": "-86.663851"}, {"parcel_id": "284334", "address": "5118 MT VIEW RD", "lat": "36.054833", "lon": "-86.663185"}, {"parcel_id": "284806", "address": "5088 HICKORY HOLLOW PKWY", "lat": "36.053899", "lon": "-86.666631"}, {"parcel_id": "284809", "address": "0 HICKORY HOLLOW PKWY", "lat": "36.053682", "lon": "-86.667912"}, {"parcel_id": "284812", "address": "0 HICKORY HOLLOW PKWY", "lat": "36.055946", "lon": "-86.668824"}, {"parcel_id": "424860", "address": "207A NEILL AVE", "lat": "36.17848", "lon": "-86.758807", "sale_price": -1.0, "sale_date": "", "market_value": 813200.0, "beds": 4.0, "bath": 3.0, "sqft": 2677.0, "year_built": "2019", "acres": null}, {"parcel_id": "424861", "address": "207B NEILL AVE", "lat": "36.178521", "lon": "-86.758831", "sale_price": -1.0, "sale_date": "", "market_value": 813200.0, "beds": 4.0, "bath": 3.0, "sqft": 2677.0, "year_built": "2019", "acres": null}, {"parcel_id": "424862", "address": "207C NEILL AVE", "lat": "36.17856", "lon": "-86.7586", "sale_price": -1.0, "sale_date": "", "market_value": 798900.0, "beds": 5.0, "bath": 3.5, "sqft": 2766.0, "year_built": "2019", "acres": null}, {"parcel_id": "424863", "address": "207D NEILL AVE", "lat": "36.178602", "lon": "-86.758625", "sale_price": -1.0, "sale_date": "", "market_value": 796700.0, "beds": 5.0, "bath": 3.0, "sqft": 2766.0, "year_built": "2019", "acres": null}, {"parcel_id": "454197", "address": "1508A WENDELL AVE", "lat": "36.193468", "lon": "-86.710923", "sale_price": -1.0, "sale_date": "", "market_value": 424200.0, "beds": 3.0, "bath": 1.0, "sqft": 1064.0, "year_built": "2005", "acres": null}, {"parcel_id": "454199", "address": "1508C WENDELL AVE", "lat": "36.193472", "lon": "-86.711057"}, {"parcel_id": "454826", "address": "1806C ELLIOTT AVE", "lat": "36.136291", "lon": "-86.782294"}, {"parcel_id": "460855", "address": "", "lat": "", "lon": ""}, {"parcel_id": "462998", "address": "", "lat": "", "lon": ""}, {"parcel_id": "462999", "address": "", "lat": "", "lon": ""}, {"parcel_id": "465395", "address": "", "lat": "", "lon": ""}, {"parcel_id": "465396", "address": "7553 CHARLOTTE PIKE", "lat": "36.109785", "lon": "-86.932454"}, {"parcel_id": "465397", "address": "7549 CHARLOTTE PIKE", "lat": "36.10991", "lon": "-86.932328"}, {"parcel_id": "468742", "address": "2411 BRANCH ST", "lat": "36.201136", "lon": "-86.725506"}, {"parcel_id": "469047", "address": "6217C LAREDO AVE", "lat": "36.161265", "lon": "-86.873139"}, {"parcel_id": "470687", "address": "315C EDITH AVE", "lat": "36.202634", "lon": "-86.764532"}, {"parcel_id": "471630", "address": "630 W TRINITY LN UNIT 1", "lat": "36.206703", "lon": "-86.79445"}, {"parcel_id": "471631", "address": "630 W TRINITY LN UNIT 2", "lat": "36.206729", "lon": "-86.79451"}, {"parcel_id": "471632", "address": "630 W TRINITY LN UNIT 3", "lat": "36.206553", "lon": "-86.794561"}, {"parcel_id": "471633", "address": "630 W TRINITY LN UNIT 4", "lat": "36.206584", "lon": "-86.794624"}, {"parcel_id": "471634", "address": "630 W TRINITY LN UNIT 5", "lat": "36.206615", "lon": "-86.794687"}, {"parcel_id": "472194", "address": "", "lat": "", "lon": ""}, {"parcel_id": "472195", "address": "", "lat": "", "lon": ""}, {"parcel_id": "474515", "address": "7557 CHARLOTTE PIKE", "lat": "36.109788", "lon": "-86.932688"}, {"parcel_id": "474516", "address": "7559 CHARLOTTE PIKE", "lat": "36.109734", "lon": "-86.932767"}, {"parcel_id": "474790", "address": "1623C NORTHVIEW AVE", "lat": "36.197689", "lon": "-86.735218"}, {"parcel_id": "475401", "address": "5825 MAXON AVE", "lat": "36.15338", "lon": "-86.863598"}, {"parcel_id": "475402", "address": "5827 MAXON AVE", "lat": "36.153414", "lon": "-86.8637"}, {"parcel_id": "475403", "address": "5825C MAXON AVE", "lat": "36.153154", "lon": "-86.863759"}, {"parcel_id": "475416", "address": "5903 MAXON AVE", "lat": "36.153485", "lon": "-86.863926"}, {"parcel_id": "475417", "address": "5901 MAXON AVE", "lat": "36.153448", "lon": "-86.863818"}, {"parcel_id": "475418", "address": "5901C MAXON AVE", "lat": "36.153216", "lon": "-86.863944"}, {"parcel_id": "475626", "address": "1306A SOUTH ST", "lat": "36.147867", "lon": "-86.787819"}, {"parcel_id": "475627", "address": "1304 A SOUTH ST", "lat": "36.147841", "lon": "-86.787583"}, {"parcel_id": "475628", "address": "1306B SOUTH ST", "lat": "36.148112", "lon": "-86.787782"}, {"parcel_id": "475629", "address": "1304 B SOUTH ST", "lat": "36.148084", "lon": "-86.787537"}, {"parcel_id": "475785", "address": "1625B NORTHVIEW AVE", "lat": "36.197858", "lon": "-86.735239"}, {"parcel_id": "475786", "address": "1625A NORTHVIEW AVE", "lat": "36.197805", "lon": "-86.735248"}, {"parcel_id": "477162", "address": "116 S 13TH ST", "lat": "36.175175", "lon": "-86.747793"}, {"parcel_id": "477163", "address": "1216 HOLLY ST", "lat": "36.175692", "lon": "-86.747653"}, {"parcel_id": "477164", "address": "108 S 13TH ST", "lat": "36.175446", "lon": "-86.747751"}, {"parcel_id": "477165", "address": "112 S 13TH ST", "lat": "36.175311", "lon": "-86.747772"}, {"parcel_id": "67155", "address": "", "lat": "", "lon": ""}, {"parcel_id": "67157", "address": "", "lat": "", "lon": ""}, {"parcel_id": "76928", "address": "", "lat": "", "lon": ""}, {"parcel_id": "77556", "address": "", "lat": "", "lon": ""}, {"parcel_id": "80238", "address": "", "lat": "", "lon": ""}, {"parcel_id": "92272", "address": "", "lat": "", "lon": ""}, {"parcel_id": "98687", "address": "1400 5TH AVE N", "lat": "36.178446", "lon": "-86.789705", "sale_price": -1.0, "sale_date": "", "market_value": 1558700.0, "beds": 1.0, "bath": 0.0, "sqft": 3202.0, "year_built": "2011", "acres": 0.12}, {"parcel_id": "98785", "address": "1416 4TH AVE N", "lat": "36.179893", "lon": "-86.788984", "sale_price": -1.0, "sale_date": "", "market_value": 3040300.0, "beds": 0.0, "bath": 0.0, "sqft": 4185.0, "year_built": "2000", "acres": 0.35}]}