{"cluster_id": 1302, "name": "MIXON PATRICIA MAURA LIVING TRUST", "entity_count": 1, "parcel_count": 9, "total_market_value": 3779900, "total_acres": 1.5, "owner_names": ["MIXON PATRICIA MAURA LIVING TRUST"], "registered_agents": [], "principal_offices": [], "primary_sos_status": "", "primary_foreign_state": "", "brand": "", "opencorporates": "https://opencorporates.com/companies?q=MIXON+PATRICIA+MAURA+LIVING+TRUST&utf8=%E2%9C%93", "primary_type": "", "portfolio": {"n_parcels_with_acs": 8, "median_income": 71300, "median_home_value": 544822, "pct_renter": 43, "pct_poverty": null, "pct_vacant": 8, "pct_black": 3, "pct_white": 73, "pct_hispanic": 11, "pct_asian": 12}, "related": [], "parcels": [{"parcel_id": "116038", "address": "537 RIVER ROUGE DR", "lat": "36.148886", "lon": "-86.884109", "sale_price": 122000.0, "sale_date": "27 Nov 2012", "market_value": 383500.0, "beds": 3.0, "bath": 1.0, "sqft": 1100.0, "year_built": "1961", "acres": 0.25}, {"parcel_id": "116375", "address": "6305 HENRY FORD DR", "lat": "36.153558", "lon": "-86.88046", "sale_price": 385000.0, "sale_date": "30 Sep 2020", "market_value": 542900.0, "beds": 3.0, "bath": 2.5, "sqft": 2196.0, "year_built": "1980", "acres": 0.21}, {"parcel_id": "116384", "address": "6300 HENRY FORD DR", "lat": "36.15395", "lon": "-86.879979", "sale_price": -1.0, "sale_date": "", "market_value": 398300.0, "beds": 3.0, "bath": 1.0, "sqft": 1100.0, "year_built": "1957", "acres": 0.3}, {"parcel_id": "147040", "address": "635 GALAXIE DR", "lat": "36.146739", "lon": "-86.886933", "sale_price": 132000.0, "sale_date": "29 Jun 2012", "market_value": 444900.0, "beds": 3.0, "bath": 1.5, "sqft": 1150.0, "year_built": "1966", "acres": 0.3}, {"parcel_id": "147041", "address": "633 GALAXIE DR", "lat": "36.146625", "lon": "-86.886711", "sale_price": 279000.0, "sale_date": "24 Feb 2016", "market_value": 449000.0, "beds": 3.0, "bath": 1.5, "sqft": 1276.0, "year_built": "1963", "acres": 0.25}, {"parcel_id": "152666", "address": "3815 LOOKOUT DR", "lat": "36.145905", "lon": "-86.832769", "sale_price": -1.0, "sale_date": "", "market_value": 414500.0, "beds": 3.0, "bath": 2.0, "sqft": 1020.0, "year_built": "1980", "acres": 0.14}, {"parcel_id": "157680", "address": "401 BOWLING AVE UNIT 43", "lat": "36.127985", "lon": "-86.827676", "sale_price": 600000.0, "sale_date": "21 Mar 2023", "market_value": 611600.0, "beds": 3.0, "bath": 2.5, "sqft": 1892.0, "year_built": "1990", "acres": 0.0}, {"parcel_id": "158542", "address": "2134 FAIRFAX AVE APT E4", "lat": "36.13481", "lon": "-86.804655", "sale_price": 100000.0, "sale_date": "14 Jun 2013", "market_value": 231000.0, "beds": 1.0, "bath": 1.0, "sqft": 552.0, "year_built": "1965", "acres": 0.0}, {"parcel_id": "309996", "address": "6820 HIGHWAY 70 S APT 308", "lat": "36.083152", "lon": "-86.904122", "sale_price": 127500.0, "sale_date": "15 Aug 2012", "market_value": 304200.0, "beds": 2.0, "bath": 2.0, "sqft": 1268.0, "year_built": "2000", "acres": null}]}