{"cluster_id": 1327, "name": "SPRAGUE FAMILY TRUST THE", "entity_count": 1, "parcel_count": 9, "total_market_value": 4425400, "total_acres": 2.2, "owner_names": ["SPRAGUE FAMILY TRUST THE"], "registered_agents": [], "principal_offices": [], "primary_sos_status": "", "primary_foreign_state": "", "brand": "", "opencorporates": "https://opencorporates.com/companies?q=SPRAGUE+FAMILY+TRUST+THE&utf8=%E2%9C%93", "primary_type": "", "portfolio": {"n_parcels_with_acs": 9, "median_income": 105868, "median_home_value": 512700, "pct_renter": 39, "pct_poverty": null, "pct_vacant": 11, "pct_black": 19, "pct_white": 71, "pct_hispanic": 8, "pct_asian": 1}, "related": [], "parcels": [{"parcel_id": "106480", "address": "1618 SHELBY AVE", "lat": "36.170035", "lon": "-86.741302", "sale_price": -1.0, "sale_date": "", "market_value": 492600.0, "beds": 2.0, "bath": 1.0, "sqft": 1088.0, "year_built": "1975", "acres": 0.17}, {"parcel_id": "106971", "address": "1604 SHELBY AVE", "lat": "36.170142", "lon": "-86.742474", "sale_price": -1.0, "sale_date": "", "market_value": 534100.0, "beds": 2.0, "bath": 1.0, "sqft": 878.0, "year_built": "1975", "acres": 0.16}, {"parcel_id": "364317", "address": "415 CHURCH ST APT 2015", "lat": "36.162908", "lon": "-86.779119", "sale_price": 419500.0, "sale_date": "21 Jan 2014", "market_value": 817200.0, "beds": 2.0, "bath": 2.0, "sqft": 1091.0, "year_built": "2006", "acres": null}, {"parcel_id": "54659", "address": "515 MAPLEWOOD LN", "lat": "36.229346", "lon": "-86.74513", "sale_price": -1.0, "sale_date": "", "market_value": 407400.0, "beds": 3.0, "bath": 1.0, "sqft": 1070.0, "year_built": "1955", "acres": 0.79}, {"parcel_id": "73194", "address": "1512 MONTGOMERY AVE", "lat": "36.198671", "lon": "-86.755172", "sale_price": -1.0, "sale_date": "", "market_value": 391400.0, "beds": 4.0, "bath": 2.0, "sqft": 1697.44, "year_built": "1939", "acres": 0.26}, {"parcel_id": "75498", "address": "1506 NORVEL AVE", "lat": "36.213487", "lon": "-86.720462", "sale_price": -1.0, "sale_date": "", "market_value": 412300.0, "beds": 3.0, "bath": 1.0, "sqft": 1004.0, "year_built": "1948", "acres": 0.17}, {"parcel_id": "76093", "address": "1900 TAMMANY DR", "lat": "36.199529", "lon": "-86.720559", "sale_price": -1.0, "sale_date": "", "market_value": 479900.0, "beds": 3.0, "bath": 1.0, "sqft": 1008.0, "year_built": "1985", "acres": 0.19}, {"parcel_id": "77446", "address": "122 PIEDMONT AVE", "lat": "36.20145", "lon": "-86.721919", "sale_price": -1.0, "sale_date": "", "market_value": 430700.0, "beds": 2.0, "bath": 1.0, "sqft": 912.0, "year_built": "1985", "acres": 0.25}, {"parcel_id": "79660", "address": "2725 BOBBY AVE", "lat": "36.209838", "lon": "-86.711369", "sale_price": -1.0, "sale_date": "", "market_value": 459800.0, "beds": 2.0, "bath": 1.0, "sqft": 824.0, "year_built": "1985", "acres": 0.24}]}