{"cluster_id": 1331, "name": "TETER FAMILY TRUST THE", "entity_count": 1, "parcel_count": 9, "total_market_value": 2366000, "total_acres": 0.0, "owner_names": ["TETER FAMILY TRUST THE"], "registered_agents": [], "principal_offices": [], "primary_sos_status": "", "primary_foreign_state": "", "brand": "", "opencorporates": "https://opencorporates.com/companies?q=TETER+FAMILY+TRUST+THE&utf8=%E2%9C%93", "primary_type": "", "portfolio": {"n_parcels_with_acs": 7, "median_income": 81109, "median_home_value": 312989, "pct_renter": 38, "pct_poverty": null, "pct_vacant": 5, "pct_black": 5, "pct_white": 78, "pct_hispanic": 12, "pct_asian": 4}, "related": [], "parcels": [{"parcel_id": "202214", "address": "165 WESTFIELD DR", "lat": "36.085532", "lon": "-86.945264", "sale_price": 112500.0, "sale_date": "6 Apr 2017", "market_value": 212700.0, "beds": 1.0, "bath": 1.0, "sqft": 746.0, "year_built": "1987", "acres": 0.0}, {"parcel_id": "202341", "address": "213 WESTFIELD DR", "lat": "36.084292", "lon": "-86.946169", "sale_price": 160000.0, "sale_date": "9 Sep 2016", "market_value": 319700.0, "beds": 2.0, "bath": 3.0, "sqft": 1254.0, "year_built": "1987", "acres": 0.0}, {"parcel_id": "202349", "address": "221 WESTFIELD DR", "lat": "36.083956", "lon": "-86.946342", "sale_price": 180000.0, "sale_date": "14 May 2018", "market_value": 319100.0, "beds": 3.0, "bath": 3.0, "sqft": 1586.0, "year_built": "1987", "acres": 0.0}, {"parcel_id": "203934", "address": "113 WESTFIELD DR", "lat": "36.084847", "lon": "-86.94434", "sale_price": 108000.0, "sale_date": "28 Dec 2015", "market_value": 212700.0, "beds": 1.0, "bath": 1.0, "sqft": 746.0, "year_built": "1987", "acres": 0.0}, {"parcel_id": "208130", "address": "5025 HILLSBORO PIKE APT 14N", "lat": "36.099098", "lon": "-86.825237", "sale_price": 100000.0, "sale_date": "7 Jan 2011", "market_value": 237800.0, "beds": 1.0, "bath": 1.0, "sqft": 771.0, "year_built": "1969", "acres": 0.0}, {"parcel_id": "208506", "address": "5025 HILLSBORO PIKE APT 23D", "lat": "36.099188", "lon": "-86.827011", "sale_price": 110000.0, "sale_date": "5 Apr 2012", "market_value": 235800.0, "beds": 1.0, "bath": 1.0, "sqft": 832.0, "year_built": "1980", "acres": 0.0}, {"parcel_id": "233110", "address": "7241 HIGHWAY 70 S APT 115", "lat": "36.07291", "lon": "-86.929653", "sale_price": -1.0, "sale_date": "", "market_value": 294400.0, "beds": 1.0, "bath": 1.5, "sqft": 1067.0, "year_built": "2001", "acres": null}, {"parcel_id": "263151", "address": "5805 BRENTWOOD TRCE", "lat": "36.040189", "lon": "-86.774563", "sale_price": 117000.0, "sale_date": "10 Oct 2014", "market_value": 237900.0, "beds": 1.0, "bath": 1.0, "sqft": 780.0, "year_built": "1979", "acres": 0.0}, {"parcel_id": "270348", "address": "335 YORKSHIRE CIR", "lat": "36.044403", "lon": "-86.726275", "sale_price": 113500.0, "sale_date": "1 Mar 2013", "market_value": 295900.0, "beds": 2.0, "bath": 2.0, "sqft": 1176.7, "year_built": "1987", "acres": 0.03}]}