{"cluster_id": 1344, "name": "1617 MUSIC ROW LLC", "entity_count": 2, "parcel_count": 8, "total_market_value": 1274100, "total_acres": 0.0, "owner_names": ["1006 VIEW LLC", "1617 MUSIC ROW LLC"], "registered_agents": [], "principal_offices": [], "primary_sos_status": "", "primary_foreign_state": "", "brand": "", "opencorporates": "https://opencorporates.com/companies?q=1617+MUSIC+ROW+LLC&utf8=%E2%9C%93", "primary_type": "", "portfolio": {"n_parcels_with_acs": 7, "median_income": 45367, "median_home_value": 549357, "pct_renter": 78, "pct_poverty": null, "pct_vacant": 23, "pct_black": 6, "pct_white": 85, "pct_hispanic": 6, "pct_asian": 4}, "related": [{"owner": "1006 VIEW LLC", "parcels": 1, "via": "mailing address"}], "parcels": [{"parcel_id": "157234", "address": "", "lat": "", "lon": ""}, {"parcel_id": "446787", "address": "1006 12TH AVE S", "lat": "36.14617", "lon": "-86.785787", "sale_price": 1001725.0, "sale_date": "20 Oct 2021", "market_value": 1274100.0, "beds": 4.0, "bath": 4.5, "sqft": 2140.0, "year_built": "2021", "acres": null}, {"parcel_id": "474778", "address": "1617A 16TH AVE S", "lat": "36.137553", "lon": "-86.794626"}, {"parcel_id": "474779", "address": "1617B 16TH AVE S", "lat": "36.137553", "lon": "-86.794626"}, {"parcel_id": "474780", "address": "1617C 16TH AVE S", "lat": "36.137681", "lon": "-86.79472"}, {"parcel_id": "474781", "address": "1617D 16TH AVE S", "lat": "36.137632", "lon": "-86.794734"}, {"parcel_id": "474782", "address": "1617 16TH AVE S", "lat": "36.137573", "lon": "-86.794747"}, {"parcel_id": "474783", "address": "1617F 16TH AVE S", "lat": "36.137519", "lon": "-86.79476"}]}