{"cluster_id": 1364, "name": "6007 LOUISIANA AVE TRUST", "entity_count": 6, "parcel_count": 8, "total_market_value": 1939500, "total_acres": 0.3, "owner_names": ["3701 MEADOWBROOK AVE TRUST", "5203 ILLINOIS AVE TRUST", "5400 CALIFORNIA AVE TRUST", "6007 LOUISIANA AVE TRUST", "O I C HOMES AT 5203 ILLINOIS AVENUE", "O I C HOMES AT 6007 LOUISIANA AVENUE"], "registered_agents": [], "principal_offices": [], "primary_sos_status": "", "primary_foreign_state": "", "brand": "", "opencorporates": "https://opencorporates.com/companies?q=6007+LOUISIANA+AVE+TRUST&utf8=%E2%9C%93", "primary_type": "", "portfolio": {"n_parcels_with_acs": 5, "median_income": 117321, "median_home_value": 673850, "pct_renter": 36, "pct_poverty": null, "pct_vacant": 2, "pct_black": 3, "pct_white": 81, "pct_hispanic": 10, "pct_asian": 2}, "related": [{"owner": "O I C HOMES AT 5203 ILLINOIS AVENUE", "parcels": 1, "via": "mailing address"}, {"owner": "5203 ILLINOIS AVE TRUST", "parcels": 1, "via": "mailing address"}, {"owner": "O I C HOMES AT 6007 LOUISIANA AVENUE", "parcels": 1, "via": "mailing address"}, {"owner": "3701 MEADOWBROOK AVE TRUST", "parcels": 1, "via": "mailing address"}, {"owner": "5400 CALIFORNIA AVE TRUST", "parcels": 1, "via": "mailing address"}], "parcels": [{"parcel_id": "116095", "address": "5400 CALIFORNIA AVE", "lat": "36.164408", "lon": "-86.853385", "sale_price": -1.0, "sale_date": "", "market_value": 270000.0, "beds": 2.0, "bath": 1.0, "sqft": 904.0, "year_built": "1940", "acres": 0.07}, {"parcel_id": "117888", "address": "", "lat": "", "lon": ""}, {"parcel_id": "119486", "address": "", "lat": "", "lon": ""}, {"parcel_id": "153906", "address": "3701 MEADOWBROOK AVE", "lat": "36.137626", "lon": "-86.829701", "sale_price": -1.0, "sale_date": "", "market_value": 1669500.0, "beds": 6.0, "bath": 5.5, "sqft": 3480.4, "year_built": "1980", "acres": 0.26}, {"parcel_id": "467034", "address": "5203C ILLINOIS AVE", "lat": "36.157254", "lon": "-86.850606"}, {"parcel_id": "475007", "address": "6007A LOUISIANA AVE", "lat": "36.163335", "lon": "-86.861169"}, {"parcel_id": "475008", "address": "6007B LOUISIANA AVE", "lat": "36.163375", "lon": "-86.861218"}, {"parcel_id": "475009", "address": "6007C LOUISIANA AVE", "lat": "36.163355", "lon": "-86.861102"}]}