{"cluster_id": 1381, "name": "ARC PROPERTIES G P", "entity_count": 2, "parcel_count": 8, "total_market_value": 4917700, "total_acres": 1.7, "owner_names": ["ARC PROPERTIES G P", "FERDOWSI JOINT REVOCABLE TRUST"], "registered_agents": [], "principal_offices": [], "primary_sos_status": "", "primary_foreign_state": "", "brand": "", "opencorporates": "https://opencorporates.com/companies?q=ARC+PROPERTIES+G+P&utf8=%E2%9C%93", "primary_type": "", "portfolio": {"n_parcels_with_acs": 6, "median_income": 87552, "median_home_value": 612900, "pct_renter": 55, "pct_poverty": null, "pct_vacant": 13, "pct_black": 12, "pct_white": 70, "pct_hispanic": 14, "pct_asian": 4}, "related": [{"owner": "FERDOWSI JOINT REVOCABLE TRUST", "parcels": 1, "via": "mailing address"}], "parcels": [{"parcel_id": "152097", "address": "3188 PARTHENON AVE", "lat": "36.144833", "lon": "-86.820758", "sale_price": -1.0, "sale_date": "", "market_value": 623400.0, "beds": 3.0, "bath": 4.0, "sqft": 1631.0, "year_built": "1935", "acres": 0.11}, {"parcel_id": "163603", "address": "517 MOORE AVE", "lat": "36.136951", "lon": "-86.765888", "sale_price": -1.0, "sale_date": "", "market_value": 622600.0, "beds": 4.0, "bath": 4.0, "sqft": 2201.0, "year_built": "1989", "acres": 0.17}, {"parcel_id": "164567", "address": "", "lat": "", "lon": ""}, {"parcel_id": "165059", "address": "116 RAINS AVE", "lat": "36.138824", "lon": "-86.763579", "sale_price": -1.0, "sale_date": "", "market_value": 589700.0, "beds": 3.0, "bath": 2.0, "sqft": 1552.0, "year_built": "2004", "acres": 0.23}, {"parcel_id": "165178", "address": "506 SOUTHGATE AVE", "lat": "36.136287", "lon": "-86.765825", "sale_price": 307500.0, "sale_date": "23 Sep 2016", "market_value": 952400.0, "beds": 4.0, "bath": 2.0, "sqft": 1400.0, "year_built": "2000", "acres": 0.32}, {"parcel_id": "165179", "address": "504 SOUTHGATE AVE", "lat": "36.13627", "lon": "-86.765657", "sale_price": -1.0, "sale_date": "", "market_value": 1066700.0, "beds": 4.0, "bath": 1.0, "sqft": 1142.0, "year_built": "1940", "acres": 0.34}, {"parcel_id": "168017", "address": "321 LEAFLAND AVE", "lat": "36.126851", "lon": "-86.745618", "sale_price": -1.0, "sale_date": "", "market_value": 294900.0, "beds": 4.0, "bath": 1.0, "sqft": 1494.0, "year_built": "1920", "acres": 0.18}, {"parcel_id": "265105", "address": "5716 SPRING HOUSE WAY", "lat": "36.043599", "lon": "-86.759161", "sale_price": -1.0, "sale_date": "", "market_value": 768000.0, "beds": 4.0, "bath": 2.0, "sqft": 2752.0, "year_built": "1983", "acres": 0.34}]}