{"cluster_id": 1387, "name": "BATTERY LANE PARTNERS LLC", "entity_count": 5, "parcel_count": 8, "total_market_value": 997000, "total_acres": 0.0, "owner_names": ["BATTERY LANE PARTNERS LLC", "DMMCO LLC", "DMMCO LLC SHAWN MEEHAN 401K TRUST THE", "O I C 1810 CLOVERLEAF DRIVE HOMES", "O I C HOMES AT 1022 1024 BATTERY LANE"], "registered_agents": [], "principal_offices": [], "primary_sos_status": "", "primary_foreign_state": "", "brand": "", "opencorporates": "https://opencorporates.com/companies?q=BATTERY+LANE+PARTNERS+LLC&utf8=%E2%9C%93", "primary_type": "", "portfolio": {"n_parcels_with_acs": 7, "median_income": 104647, "median_home_value": 623100, "pct_renter": 21, "pct_poverty": null, "pct_vacant": 1, "pct_black": 11, "pct_white": 78, "pct_hispanic": 5, "pct_asian": 5}, "related": [{"owner": "DMMCO LLC", "parcels": 2, "via": "mailing address"}, {"owner": "O I C 1810 CLOVERLEAF DRIVE HOMES", "parcels": 1, "via": "mailing address"}, {"owner": "DMMCO LLC SHAWN MEEHAN 401K TRUST THE", "parcels": 1, "via": "mailing address"}, {"owner": "O I C HOMES AT 1022 1024 BATTERY LANE", "parcels": 1, "via": "mailing address"}], "parcels": [{"parcel_id": "212266", "address": "", "lat": "", "lon": ""}, {"parcel_id": "232355", "address": "8300 SAWYER BROWN RD APT L306", "lat": "36.069993", "lon": "-86.947028", "sale_price": 146900.0, "sale_date": "15 Oct 2013", "market_value": 385400.0, "beds": 3.0, "bath": 2.5, "sqft": 1716.0, "year_built": "1990", "acres": 0.0}, {"parcel_id": "233138", "address": "1041 GENERAL GEORGE PATTON RD", "lat": "36.067205", "lon": "-86.951192", "sale_price": 152000.0, "sale_date": "16 Jun 2015", "market_value": 337500.0, "beds": 3.0, "bath": 2.5, "sqft": 1403.0, "year_built": "1995", "acres": 0.0}, {"parcel_id": "303595", "address": "7235 ALTHORP WAY # 12", "lat": "36.027", "lon": "-86.711007", "sale_price": 141000.0, "sale_date": "14 Mar 2016", "market_value": 274100.0, "beds": 2.0, "bath": 1.0, "sqft": 988.0, "year_built": "2005", "acres": null}, {"parcel_id": "454941", "address": "1810 CLOVERLEAF DR", "lat": "36.198355", "lon": "-86.712434"}, {"parcel_id": "477967", "address": "1022C BATTERY LN", "lat": "36.089164", "lon": "-86.793713"}, {"parcel_id": "477968", "address": "1022 BATTERY LN", "lat": "36.089231", "lon": "-86.793616"}, {"parcel_id": "477969", "address": "1024 BATTERY LN", "lat": "36.08929", "lon": "-86.793776"}]}