{"cluster_id": 1397, "name": "BLACKBIRD REALTY VENTURES LLC", "entity_count": 3, "parcel_count": 8, "total_market_value": 27304200, "total_acres": 2.4, "owner_names": ["BLACKBIRD REALTY VENTURES LLC", "GRACIE CHENAULT SANDERS LYNNWOOD REAL ESTATE LLC", "JACK BROWN S JOINT GERMANTOWN LLC"], "registered_agents": [], "principal_offices": [], "primary_sos_status": "", "primary_foreign_state": "", "brand": "", "opencorporates": "https://opencorporates.com/companies?q=BLACKBIRD+REALTY+VENTURES+LLC&utf8=%E2%9C%93", "primary_type": "", "portfolio": {"n_parcels_with_acs": 8, "median_income": 83181, "median_home_value": 1135850, "pct_renter": 78, "pct_poverty": null, "pct_vacant": 29, "pct_black": 6, "pct_white": 65, "pct_hispanic": 18, "pct_asian": 6}, "related": [{"owner": "JACK BROWN S JOINT GERMANTOWN LLC", "parcels": 3, "via": "mailing address"}, {"owner": "GRACIE CHENAULT SANDERS LYNNWOOD REAL ESTATE LLC", "parcels": 1, "via": "mailing address"}], "parcels": [{"parcel_id": "128091", "address": "1707 W END AVE", "lat": "36.153153", "lon": "-86.794702", "sale_price": -1.0, "sale_date": "", "market_value": 4472200.0, "beds": 0.0, "bath": 0.0, "sqft": 9113.0, "year_built": "1995", "acres": 0.25}, {"parcel_id": "128092", "address": "1705 W END AVE", "lat": "36.153248", "lon": "-86.794572"}, {"parcel_id": "128093", "address": "1701 W END AVE", "lat": "36.153378", "lon": "-86.794375", "sale_price": -1.0, "sale_date": "", "market_value": 8038600.0, "beds": 0.0, "bath": 0.0, "sqft": 38640.0, "year_built": "2000", "acres": 0.4}, {"parcel_id": "128094", "address": "1616 BROADWAY", "lat": "36.153715", "lon": "-86.793846", "sale_price": -1.0, "sale_date": "", "market_value": 8110000.0, "beds": 0.0, "bath": 0.0, "sqft": 4900.0, "year_built": "2020", "acres": 0.51}, {"parcel_id": "179533", "address": "9 LYNNWOOD LN", "lat": "36.116169", "lon": "-86.8459", "sale_price": 2350000.0, "sale_date": "3 Dec 2018", "market_value": 5435600.0, "beds": 5.0, "bath": 6.0, "sqft": 6571.0, "year_built": "2005", "acres": 1.07}, {"parcel_id": "98230", "address": "1129 3RD AVE N", "lat": "36.176138", "lon": "-86.785782"}, {"parcel_id": "98231", "address": "1125 3RD AVE N", "lat": "36.176025", "lon": "-86.785778"}, {"parcel_id": "98232", "address": "1123 3RD AVE N", "lat": "36.175918", "lon": "-86.785709", "sale_price": -1.0, "sale_date": "", "market_value": 1247800.0, "beds": 0.0, "bath": 0.0, "sqft": 0.0, "year_built": "2000", "acres": 0.2}]}