{"cluster_id": 1400, "name": "GOOD OL BOYS LLC", "entity_count": 5, "parcel_count": 8, "total_market_value": 14849200, "total_acres": 0.3, "owner_names": ["BLUE PARROT LLC", "DIVISION ST BOYS LLC", "DOS HOMBRES LLC", "GOOD OL BOYS LLC", "O I C HOMES AT 5832 ROBERTSON AVENUE"], "registered_agents": [], "principal_offices": [], "primary_sos_status": "", "primary_foreign_state": "", "brand": "", "opencorporates": "https://opencorporates.com/companies?q=GOOD+OL+BOYS+LLC&utf8=%E2%9C%93", "primary_type": "", "portfolio": {"n_parcels_with_acs": 7, "median_income": 85433, "median_home_value": 484383, "pct_renter": 56, "pct_poverty": null, "pct_vacant": 16, "pct_black": 2, "pct_white": 83, "pct_hispanic": 8, "pct_asian": 5}, "related": [{"owner": "BLUE PARROT LLC", "parcels": 1, "via": "mailing address"}, {"owner": "DOS HOMBRES LLC", "parcels": 1, "via": "mailing address"}, {"owner": "DIVISION ST BOYS LLC", "parcels": 1, "via": "mailing address"}, {"owner": "O I C HOMES AT 5832 ROBERTSON AVENUE", "parcels": 1, "via": "mailing address"}], "parcels": [{"parcel_id": "117291", "address": "", "lat": "", "lon": ""}, {"parcel_id": "129705", "address": "1913 DIVISION ST", "lat": "36.149531", "lon": "-86.796809", "sale_price": -1.0, "sale_date": "", "market_value": 5172400.0, "beds": 0.0, "bath": 0.0, "sqft": 7759.0, "year_built": "2020", "acres": 0.17}, {"parcel_id": "131840", "address": "300 4TH AVE S", "lat": "36.1583", "lon": "-86.774925", "sale_price": 380000.0, "sale_date": "1 Oct 2012", "market_value": 5906800.0, "beds": null, "bath": 0.0, "sqft": 10062.0, "year_built": "2024", "acres": 0.09}, {"parcel_id": "451296", "address": "1616 W END AVE UNIT 3203", "lat": "36.154333", "lon": "-86.794248", "sale_price": 1844000.0, "sale_date": "8 Oct 2021", "market_value": 2199800.0, "beds": 2.0, "bath": 2.5, "sqft": 1903.0, "year_built": "2020", "acres": null}, {"parcel_id": "455133", "address": "5830 ROBERTSON AVE", "lat": "36.156169", "lon": "-86.863105"}, {"parcel_id": "461662", "address": "6039 STERLING ST", "lat": "36.156185", "lon": "-86.863273", "sale_price": -1.0, "sale_date": "", "market_value": 794900.0, "beds": 4.0, "bath": 3.5, "sqft": 2898.0, "year_built": "2023", "acres": null}, {"parcel_id": "461663", "address": "6037 STERLING ST", "lat": "36.156322", "lon": "-86.863223", "sale_price": -1.0, "sale_date": "", "market_value": 775300.0, "beds": 4.0, "bath": 3.5, "sqft": 2802.0, "year_built": "2023", "acres": null}, {"parcel_id": "461664", "address": "6039B STERLING ST", "lat": "36.156264", "lon": "-86.863244"}]}