{"cluster_id": 1407, "name": "UTOPIA ASSOCIATES LLC", "entity_count": 3, "parcel_count": 8, "total_market_value": 9660519, "total_acres": 15.7, "owner_names": ["BROADWAY VENTURE 2013 LLC", "LIFF JUDITH O REVOCABLE TRUST", "UTOPIA ASSOCIATES LLC"], "registered_agents": [], "principal_offices": [], "primary_sos_status": "", "primary_foreign_state": "", "brand": "", "opencorporates": "https://opencorporates.com/companies?q=UTOPIA+ASSOCIATES+LLC&utf8=%E2%9C%93", "primary_type": "", "portfolio": {"n_parcels_with_acs": 8, "median_income": 92356, "median_home_value": 447875, "pct_renter": 57, "pct_poverty": null, "pct_vacant": 22, "pct_black": 8, "pct_white": 69, "pct_hispanic": 24, "pct_asian": 2}, "related": [{"owner": "BROADWAY VENTURE 2013 LLC", "parcels": 2, "via": "mailing address"}, {"owner": "LIFF JUDITH O REVOCABLE TRUST", "parcels": 1, "via": "mailing address"}], "parcels": [{"parcel_id": "128226", "address": "109 ROSA L PARKS BLVD", "lat": "36.159197", "lon": "-86.782601"}, {"parcel_id": "128227", "address": "808 BROADWAY", "lat": "36.158978", "lon": "-86.782551", "sale_price": -1.0, "sale_date": "", "market_value": 3597400.0, "beds": 0.0, "bath": 0.0, "sqft": 6650.0, "year_built": "1990", "acres": 0.07}, {"parcel_id": "165154", "address": "2135 UTOPIA AVE", "lat": "36.126864", "lon": "-86.756844", "sale_price": 597500.0, "sale_date": "6 Jan 2020", "market_value": 887100.0, "beds": 0.0, "bath": 0.0, "sqft": 3000.0, "year_built": "1995", "acres": 0.19}, {"parcel_id": "165268", "address": "2136 UTOPIA AVE", "lat": "36.126597", "lon": "-86.756117"}, {"parcel_id": "191718", "address": "2512 EUGENIA AVE", "lat": "36.116574", "lon": "-86.754409"}, {"parcel_id": "191719", "address": "2510 EUGENIA AVE", "lat": "36.116766", "lon": "-86.754502", "sale_price": -1.0, "sale_date": "", "market_value": 1174300.0, "beds": 0.0, "bath": 0.0, "sqft": 5200.0, "year_built": "1987", "acres": 0.34}, {"parcel_id": "191722", "address": "2504 EUGENIA AVE", "lat": "36.116958", "lon": "-86.754596", "sale_price": null, "sale_date": "", "market_value": null, "beds": null, "bath": 0.0, "sqft": null, "year_built": "", "acres": null}, {"parcel_id": "257409", "address": "8240 POPLAR CREEK RD", "lat": "36.05808", "lon": "-86.977472", "sale_price": -1.0, "sale_date": "", "market_value": 4001719.0, "beds": 5.0, "bath": 7.0, "sqft": 11874.0, "year_built": "2000", "acres": 15.1}]}