{"cluster_id": 1422, "name": "ELPIZO FUND LLC", "entity_count": 3, "parcel_count": 8, "total_market_value": 5202900, "total_acres": 7.1, "owner_names": ["CES ASSOCIATES INC", "ELPIZO FUND LLC", "ELPIZO FUND LLC THE"], "registered_agents": [], "principal_offices": [], "primary_sos_status": "", "primary_foreign_state": "", "brand": "", "opencorporates": "https://opencorporates.com/companies?q=ELPIZO+FUND+LLC&utf8=%E2%9C%93", "primary_type": "", "portfolio": {"n_parcels_with_acs": 6, "median_income": 77101, "median_home_value": 396383, "pct_renter": 25, "pct_poverty": null, "pct_vacant": 1, "pct_black": 84, "pct_white": 13, "pct_hispanic": 2, "pct_asian": 0}, "related": [{"owner": "ELPIZO FUND LLC THE", "parcels": 3, "via": "mailing address"}, {"owner": "CES ASSOCIATES INC", "parcels": 2, "via": "mailing address"}], "parcels": [{"parcel_id": "20279", "address": "0 BRICK CHURCH PIKE", "lat": "36.259168", "lon": "-86.774667"}, {"parcel_id": "65079", "address": "3550 W HAMILTON AVE", "lat": "36.207671", "lon": "-86.838613"}, {"parcel_id": "65765", "address": "3606 FAIRVIEW DR", "lat": "36.211826", "lon": "-86.84007", "sale_price": -1.0, "sale_date": "", "market_value": 342700.0, "beds": 4.0, "bath": 2.0, "sqft": 1543.0, "year_built": "1968", "acres": 0.89}, {"parcel_id": "65769", "address": "4007 CLARKSVILLE PIKE", "lat": "36.212045", "lon": "-86.839323", "sale_price": -1.0, "sale_date": "", "market_value": 2677800.0, "beds": null, "bath": 0.0, "sqft": 17376.0, "year_built": "2023", "acres": 1.67}, {"parcel_id": "65770", "address": "", "lat": "", "lon": ""}, {"parcel_id": "65771", "address": "", "lat": "", "lon": ""}, {"parcel_id": "65859", "address": "4011 CLARKSVILLE PIKE", "lat": "36.212591", "lon": "-86.83906"}, {"parcel_id": "66004", "address": "3510 W HAMILTON AVE", "lat": "36.208099", "lon": "-86.838203", "sale_price": -1.0, "sale_date": "", "market_value": 2182400.0, "beds": 0.0, "bath": 0.0, "sqft": 30050.0, "year_built": "1975", "acres": 4.5}]}