{"cluster_id": 1424, "name": "CHARLES NIEWOLD LLC", "entity_count": 6, "parcel_count": 8, "total_market_value": 6952800, "total_acres": 4.0, "owner_names": ["CHARLES NIEWOLD LLC", "CHARLES R NIEWOLD LLC", "LAURA NIEWOLD 401K TRUST THE", "NIEWOLD CHARLES LLC", "NIEWOLD LAURA 401K TRUST", "NIEWOLD LAURA GOODALL REVOCABLE TRUST"], "registered_agents": [], "principal_offices": [], "primary_sos_status": "", "primary_foreign_state": "", "brand": "", "opencorporates": "https://opencorporates.com/companies?q=CHARLES+NIEWOLD+LLC&utf8=%E2%9C%93", "primary_type": "", "portfolio": {"n_parcels_with_acs": 8, "median_income": 102505, "median_home_value": 592043, "pct_renter": 58, "pct_poverty": null, "pct_vacant": 5, "pct_black": 25, "pct_white": 61, "pct_hispanic": 13, "pct_asian": 1}, "related": [{"owner": "NIEWOLD CHARLES LLC", "parcels": 1, "via": "mailing address"}, {"owner": "NIEWOLD LAURA GOODALL REVOCABLE TRUST", "parcels": 1, "via": "mailing address"}, {"owner": "CHARLES R NIEWOLD LLC", "parcels": 1, "via": "mailing address"}, {"owner": "LAURA NIEWOLD 401K TRUST THE", "parcels": 1, "via": "mailing address"}, {"owner": "NIEWOLD LAURA 401K TRUST", "parcels": 1, "via": "mailing address"}], "parcels": [{"parcel_id": "15939", "address": "913 APPLE VALLEY RD", "lat": "36.283972", "lon": "-86.724112", "sale_price": 339000.0, "sale_date": "14 Mar 2022", "market_value": 321400.0, "beds": 3.0, "bath": 1.0, "sqft": 1408.0, "year_built": "1958", "acres": 0.98}, {"parcel_id": "170089", "address": "889 KIPLING DR", "lat": "36.13014", "lon": "-86.702296", "sale_price": 90000.0, "sale_date": "30 Jul 2019", "market_value": 267600.0, "beds": 2.0, "bath": 1.0, "sqft": 768.0, "year_built": "1980", "acres": 0.36}, {"parcel_id": "180927", "address": "126 LINCOLN CT", "lat": "36.103339", "lon": "-86.864294", "sale_price": 540000.0, "sale_date": "15 Jun 2016", "market_value": 821200.0, "beds": 3.0, "bath": 2.0, "sqft": 1554.0, "year_built": "1990", "acres": 0.25}, {"parcel_id": "181663", "address": "423 JACKSON BLVD", "lat": "36.107", "lon": "-86.853833", "sale_price": 0.0, "sale_date": "2 Mar 2026", "market_value": 4229700.0, "beds": 2.0, "bath": 3.5, "sqft": 4956.0, "year_built": "1990", "acres": 1.37}, {"parcel_id": "197864", "address": "1301 KERMIT DR", "lat": "36.125299", "lon": "-86.700006", "sale_price": 303000.0, "sale_date": "12 Jun 2024", "market_value": 263600.0, "beds": 2.0, "bath": 1.0, "sqft": 759.0, "year_built": "2005", "acres": 0.29}, {"parcel_id": "24630", "address": "733 MAY DR", "lat": "36.277659", "lon": "-86.69677", "sale_price": 284320.0, "sale_date": "31 Oct 2022", "market_value": 321600.0, "beds": 3.0, "bath": 1.5, "sqft": 1121.0, "year_built": "1995", "acres": 0.34}, {"parcel_id": "36803", "address": "316 HARRIS ST", "lat": "36.257526", "lon": "-86.708277", "sale_price": 260000.0, "sale_date": "28 Mar 2022", "market_value": 258300.0, "beds": 3.0, "bath": 1.0, "sqft": 1140.0, "year_built": "1946", "acres": 0.2}, {"parcel_id": "99597", "address": "919 SHARPE AVE", "lat": "36.190256", "lon": "-86.752037", "sale_price": 309700.0, "sale_date": "23 Jul 2020", "market_value": 469400.0, "beds": 3.0, "bath": 1.0, "sqft": 1008.0, "year_built": "1995", "acres": 0.18}]}