{"cluster_id": 1427, "name": "CLF TN VENTURES LLC", "entity_count": 1, "parcel_count": 8, "total_market_value": 8265100, "total_acres": 6.1, "owner_names": ["CLF TN VENTURES LLC"], "registered_agents": [], "principal_offices": [], "primary_sos_status": "", "primary_foreign_state": "", "brand": "", "opencorporates": "https://opencorporates.com/companies?q=CLF+TN+VENTURES+LLC&utf8=%E2%9C%93", "primary_type": "", "portfolio": {"n_parcels_with_acs": 6, "median_income": 131732, "median_home_value": 989538, "pct_renter": 21, "pct_poverty": null, "pct_vacant": 10, "pct_black": 3, "pct_white": 88, "pct_hispanic": 2, "pct_asian": 4}, "related": [], "parcels": [{"parcel_id": "121931", "address": "5314 ELKINS AVE", "lat": "36.149858", "lon": "-86.852558", "sale_price": 675000.0, "sale_date": "23 Jun 2022", "market_value": 556800.0, "beds": 4.0, "bath": 4.5, "sqft": 3194.0, "year_built": "2026", "acres": 0.19}, {"parcel_id": "149895", "address": "215 CHEROKEE RD", "lat": "36.133126", "lon": "-86.840012", "sale_price": 1379000.0, "sale_date": "27 Apr 2026", "market_value": 1253600.0, "beds": 4.0, "bath": 4.0, "sqft": 3080.0, "year_built": "2010", "acres": 0.17}, {"parcel_id": "150154", "address": "303 LAUDERDALE RD", "lat": "36.136076", "lon": "-86.837446", "sale_price": -1.0, "sale_date": "", "market_value": 1027900.0, "beds": 4.0, "bath": 2.0, "sqft": 2367.0, "year_built": "1950", "acres": 0.19}, {"parcel_id": "179829", "address": "912 WILSON BLVD", "lat": "36.118352", "lon": "-86.834189", "sale_price": -1.0, "sale_date": "", "market_value": 1781400.0, "beds": 5.0, "bath": 5.5, "sqft": 4229.0, "year_built": "2010", "acres": 0.46}, {"parcel_id": "190725", "address": "3513 RAINBOW PL", "lat": "36.10824", "lon": "-86.778886", "sale_price": null, "sale_date": "", "market_value": null, "beds": null, "bath": 0.0, "sqft": null, "year_built": "", "acres": null}, {"parcel_id": "204810", "address": "215 ROLLING FORK CT", "lat": "36.092966", "lon": "-86.908848", "sale_price": 1050000.0, "sale_date": "15 May 2026", "market_value": 1083000.0, "beds": 4.0, "bath": 2.0, "sqft": 2601.0, "year_built": "1985", "acres": 3.57}, {"parcel_id": "205411", "address": "105 VAUGHNS GAP RD", "lat": "36.093154", "lon": "-86.886488", "sale_price": -1.0, "sale_date": "", "market_value": 1370100.0, "beds": 4.0, "bath": 4.0, "sqft": 3957.0, "year_built": "1990", "acres": 1.31}, {"parcel_id": "209450", "address": "4111 LEGEND HALL DR", "lat": "36.102465", "lon": "-86.823235", "sale_price": 1000000.0, "sale_date": "27 Aug 2025", "market_value": 1192300.0, "beds": 4.0, "bath": 3.0, "sqft": 3590.825, "year_built": "1979", "acres": 0.22}]}