{"cluster_id": 1433, "name": "CONNERTH CONSTRUCTION LLC", "entity_count": 2, "parcel_count": 8, "total_market_value": 1203000, "total_acres": 0.4, "owner_names": ["CONNERTH CONSTRUCTION LLC", "O I C HOMES AT 6313 6315 EDSEL DRIVE"], "registered_agents": [], "principal_offices": [], "primary_sos_status": "", "primary_foreign_state": "", "brand": "", "opencorporates": "https://opencorporates.com/companies?q=CONNERTH+CONSTRUCTION+LLC&utf8=%E2%9C%93", "primary_type": "", "portfolio": {"n_parcels_with_acs": 5, "median_income": 72599, "median_home_value": 792840, "pct_renter": 43, "pct_poverty": null, "pct_vacant": 8, "pct_black": 12, "pct_white": 73, "pct_hispanic": 7, "pct_asian": 7}, "related": [{"owner": "O I C HOMES AT 6313 6315 EDSEL DRIVE", "parcels": 1, "via": "mailing address"}], "parcels": [{"parcel_id": "116493", "address": "", "lat": "", "lon": ""}, {"parcel_id": "188864", "address": "2823 VAULX LN", "lat": "36.12145", "lon": "-86.779968", "sale_price": 450000.0, "sale_date": "31 Aug 2015", "market_value": 884800.0, "beds": 2.0, "bath": 2.0, "sqft": 1242.0, "year_built": "1995", "acres": 0.43}, {"parcel_id": "188865", "address": "", "lat": "", "lon": ""}, {"parcel_id": "19010", "address": "1227 OLD HICKORY BLVD", "lat": "36.2728", "lon": "-86.763509", "sale_price": -1.0, "sale_date": "", "market_value": 318200.0, "beds": 2.0, "bath": 2.0, "sqft": 1229.0, "year_built": "2010", "acres": null}, {"parcel_id": "421645", "address": "", "lat": "", "lon": ""}, {"parcel_id": "429915", "address": "2821A VAULX LN", "lat": "36.121588", "lon": "-86.780129"}, {"parcel_id": "429916", "address": "2821B VAULX LN", "lat": "36.121542", "lon": "-86.780331"}, {"parcel_id": "470196", "address": "6315C EDSEL DR", "lat": "36.154695", "lon": "-86.880304"}]}