{"cluster_id": 145, "name": "PADRE PIO PROPERTIES LLC", "entity_count": 2, "parcel_count": 59, "total_market_value": 18386500, "total_acres": 16.5, "owner_names": ["23RD AVE N REVERSE LLC", "PADRE PIO PROPERTIES LLC"], "registered_agents": [], "principal_offices": [], "primary_sos_status": "", "primary_foreign_state": "", "brand": "", "opencorporates": "https://opencorporates.com/companies?q=PADRE+PIO+PROPERTIES+LLC&utf8=%E2%9C%93", "primary_type": "", "portfolio": {"n_parcels_with_acs": 54, "median_income": 75594, "median_home_value": 438212, "pct_renter": 51, "pct_poverty": null, "pct_vacant": 7, "pct_black": 36, "pct_white": 47, "pct_hispanic": 12, "pct_asian": 2}, "related": [{"owner": "23RD AVE N REVERSE LLC", "parcels": 2, "via": "mailing address"}], "parcels": [{"parcel_id": "113768", "address": "668 ANNEX AVE", "lat": "36.162323", "lon": "-86.875383", "sale_price": null, "sale_date": "", "market_value": null, "beds": null, "bath": 0.0, "sqft": null, "year_built": "", "acres": null}, {"parcel_id": "117461", "address": "1042 43RD AVE N", "lat": "36.163761", "lon": "-86.838357", "sale_price": 60000.0, "sale_date": "9 Apr 2015", "market_value": 385700.0, "beds": 3.0, "bath": 2.0, "sqft": 1688.0, "year_built": "1998", "acres": 0.47}, {"parcel_id": "120324", "address": "5416 ILLINOIS AVE", "lat": "36.15735", "lon": "-86.854335", "sale_price": -1.0, "sale_date": "", "market_value": 282400.0, "beds": 2.0, "bath": 1.0, "sqft": 760.0, "year_built": "1955", "acres": 0.19}, {"parcel_id": "124012", "address": "929 33RD AVE N", "lat": "36.162166", "lon": "-86.826112", "sale_price": -1.0, "sale_date": "", "market_value": 285600.0, "beds": 3.0, "bath": 1.0, "sqft": 951.0, "year_built": "1948", "acres": 0.17}, {"parcel_id": "124106", "address": "931 33RD AVE N", "lat": "36.162301", "lon": "-86.826145", "sale_price": 78000.0, "sale_date": "29 May 2015", "market_value": 303200.0, "beds": 4.0, "bath": 1.0, "sqft": 1080.0, "year_built": "1948", "acres": 0.17}, {"parcel_id": "124107", "address": "933 33RD AVE N", "lat": "36.162435", "lon": "-86.826177", "sale_price": 78000.0, "sale_date": "28 Jul 2015", "market_value": 312300.0, "beds": 2.0, "bath": 1.0, "sqft": 1328.0, "year_built": "1947", "acres": 0.17}, {"parcel_id": "124108", "address": "935A 33RD AVE N", "lat": "36.16257", "lon": "-86.82621", "sale_price": -1.0, "sale_date": "", "market_value": 283300.0, "beds": 3.0, "bath": 2.0, "sqft": 1168.0, "year_built": "1948", "acres": 0.17}, {"parcel_id": "130121", "address": "1013 DAVIDSON ST", "lat": "36.163011", "lon": "-86.753219", "sale_price": -1.0, "sale_date": "", "market_value": 348900.0, "beds": 2.0, "bath": 1.0, "sqft": 704.0, "year_built": "1957", "acres": 0.17}, {"parcel_id": "135451", "address": "1315 DAVIDSON ST", "lat": "36.163213", "lon": "-86.747448", "sale_price": -1.0, "sale_date": "", "market_value": 347000.0, "beds": 2.0, "bath": 1.0, "sqft": 764.0, "year_built": "1960", "acres": 0.18}, {"parcel_id": "135464", "address": "921 S 14TH ST", "lat": "36.163767", "lon": "-86.746448", "sale_price": 50100.0, "sale_date": "30 Jan 2013", "market_value": 403000.0, "beds": 2.0, "bath": 1.0, "sqft": 704.0, "year_built": "1959", "acres": 0.2}, {"parcel_id": "161249", "address": "25 TRIMBLE ST", "lat": "36.145971", "lon": "-86.761056", "sale_price": 52000.0, "sale_date": "7 Dec 2012", "market_value": 436200.0, "beds": 6.0, "bath": 3.0, "sqft": 1873.0, "year_built": "1965", "acres": 0.18}, {"parcel_id": "162151", "address": "915 15TH AVE S", "lat": "36.146814", "lon": "-86.790421", "sale_price": 240000.0, "sale_date": "30 Apr 2010", "market_value": 726700.0, "beds": 4.0, "bath": 3.0, "sqft": 2488.0, "year_built": "1995", "acres": 0.15}, {"parcel_id": "165304", "address": "425 MOORE AVE", "lat": "36.136458", "lon": "-86.763764", "sale_price": 102250.0, "sale_date": "16 Apr 2014", "market_value": 465900.0, "beds": 3.0, "bath": 1.0, "sqft": 814.0, "year_built": "1958", "acres": 0.18}, {"parcel_id": "168361", "address": "1980 CARLOSS DR", "lat": "36.130163", "lon": "-86.734272", "sale_price": -1.0, "sale_date": "", "market_value": 287100.0, "beds": 2.0, "bath": 1.0, "sqft": 720.0, "year_built": "1950", "acres": 0.3}, {"parcel_id": "169133", "address": "919 KIPLING DR", "lat": "36.129221", "lon": "-86.698494", "sale_price": 95000.0, "sale_date": "27 Mar 2009", "market_value": 289000.0, "beds": 2.0, "bath": 1.0, "sqft": 936.0, "year_built": "1980", "acres": 0.22}, {"parcel_id": "192068", "address": "361 GLENROSE AVE", "lat": "36.12545", "lon": "-86.750035", "sale_price": -1.0, "sale_date": "", "market_value": 235600.0, "beds": 2.0, "bath": 1.0, "sqft": 680.0, "year_built": "1965", "acres": 0.21}, {"parcel_id": "192349", "address": "24 PEACHTREE ST", "lat": "36.119738", "lon": "-86.732811", "sale_price": -1.0, "sale_date": "", "market_value": 352400.0, "beds": 3.0, "bath": 1.0, "sqft": 1586.0, "year_built": "1977", "acres": 0.23}, {"parcel_id": "192620", "address": "93 ROSE ST", "lat": "36.12271", "lon": "-86.739257", "sale_price": -1.0, "sale_date": "", "market_value": 231900.0, "beds": 2.0, "bath": 1.0, "sqft": 768.0, "year_built": "1950", "acres": 0.34}, {"parcel_id": "194074", "address": "214 STIRTON RD", "lat": "36.12318", "lon": "-86.733131", "sale_price": -1.0, "sale_date": "", "market_value": 345000.0, "beds": 2.0, "bath": 1.0, "sqft": 1464.0, "year_built": "1956", "acres": 0.25}, {"parcel_id": "195731", "address": "738 CAMEO DR", "lat": "36.113611", "lon": "-86.715464", "sale_price": -1.0, "sale_date": "", "market_value": 260300.0, "beds": 3.0, "bath": 1.0, "sqft": 1230.0, "year_built": "1952", "acres": 0.52}, {"parcel_id": "197562", "address": "741 WILDVIEW DR", "lat": "36.109423", "lon": "-86.71363", "sale_price": -1.0, "sale_date": "", "market_value": 315800.0, "beds": 2.0, "bath": 1.0, "sqft": 1225.0, "year_built": "1960", "acres": 1.21}, {"parcel_id": "215427", "address": "3206 HARLIN DR", "lat": "36.102831", "lon": "-86.748703", "sale_price": 160000.0, "sale_date": "4 Apr 2023", "market_value": 197400.0, "beds": 2.0, "bath": 1.0, "sqft": 690.0, "year_built": "1970", "acres": 0.26}, {"parcel_id": "242903", "address": "4405 PROVIDENCE HTS", "lat": "36.073758", "lon": "-86.725698", "sale_price": -1.0, "sale_date": "", "market_value": 249800.0, "beds": 3.0, "bath": 1.0, "sqft": 1035.0, "year_built": "1930", "acres": 0.17}, {"parcel_id": "250461", "address": "1105 WOBURN WAY", "lat": "36.081507", "lon": "-86.6641", "sale_price": -1.0, "sale_date": "", "market_value": 292300.0, "beds": 3.0, "bath": 2.0, "sqft": 1372.0, "year_built": "1985", "acres": 0.22}, {"parcel_id": "250929", "address": "1100 WOBURN WAY", "lat": "36.081647", "lon": "-86.663496", "sale_price": 157000.0, "sale_date": "26 Nov 2019", "market_value": 280800.0, "beds": 3.0, "bath": 2.0, "sqft": 1256.0, "year_built": "1985", "acres": 0.19}, {"parcel_id": "26169", "address": "1116 SNOW AVE", "lat": "36.279883", "lon": "-86.70048", "sale_price": -1.0, "sale_date": "", "market_value": 315400.0, "beds": 3.0, "bath": 1.0, "sqft": 1034.0, "year_built": "1985", "acres": 0.44}, {"parcel_id": "27260", "address": "210 MYATT DR", "lat": "36.267285", "lon": "-86.690443", "sale_price": -1.0, "sale_date": "", "market_value": 187100.0, "beds": 2.0, "bath": 1.0, "sqft": 892.0, "year_built": "1953", "acres": 0.19}, {"parcel_id": "283646", "address": "4153 LAVERGNE COUCHVILLE PIKE", "lat": "36.046425", "lon": "-86.581883", "sale_price": -1.0, "sale_date": "", "market_value": 228400.0, "beds": 2.0, "bath": 1.0, "sqft": 1091.0, "year_built": "1975", "acres": 0.83}, {"parcel_id": "37332", "address": "617 BLACKSTONE AVE", "lat": "36.255182", "lon": "-86.699565", "sale_price": 111500.0, "sale_date": "9 Jan 2018", "market_value": 238600.0, "beds": 3.0, "bath": 2.0, "sqft": 1320.0, "year_built": "1948", "acres": 0.35}, {"parcel_id": "41999", "address": "105 RYBURN CT", "lat": "36.254063", "lon": "-86.654129", "sale_price": 121000.0, "sale_date": "5 Jul 2018", "market_value": 306400.0, "beds": 3.0, "bath": 1.5, "sqft": 1150.0, "year_built": "1974", "acres": 0.26}, {"parcel_id": "48098", "address": "336 KINGVIEW DR", "lat": "36.215351", "lon": "-86.835933", "sale_price": 50000.0, "sale_date": "17 Oct 2014", "market_value": 194800.0, "beds": 3.0, "bath": 1.0, "sqft": 1107.0, "year_built": "1976", "acres": 0.27}, {"parcel_id": "51277", "address": "2712 JONES AVE", "lat": "36.215011", "lon": "-86.757531", "sale_price": -1.0, "sale_date": "", "market_value": 365700.0, "beds": 3.0, "bath": 1.0, "sqft": 904.0, "year_built": "1980", "acres": 0.99}, {"parcel_id": "51278", "address": "2714 JONES AVE", "lat": "36.215169", "lon": "-86.757414", "sale_price": -1.0, "sale_date": "", "market_value": 667600.0, "beds": 6.0, "bath": 3.0, "sqft": 2520.0, "year_built": "1975", "acres": 1.01}, {"parcel_id": "51392", "address": "2822 JONES AVE", "lat": "36.218526", "lon": "-86.755774", "sale_price": 82900.0, "sale_date": "8 May 2015", "market_value": 273600.0, "beds": 2.0, "bath": 1.0, "sqft": 768.0, "year_built": "1955", "acres": 0.22}, {"parcel_id": "51957", "address": "2900 JONES AVE", "lat": "36.21967", "lon": "-86.755661", "sale_price": 59000.0, "sale_date": "18 Sep 2013", "market_value": 234400.0, "beds": 3.0, "bath": 1.0, "sqft": 1171.3, "year_built": "1958", "acres": 0.22}, {"parcel_id": "54411", "address": "907 MAPLEWOOD PL", "lat": "36.227771", "lon": "-86.728848", "sale_price": 80000.0, "sale_date": "25 Sep 2015", "market_value": 348600.0, "beds": 2.0, "bath": 1.0, "sqft": 1051.0, "year_built": "1950", "acres": 0.17}, {"parcel_id": "66886", "address": "1213 W TRINITY LN", "lat": "36.204588", "lon": "-86.818465", "sale_price": 105000.0, "sale_date": "21 Jun 2018", "market_value": 302200.0, "beds": 2.0, "bath": 1.0, "sqft": 1064.0, "year_built": "1945", "acres": 0.43}, {"parcel_id": "67263", "address": "2627 OLD BUENA VISTA RD", "lat": "36.207646", "lon": "-86.813422", "sale_price": 105000.0, "sale_date": "19 Nov 2018", "market_value": 207100.0, "beds": 2.0, "bath": 1.0, "sqft": 651.0, "year_built": "1955", "acres": 0.52}, {"parcel_id": "68495", "address": "2610 JONES AVE", "lat": "36.212837", "lon": "-86.757015", "sale_price": -1.0, "sale_date": "", "market_value": 290900.0, "beds": 2.0, "bath": 1.0, "sqft": 897.0, "year_built": "1950", "acres": 0.28}, {"parcel_id": "70341", "address": "424 E TRINITY LN", "lat": "36.204919", "lon": "-86.759031", "sale_price": -1.0, "sale_date": "", "market_value": 325200.0, "beds": 3.0, "bath": 1.0, "sqft": 1324.0, "year_built": "1939", "acres": 0.2}, {"parcel_id": "70438", "address": "426 E TRINITY LN", "lat": "36.204907", "lon": "-86.758864", "sale_price": 350000.0, "sale_date": "8 Jan 2025", "market_value": 352900.0, "beds": 2.0, "bath": 1.0, "sqft": 1012.0, "year_built": "1947", "acres": 0.22}, {"parcel_id": "70691", "address": "303 EDWIN ST", "lat": "36.204841", "lon": "-86.765279", "sale_price": 143000.0, "sale_date": "20 Apr 2018", "market_value": 400200.0, "beds": 3.0, "bath": 2.0, "sqft": 1128.0, "year_built": "1970", "acres": 0.18}, {"parcel_id": "70797", "address": "320 EDWIN ST", "lat": "36.204155", "lon": "-86.763725", "sale_price": null, "sale_date": "", "market_value": null, "beds": null, "bath": 0.0, "sqft": null, "year_built": "", "acres": null}, {"parcel_id": "70798", "address": "330 EDWIN ST", "lat": "36.204141", "lon": "-86.763472", "sale_price": -1.0, "sale_date": "", "market_value": 380700.0, "beds": 3.0, "bath": 2.0, "sqft": 1064.0, "year_built": "1988", "acres": 0.19}, {"parcel_id": "71347", "address": "300 MARSHALL ST", "lat": "36.201326", "lon": "-86.765812", "sale_price": -1.0, "sale_date": "", "market_value": 451100.0, "beds": 3.0, "bath": 2.0, "sqft": 1421.0, "year_built": "1980", "acres": 0.13}, {"parcel_id": "71752", "address": "2008 JONES AVE", "lat": "36.20726", "lon": "-86.757864", "sale_price": -1.0, "sale_date": "", "market_value": 352700.0, "beds": 2.0, "bath": 1.0, "sqft": 915.0, "year_built": "1985", "acres": 0.22}, {"parcel_id": "72818", "address": "912 CHICKASAW AVE", "lat": "36.199813", "lon": "-86.753271", "sale_price": -1.0, "sale_date": "", "market_value": 352800.0, "beds": 2.0, "bath": 1.0, "sqft": 916.0, "year_built": "1947", "acres": 0.22}, {"parcel_id": "73169", "address": "502 DOUGLAS AVE", "lat": "36.193843", "lon": "-86.761058", "sale_price": -1.0, "sale_date": "", "market_value": 417900.0, "beds": 3.0, "bath": 1.0, "sqft": 1202.0, "year_built": "1960", "acres": 0.09}, {"parcel_id": "76454", "address": "2151 ROCK CITY ST", "lat": "36.19911", "lon": "-86.727597", "sale_price": -1.0, "sale_date": "", "market_value": 404100.0, "beds": 2.0, "bath": 1.0, "sqft": 1023.0, "year_built": "1986", "acres": 0.26}, {"parcel_id": "76535", "address": "2614 NELDIA CT", "lat": "36.1979", "lon": "-86.737311", "sale_price": 162754.0, "sale_date": "22 Jun 2018", "market_value": 347300.0, "beds": 3.0, "bath": 1.0, "sqft": 814.0, "year_built": "1965", "acres": 0.12}, {"parcel_id": "76538", "address": "2617 NELDIA CT", "lat": "36.198385", "lon": "-86.736643", "sale_price": -1.0, "sale_date": "", "market_value": 386100.0, "beds": 3.0, "bath": 1.0, "sqft": 814.0, "year_built": "1953", "acres": 0.55}, {"parcel_id": "76657", "address": "1312 LITTON AVE", "lat": "36.201516", "lon": "-86.733448", "sale_price": 55000.0, "sale_date": "14 Jun 2013", "market_value": 404200.0, "beds": 2.0, "bath": 1.0, "sqft": 860.0, "year_built": "1950", "acres": 0.17}, {"parcel_id": "88060", "address": "3243 LEAWOOD DR", "lat": "36.182655", "lon": "-86.835272", "sale_price": -1.0, "sale_date": "", "market_value": 260300.0, "beds": 3.0, "bath": 1.0, "sqft": 1188.0, "year_built": "1971", "acres": 0.19}, {"parcel_id": "89386", "address": "4929 SHADOWLAWN DR", "lat": "36.206674", "lon": "-86.585197", "sale_price": -1.0, "sale_date": "", "market_value": 284800.0, "beds": 3.0, "bath": 1.5, "sqft": 1365.0, "year_built": "1977", "acres": 0.28}, {"parcel_id": "89985", "address": "2311 23RD AVE N", "lat": "36.188598", "lon": "-86.814598", "sale_price": 284900.0, "sale_date": "31 Mar 2023", "market_value": 269000.0, "beds": 2.0, "bath": 1.0, "sqft": 748.0, "year_built": "2000", "acres": 0.17}, {"parcel_id": "91682", "address": "1712 23RD AVE N", "lat": "36.177663", "lon": "-86.81356", "sale_price": 160000.0, "sale_date": "12 Mar 2026", "market_value": 261200.0, "beds": 3.0, "bath": 1.0, "sqft": 756.0, "year_built": "1951", "acres": 0.18}, {"parcel_id": "91683", "address": "1710 23RD AVE N", "lat": "36.177529", "lon": "-86.813532", "sale_price": 180000.0, "sale_date": "12 Mar 2026", "market_value": 292800.0, "beds": 3.0, "bath": 1.0, "sqft": 1363.0, "year_built": "1950", "acres": 0.18}, {"parcel_id": "92498", "address": "834 CLAY ST", "lat": "36.185213", "lon": "-86.802884", "sale_price": 35000.0, "sale_date": "16 Sep 2014", "market_value": 71700.0, "beds": 3.0, "bath": 1.0, "sqft": 848.0, "year_built": "1930", "acres": 0.06}, {"parcel_id": "92663", "address": "2513 BUCHANAN ST", "lat": "36.180143", "lon": "-86.819039", "sale_price": 214900.0, "sale_date": "30 May 2025", "market_value": 293100.0, "beds": 3.0, "bath": 1.0, "sqft": 1501.0, "year_built": "1930", "acres": 0.17}]}