{"cluster_id": 1453, "name": "FENNER SPELMAN LP", "entity_count": 1, "parcel_count": 8, "total_market_value": 11163700, "total_acres": 2.2, "owner_names": ["FENNER SPELMAN LP"], "registered_agents": [], "principal_offices": [], "primary_sos_status": "", "primary_foreign_state": "", "brand": "", "opencorporates": "https://opencorporates.com/companies?q=FENNER+SPELMAN+LP&utf8=%E2%9C%93", "primary_type": "", "portfolio": {"n_parcels_with_acs": 8, "median_income": 76918, "median_home_value": 514588, "pct_renter": 59, "pct_poverty": null, "pct_vacant": 16, "pct_black": 15, "pct_white": 66, "pct_hispanic": 14, "pct_asian": 2}, "related": [], "parcels": [{"parcel_id": "101468", "address": "718 GALLATIN AVE", "lat": "36.185006", "lon": "-86.748082", "sale_price": -1.0, "sale_date": "", "market_value": 1068800.0, "beds": 0.0, "bath": 0.0, "sqft": 1482.0, "year_built": "1985", "acres": 0.26}, {"parcel_id": "101469", "address": "1051 A CHICAMAUGA AVE", "lat": "36.185008", "lon": "-86.748297"}, {"parcel_id": "189283", "address": "2215 NOLENSVILLE PIKE", "lat": "36.124871", "lon": "-86.752618"}, {"parcel_id": "189284", "address": "2217 NOLENSVILLE PIKE", "lat": "36.12474", "lon": "-86.75257"}, {"parcel_id": "197597", "address": "1156 MURFREESBORO PIKE", "lat": "36.124163", "lon": "-86.707212", "sale_price": -1.0, "sale_date": "", "market_value": 274000.0, "beds": 0.0, "bath": 0.0, "sqft": 1440.0, "year_built": "1950", "acres": 0.54}, {"parcel_id": "207356", "address": "5310 HARDING PIKE", "lat": "36.101405", "lon": "-86.870981", "sale_price": -1.0, "sale_date": "", "market_value": 1170400.0, "beds": 0.0, "bath": 0.0, "sqft": 1120.0, "year_built": "1990", "acres": 0.42}, {"parcel_id": "210829", "address": "4014 HILLSBORO PIKE", "lat": "36.103184", "lon": "-86.815458", "sale_price": -1.0, "sale_date": "", "market_value": 8495400.0, "beds": 0.0, "bath": 0.0, "sqft": 4183.0, "year_built": "1980", "acres": 0.8}, {"parcel_id": "28460", "address": "403 BRIDGEWAY AVE", "lat": "36.269216", "lon": "-86.666349", "sale_price": -1.0, "sale_date": "", "market_value": 155100.0, "beds": 0.0, "bath": 0.0, "sqft": 1395.0, "year_built": "1963", "acres": 0.16}]}