{"cluster_id": 146, "name": "BARS HOOPER HOLDINGS LLC", "entity_count": 9, "parcel_count": 59, "total_market_value": 1894700, "total_acres": 0.0, "owner_names": ["BARS HOOPER HOLDINGS LLC", "O I C HOMES AT 1321 1323 OTAY STREET", "O I C HOMES AT 14TH AVENUIE NORTH CAS", "O I C HOMES AT 4108 MEDIA STREET", "O I C HOMES AT 504 NICHOL RD", "O I C HOMES AT 516 518 WAYCROSS DRIVE", "O I C HOMES AT 816 HORNER AVENUE AMENDE", "O I C HOMES AT RIVER ROUGE SUNLINER", "O I C UNIT HOMES AT 129 43RD AVENUE N"], "registered_agents": [], "principal_offices": [], "primary_sos_status": "", "primary_foreign_state": "", "brand": "", "opencorporates": "https://opencorporates.com/companies?q=BARS+HOOPER+HOLDINGS+LLC&utf8=%E2%9C%93", "primary_type": "", "portfolio": {"n_parcels_with_acs": 24, "median_income": 89313, "median_home_value": 493565, "pct_renter": 39, "pct_poverty": null, "pct_vacant": 12, "pct_black": 18, "pct_white": 70, "pct_hispanic": 8, "pct_asian": 2}, "related": [{"owner": "O I C HOMES AT 4108 MEDIA STREET", "parcels": 1, "via": "mailing address"}, {"owner": "O I C HOMES AT 504 NICHOL RD", "parcels": 1, "via": "mailing address"}, {"owner": "O I C UNIT HOMES AT 129 43RD AVENUE N", "parcels": 1, "via": "mailing address"}, {"owner": "O I C HOMES AT 516 518 WAYCROSS DRIVE", "parcels": 1, "via": "mailing address"}, {"owner": "O I C HOMES AT 816 HORNER AVENUE AMENDE", "parcels": 1, "via": "mailing address"}, {"owner": "O I C HOMES AT RIVER ROUGE SUNLINER", "parcels": 1, "via": "mailing address"}, {"owner": "O I C HOMES AT 1321 1323 OTAY STREET", "parcels": 1, "via": "mailing address"}, {"owner": "O I C HOMES AT 14TH AVENUIE NORTH CAS", "parcels": 1, "via": "mailing address"}], "parcels": [{"parcel_id": "115786", "address": "", "lat": "", "lon": ""}, {"parcel_id": "118649", "address": "", "lat": "", "lon": ""}, {"parcel_id": "118894", "address": "", "lat": "", "lon": ""}, {"parcel_id": "119834", "address": "", "lat": "", "lon": ""}, {"parcel_id": "122591", "address": "", "lat": "", "lon": ""}, {"parcel_id": "147058", "address": "", "lat": "", "lon": ""}, {"parcel_id": "147775", "address": "", "lat": "", "lon": ""}, {"parcel_id": "148568", "address": "", "lat": "", "lon": ""}, {"parcel_id": "148771", "address": "", "lat": "", "lon": ""}, {"parcel_id": "158066", "address": "", "lat": "", "lon": ""}, {"parcel_id": "162940", "address": "", "lat": "", "lon": ""}, {"parcel_id": "166463", "address": "", "lat": "", "lon": ""}, {"parcel_id": "166707", "address": "", "lat": "", "lon": ""}, {"parcel_id": "168480", "address": "", "lat": "", "lon": ""}, {"parcel_id": "185337", "address": "", "lat": "", "lon": ""}, {"parcel_id": "186778", "address": "", "lat": "", "lon": ""}, {"parcel_id": "245806", "address": "", "lat": "", "lon": ""}, {"parcel_id": "26000", "address": "", "lat": "", "lon": ""}, {"parcel_id": "27162", "address": "", "lat": "", "lon": ""}, {"parcel_id": "27263", "address": "", "lat": "", "lon": ""}, {"parcel_id": "29608", "address": "", "lat": "", "lon": ""}, {"parcel_id": "29735", "address": "", "lat": "", "lon": ""}, {"parcel_id": "29988", "address": "", "lat": "", "lon": ""}, {"parcel_id": "31952", "address": "", "lat": "", "lon": ""}, {"parcel_id": "41669", "address": "", "lat": "", "lon": ""}, {"parcel_id": "41703", "address": "", "lat": "", "lon": ""}, {"parcel_id": "42714", "address": "", "lat": "", "lon": ""}, {"parcel_id": "42718", "address": "", "lat": "", "lon": ""}, {"parcel_id": "442156", "address": "504C NICHOL RD", "lat": "36.15407", "lon": "-86.862856"}, {"parcel_id": "443138", "address": "4111B WYOMING AVE", "lat": "36.145471", "lon": "-86.835754"}, {"parcel_id": "447908", "address": "91B 44TH AVE N", "lat": "36.139901", "lon": "-86.838697"}, {"parcel_id": "453398", "address": "518B WAYCROSS DR", "lat": "36.126479", "lon": "-86.761554"}, {"parcel_id": "454785", "address": "816C HORNER AVE", "lat": "36.122481", "lon": "-86.77777"}, {"parcel_id": "455486", "address": "1916 HUTTON DR", "lat": "36.131521", "lon": "-86.750139", "sale_price": -1.0, "sale_date": "", "market_value": 284600.0, "beds": 2.0, "bath": 1.0, "sqft": 1243.0, "year_built": "1980", "acres": null}, {"parcel_id": "456315", "address": "", "lat": "", "lon": ""}, {"parcel_id": "459778", "address": "1309B CASS ST", "lat": "36.185225", "lon": "-86.808956"}, {"parcel_id": "461252", "address": "1323C OTAY ST", "lat": "36.199207", "lon": "-86.732748"}, {"parcel_id": "461262", "address": "1413 HADLEY AVE", "lat": "36.255729", "lon": "-86.647507", "sale_price": -1.0, "sale_date": "", "market_value": 431300.0, "beds": 3.0, "bath": 3.0, "sqft": 2257.0, "year_built": "1975", "acres": null}, {"parcel_id": "461349", "address": "462B SUNLINER DR", "lat": "36.150791", "lon": "-86.886195"}, {"parcel_id": "461999", "address": "1804A OVERTON ST", "lat": "36.251758", "lon": "-86.644466", "sale_price": -1.0, "sale_date": "", "market_value": 307200.0, "beds": 3.0, "bath": 2.0, "sqft": 994.0, "year_built": "1980", "acres": null}, {"parcel_id": "465236", "address": "126 39TH AVE N", "lat": "36.142587", "lon": "-86.831073", "sale_price": -1.0, "sale_date": "", "market_value": 550000.0, "beds": 4.0, "bath": 2.0, "sqft": 0.0, "year_built": "1990", "acres": null}, {"parcel_id": "465320", "address": "730A 29TH AVE N", "lat": "36.160538", "lon": "-86.819944", "sale_price": -1.0, "sale_date": "", "market_value": 321600.0, "beds": 2.0, "bath": 2.0, "sqft": 1380.0, "year_built": "1980", "acres": null}, {"parcel_id": "465321", "address": "730B 29TH AVE N", "lat": "36.160566", "lon": "-86.819773"}, {"parcel_id": "465717", "address": "111B NEWELL AVE", "lat": "36.270949", "lon": "-86.665021"}, {"parcel_id": "467061", "address": "1311 DEBOW ST", "lat": "36.256599", "lon": "-86.648956"}, {"parcel_id": "467790", "address": "2212 CLARKSVILLE PIKE", "lat": "36.184099", "lon": "-86.814001"}, {"parcel_id": "467791", "address": "2210 CLARKSVILLE PIKE", "lat": "36.184076", "lon": "-86.81394"}, {"parcel_id": "467792", "address": "2208 CLARKSVILLE PIKE", "lat": "36.184038", "lon": "-86.81388"}, {"parcel_id": "468490", "address": "207A ENSLEY AVE", "lat": "36.271625", "lon": "-86.665632"}, {"parcel_id": "469242", "address": "1311A JONES AVE", "lat": "36.195003", "lon": "-86.759014"}, {"parcel_id": "472096", "address": "224 MYATT DR", "lat": "36.26843", "lon": "-86.690413"}, {"parcel_id": "474534", "address": "5708 MAXON AVE", "lat": "36.152892", "lon": "-86.860739"}, {"parcel_id": "474535", "address": "5706 MAXON AVE", "lat": "36.152852", "lon": "-86.860635"}, {"parcel_id": "474861", "address": "", "lat": "", "lon": ""}, {"parcel_id": "53847", "address": "", "lat": "", "lon": ""}, {"parcel_id": "72448", "address": "", "lat": "", "lon": ""}, {"parcel_id": "75917", "address": "", "lat": "", "lon": ""}, {"parcel_id": "89824", "address": "", "lat": "", "lon": ""}, {"parcel_id": "90800", "address": "", "lat": "", "lon": ""}]}