{"cluster_id": 1460, "name": "FTN INVESTMENTS LLC", "entity_count": 2, "parcel_count": 8, "total_market_value": 877500, "total_acres": 1.8, "owner_names": ["FTN INVESTMENTS LLC", "O I C HOMES AT 4420 PROVIDENCE HEIGHTS"], "registered_agents": [], "principal_offices": [], "primary_sos_status": "", "primary_foreign_state": "", "brand": "", "opencorporates": "https://opencorporates.com/companies?q=FTN+INVESTMENTS+LLC&utf8=%E2%9C%93", "primary_type": "", "portfolio": {"n_parcels_with_acs": 7, "median_income": 67518, "median_home_value": 416971, "pct_renter": 68, "pct_poverty": null, "pct_vacant": 14, "pct_black": 23, "pct_white": 43, "pct_hispanic": 34, "pct_asian": 2}, "related": [{"owner": "O I C HOMES AT 4420 PROVIDENCE HEIGHTS", "parcels": 1, "via": "mailing address"}], "parcels": [{"parcel_id": "133980", "address": "620 S 12TH ST", "lat": "36.167888", "lon": "-86.750223", "sale_price": null, "sale_date": "", "market_value": null, "beds": null, "bath": 0.0, "sqft": null, "year_built": "", "acres": null}, {"parcel_id": "23112", "address": "315 PORT DR", "lat": "36.25832", "lon": "-86.741904", "sale_price": 255000.0, "sale_date": "21 Nov 2025", "market_value": 301600.0, "beds": 3.0, "bath": 1.5, "sqft": 1382.0, "year_built": "1959", "acres": 0.97}, {"parcel_id": "243140", "address": "", "lat": "", "lon": ""}, {"parcel_id": "475515", "address": "903B DELMAS AVE", "lat": "36.201404", "lon": "-86.746828"}, {"parcel_id": "475589", "address": "4420A PROVIDENCE HTS", "lat": "36.073373", "lon": "-86.726992"}, {"parcel_id": "475590", "address": "4420B PROVIDENCE HTS", "lat": "36.073377", "lon": "-86.727067"}, {"parcel_id": "475591", "address": "4420 C PROVIDENCE HTS", "lat": "36.073381", "lon": "-86.727031"}, {"parcel_id": "67379", "address": "1011 W TRINITY LN", "lat": "36.206413", "lon": "-86.812882", "sale_price": 135000.0, "sale_date": "20 Dec 2018", "market_value": 575900.0, "beds": 3.0, "bath": 2.0, "sqft": 1134.0, "year_built": "2002", "acres": 0.83}]}