{"cluster_id": 1463, "name": "GRAND BEACH TRUST", "entity_count": 5, "parcel_count": 8, "total_market_value": 25120270, "total_acres": 72.8, "owner_names": ["GAUDIO JUDY M ITEM VIII TESTAMENTARY QTIP TRUST", "GRAND BEACH TRUST", "GRAND BEACH TRUST THE", "GREEN GATE LLC", "PRYOR TO THIS LLC"], "registered_agents": [], "principal_offices": [], "primary_sos_status": "", "primary_foreign_state": "", "brand": "", "opencorporates": "https://opencorporates.com/companies?q=GRAND+BEACH+TRUST&utf8=%E2%9C%93", "primary_type": "", "portfolio": {"n_parcels_with_acs": 6, "median_income": 163408, "median_home_value": 1128967, "pct_renter": 25, "pct_poverty": null, "pct_vacant": 11, "pct_black": 6, "pct_white": 84, "pct_hispanic": 10, "pct_asian": 3}, "related": [{"owner": "GREEN GATE LLC", "parcels": 1, "via": "mailing address"}, {"owner": "GRAND BEACH TRUST THE", "parcels": 1, "via": "mailing address"}, {"owner": "PRYOR TO THIS LLC", "parcels": 1, "via": "mailing address"}, {"owner": "GAUDIO JUDY M ITEM VIII TESTAMENTARY QTIP TRUST", "parcels": 1, "via": "mailing address"}], "parcels": [{"parcel_id": "130996", "address": "521 REP JOHN LEWIS WAY S", "lat": "36.154333", "lon": "-86.774911", "sale_price": 2750000.0, "sale_date": "5 Dec 2017", "market_value": 4254700.0, "beds": 0.0, "bath": 0.0, "sqft": 4683.0, "year_built": "2010", "acres": 0.25}, {"parcel_id": "209151", "address": "4400 ESTES RD", "lat": "36.094297", "lon": "-86.839035", "sale_price": 930000.0, "sale_date": "7 May 2018", "market_value": 1544100.0, "beds": 3.0, "bath": 3.5, "sqft": 3604.0, "year_built": "1975", "acres": 0.87}, {"parcel_id": "238522", "address": "4326 CHICKERING LN", "lat": "36.059811", "lon": "-86.864979", "sale_price": -1.0, "sale_date": "", "market_value": 6758800.0, "beds": 4.0, "bath": 6.0, "sqft": 9944.5, "year_built": "2000", "acres": 4.54}, {"parcel_id": "262462", "address": "6242 HILLSBORO PIKE", "lat": "36.051995", "lon": "-86.854467", "sale_price": -1.0, "sale_date": "", "market_value": 9347070.0, "beds": 6.0, "bath": 7.5, "sqft": 11070.0, "year_built": "2005", "acres": 49.0}, {"parcel_id": "263899", "address": "6238 HILLSBORO PIKE", "lat": "36.054576", "lon": "-86.855879", "sale_price": 550000.0, "sale_date": "28 Feb 2014", "market_value": 1813900.0, "beds": 4.0, "bath": 4.0, "sqft": 4570.0, "year_built": "1990", "acres": 2.2}, {"parcel_id": "89315", "address": "", "lat": "", "lon": ""}, {"parcel_id": "89316", "address": "", "lat": "", "lon": ""}, {"parcel_id": "89413", "address": "7847 RIVER ROAD PIKE", "lat": "36.173854", "lon": "-86.944609", "sale_price": -1.0, "sale_date": "", "market_value": 1401700.0, "beds": 3.0, "bath": 2.5, "sqft": 2497.625, "year_built": "2019", "acres": 15.96}]}