{"cluster_id": 1476, "name": "KNIGHT HAFFORD REVOCABLE LIVING TRUST", "entity_count": 3, "parcel_count": 8, "total_market_value": 3308400, "total_acres": 3.4, "owner_names": ["HAFFORD KNIGHT REVOCABLE LIVING TRUST THE", "KNIGHT HAFFORD REVOCABLE LIVING TRUST", "KNIGHT HAFFORD REVOCABLE LIVING TRUST THE"], "registered_agents": [], "principal_offices": [], "primary_sos_status": "", "primary_foreign_state": "", "brand": "", "opencorporates": "https://opencorporates.com/companies?q=KNIGHT+HAFFORD+REVOCABLE+LIVING+TRUST&utf8=%E2%9C%93", "primary_type": "", "portfolio": {"n_parcels_with_acs": 8, "median_income": 91061, "median_home_value": 435788, "pct_renter": 40, "pct_poverty": null, "pct_vacant": 13, "pct_black": 24, "pct_white": 58, "pct_hispanic": 15, "pct_asian": 1}, "related": [{"owner": "KNIGHT HAFFORD REVOCABLE LIVING TRUST THE", "parcels": 3, "via": "mailing address"}, {"owner": "HAFFORD KNIGHT REVOCABLE LIVING TRUST THE", "parcels": 1, "via": "mailing address"}], "parcels": [{"parcel_id": "109684", "address": "6029 PANAMA DR", "lat": "36.189996", "lon": "-86.61988", "sale_price": 166000.0, "sale_date": "26 Oct 2017", "market_value": 218700.0, "beds": 2.0, "bath": 1.0, "sqft": 967.0, "year_built": "1962", "acres": 0.18}, {"parcel_id": "15819", "address": "311 GREEN ACRES DR", "lat": "36.282955", "lon": "-86.732047", "sale_price": 207500.0, "sale_date": "31 Oct 2017", "market_value": 333500.0, "beds": 3.0, "bath": 2.0, "sqft": 1536.0, "year_built": "1965", "acres": 0.91}, {"parcel_id": "177287", "address": "516 GUN CLUB RD", "lat": "36.112684", "lon": "-86.879802", "sale_price": 0.0, "sale_date": "23 Mar 2017", "market_value": 1381400.0, "beds": 3.0, "bath": 3.0, "sqft": 3200.0, "year_built": "1990", "acres": 0.95}, {"parcel_id": "23150", "address": "301 LINDA LN", "lat": "36.260496", "lon": "-86.717381", "sale_price": 222000.0, "sale_date": "13 Oct 2017", "market_value": 418000.0, "beds": 3.0, "bath": 2.0, "sqft": 1275.0, "year_built": "2000", "acres": 0.66}, {"parcel_id": "29730", "address": "204 ENSLEY AVE", "lat": "36.271179", "lon": "-86.665338", "sale_price": -1.0, "sale_date": "", "market_value": 379100.0, "beds": 2.0, "bath": 2.0, "sqft": 1419.0, "year_built": "1985", "acres": 0.17}, {"parcel_id": "29731", "address": "208 ENSLEY AVE", "lat": "36.271278", "lon": "-86.665219"}, {"parcel_id": "49005", "address": "3024 VISTAVALLEY CT", "lat": "36.22659", "lon": "-86.831951", "sale_price": 170000.0, "sale_date": "13 Oct 2017", "market_value": 221100.0, "beds": 3.0, "bath": 1.0, "sqft": 1100.0, "year_built": "1974", "acres": 0.22}, {"parcel_id": "83661", "address": "909 OAK VALE", "lat": "36.211999", "lon": "-86.628708", "sale_price": 225100.0, "sale_date": "17 Nov 2017", "market_value": 356600.0, "beds": 3.0, "bath": 2.0, "sqft": 1387.0, "year_built": "2010", "acres": 0.34}]}