{"cluster_id": 1482, "name": "JACKSON GROVE APARTMENTS OWNER LLC", "entity_count": 6, "parcel_count": 8, "total_market_value": 212300700, "total_acres": 81.1, "owner_names": ["HICKORY CREEK APARTMENTS OWNER LLC", "JACKSON GROVE APARTMENTS OWNER LLC", "LINCOYA BAY APARTMENTS OWNER LLC", "MALLARDS LANDING APARTMENTS OWNER LLC", "SHEFFIELD HEIGHTS APARTMENTS OWNER LLC", "STONEBROOK APARTMENTS NASHVILLE OWNER LLC"], "registered_agents": [], "principal_offices": [], "primary_sos_status": "", "primary_foreign_state": "", "brand": "", "opencorporates": "https://opencorporates.com/companies?q=JACKSON+GROVE+APARTMENTS+OWNER+LLC&utf8=%E2%9C%93", "primary_type": "", "portfolio": {"n_parcels_with_acs": 8, "median_income": 57688, "median_home_value": 270543, "pct_renter": 75, "pct_poverty": null, "pct_vacant": 13, "pct_black": 24, "pct_white": 40, "pct_hispanic": 33, "pct_asian": 4}, "related": [{"owner": "MALLARDS LANDING APARTMENTS OWNER LLC", "parcels": 2, "via": "mailing address"}, {"owner": "SHEFFIELD HEIGHTS APARTMENTS OWNER LLC", "parcels": 1, "via": "mailing address"}, {"owner": "STONEBROOK APARTMENTS NASHVILLE OWNER LLC", "parcels": 1, "via": "mailing address"}, {"owner": "HICKORY CREEK APARTMENTS OWNER LLC", "parcels": 1, "via": "mailing address"}, {"owner": "LINCOYA BAY APARTMENTS OWNER LLC", "parcels": 1, "via": "mailing address"}], "parcels": [{"parcel_id": "109912", "address": "0 LEBANON PIKE", "lat": "36.188567", "lon": "-86.62605"}, {"parcel_id": "109998", "address": "3417 LEBANON PIKE", "lat": "36.188047", "lon": "-86.627392", "sale_price": -1.0, "sale_date": "", "market_value": 33862900.0, "beds": 0.0, "bath": 0.0, "sqft": 0.0, "year_built": "2000", "acres": 8.28}, {"parcel_id": "136572", "address": "2509 ELM HILL PIKE", "lat": "36.150715", "lon": "-86.68143", "sale_price": 25050000.0, "sale_date": "12 Sep 2018", "market_value": 33720300.0, "beds": 0.0, "bath": 0.0, "sqft": 180722.0, "year_built": "2005", "acres": 15.65}, {"parcel_id": "173053", "address": "3000 LINCOYA BAY DR", "lat": "36.144232", "lon": "-86.622774", "sale_price": 22800000.0, "sale_date": "12 Sep 2018", "market_value": 28570000.0, "beds": 0.0, "bath": 0.0, "sqft": 0.0, "year_built": "1980", "acres": 12.89}, {"parcel_id": "197594", "address": "1150 VULTEE BLVD", "lat": "36.125119", "lon": "-86.705472", "sale_price": 13550000.0, "sale_date": "27 Feb 2015", "market_value": 28780000.0, "beds": null, "bath": 0.0, "sqft": 0.0, "year_built": "2023", "acres": 9.25}, {"parcel_id": "245777", "address": "4501 PACKARD DR", "lat": "36.065331", "lon": "-86.688053", "sale_price": 11650000.0, "sale_date": "15 Jul 2015", "market_value": 36907500.0, "beds": 0.0, "bath": 0.0, "sqft": 0.0, "year_built": "2005", "acres": 14.09}, {"parcel_id": "246002", "address": "0 APACHE TRL", "lat": "36.066915", "lon": "-86.687815"}, {"parcel_id": "275090", "address": "121 HICKORY TRACE DR", "lat": "36.046987", "lon": "-86.718122", "sale_price": 39500000.0, "sale_date": "30 May 2019", "market_value": 50460000.0, "beds": 0.0, "bath": 0.0, "sqft": 0.0, "year_built": "1995", "acres": 20.95}]}