{"cluster_id": 1508, "name": "LAO LAO LLC", "entity_count": 2, "parcel_count": 8, "total_market_value": 3022600, "total_acres": 2.9, "owner_names": ["LAO LAO LLC", "LAO RUCKER FAMILY TRUST THE"], "registered_agents": [], "principal_offices": [], "primary_sos_status": "", "primary_foreign_state": "", "brand": "", "opencorporates": "https://opencorporates.com/companies?q=LAO+LAO+LLC&utf8=%E2%9C%93", "primary_type": "", "portfolio": {"n_parcels_with_acs": 8, "median_income": 85559, "median_home_value": 355375, "pct_renter": 35, "pct_poverty": null, "pct_vacant": 7, "pct_black": 25, "pct_white": 46, "pct_hispanic": 22, "pct_asian": 2}, "related": [{"owner": "LAO RUCKER FAMILY TRUST THE", "parcels": 1, "via": "mailing address"}], "parcels": [{"parcel_id": "220946", "address": "3977 ATKINS DR", "lat": "36.088494", "lon": "-86.708682", "sale_price": 330000.0, "sale_date": "8 Jul 2021", "market_value": 381700.0, "beds": 3.0, "bath": 3.0, "sqft": 2114.0, "year_built": "1989", "acres": 0.23}, {"parcel_id": "221109", "address": "3309 EZELL RD", "lat": "36.082509", "lon": "-86.689657", "sale_price": -1.0, "sale_date": "", "market_value": 290100.0, "beds": 3.0, "bath": 2.0, "sqft": 1423.36, "year_built": "1940", "acres": 0.73}, {"parcel_id": "232454", "address": "210 OLD HICKORY BLVD APT 2", "lat": "36.077882", "lon": "-86.919304", "sale_price": -1.0, "sale_date": "", "market_value": 242800.0, "beds": 2.0, "bath": 1.5, "sqft": 1116.0, "year_built": "1969", "acres": 0.0}, {"parcel_id": "251474", "address": "276 SAILBOAT DR", "lat": "36.080255", "lon": "-86.632753", "sale_price": -1.0, "sale_date": "", "market_value": 308000.0, "beds": 4.0, "bath": 1.5, "sqft": 1750.0, "year_built": "1968", "acres": 0.26}, {"parcel_id": "261437", "address": "3141 STONEY BROOK CIR", "lat": "36.072066", "lon": "-86.607834", "sale_price": 225000.0, "sale_date": "20 Jan 2021", "market_value": 265000.0, "beds": 3.0, "bath": 2.0, "sqft": 1257.0, "year_built": "1979", "acres": 0.24}, {"parcel_id": "272472", "address": "328 OCALA DR", "lat": "36.052099", "lon": "-86.704902", "sale_price": -1.0, "sale_date": "", "market_value": 315600.0, "beds": 3.0, "bath": 1.5, "sqft": 1482.0, "year_built": "1974", "acres": 0.32}, {"parcel_id": "290981", "address": "5724 CLOVERLAND PL", "lat": "36.029851", "lon": "-86.764992", "sale_price": 516000.0, "sale_date": "25 Oct 2021", "market_value": 850400.0, "beds": 3.0, "bath": 3.0, "sqft": 2968.0, "year_built": "1974", "acres": 1.14}, {"parcel_id": "310108", "address": "8300 OAK KNOLL DR", "lat": "36.002356", "lon": "-86.69274", "sale_price": 205000.0, "sale_date": "24 Jul 2017", "market_value": 369000.0, "beds": 3.0, "bath": 2.5, "sqft": 1606.0, "year_built": "2006", "acres": null}]}