{"cluster_id": 1510, "name": "LEQUIRE ALAN ANDREE LIVING TRUST", "entity_count": 1, "parcel_count": 8, "total_market_value": 5183959, "total_acres": 85.9, "owner_names": ["LEQUIRE ALAN ANDREE LIVING TRUST"], "registered_agents": [], "principal_offices": [], "primary_sos_status": "", "primary_foreign_state": "", "brand": "", "opencorporates": "https://opencorporates.com/companies?q=LEQUIRE+ALAN+ANDREE+LIVING+TRUST&utf8=%E2%9C%93", "primary_type": "", "portfolio": {"n_parcels_with_acs": 8, "median_income": 77605, "median_home_value": 527125, "pct_renter": 54, "pct_poverty": null, "pct_vacant": 12, "pct_black": 13, "pct_white": 69, "pct_hispanic": 9, "pct_asian": 8}, "related": [], "parcels": [{"parcel_id": "114891", "address": "6200 LAREDO AVE", "lat": "36.162241", "lon": "-86.871542", "sale_price": 109000.0, "sale_date": "29 Apr 2014", "market_value": 367700.0, "beds": 3.0, "bath": 1.0, "sqft": 912.0, "year_built": "1959", "acres": 0.17}, {"parcel_id": "122313", "address": "4304 CHARLOTTE AVE", "lat": "36.152621", "lon": "-86.838931", "sale_price": -1.0, "sale_date": "", "market_value": 2698000.0, "beds": 0.0, "bath": 0.0, "sqft": 12786.0, "year_built": "2000", "acres": 0.26}, {"parcel_id": "122401", "address": "4302 CHARLOTTE AVE", "lat": "36.152627", "lon": "-86.838719"}, {"parcel_id": "144326", "address": "0 INDIAN CREEK RD", "lat": "36.141053", "lon": "-86.96869"}, {"parcel_id": "144428", "address": "7284 INDIAN CREEK RD", "lat": "36.140146", "lon": "-86.961083", "sale_price": -1.0, "sale_date": "", "market_value": 202900.0, "beds": 3.0, "bath": 1.0, "sqft": 1092.0, "year_built": "1958", "acres": 1.0}, {"parcel_id": "144438", "address": "7291 INDIAN CREEK RD", "lat": "36.139705", "lon": "-86.960191", "sale_price": -1.0, "sale_date": "", "market_value": 231900.0, "beds": 2.0, "bath": 2.0, "sqft": 928.0, "year_built": "2015", "acres": 0.46}, {"parcel_id": "144911", "address": "7286 INDIAN CREEK RD", "lat": "36.143104", "lon": "-86.966425", "sale_price": -1.0, "sale_date": "", "market_value": 1345859.0, "beds": 3.0, "bath": 3.5, "sqft": 4244.0, "year_built": "2011", "acres": 84.0}, {"parcel_id": "443252", "address": "442 WESTBORO DR", "lat": "36.148818", "lon": "-86.872663", "sale_price": 275000.0, "sale_date": "3 Nov 2021", "market_value": 337600.0, "beds": 3.0, "bath": 1.0, "sqft": 1272.0, "year_built": "1948", "acres": null}]}