{"cluster_id": 1533, "name": "P P DEVELOPMENT LLC MORGAN COLE", "entity_count": 8, "parcel_count": 8, "total_market_value": 0, "total_acres": 0.0, "owner_names": ["O I C 1412 ANN STREET HOMES", "O I C 2146 BURNS STREET HOMES", "O I C 355 LEO LANE HOMES", "O I C 506 EAST BEND DRIVE HOMES", "O I C 6515 PREMIER DRIVE HOMES", "O I C HOMES AT 6378 IVY STREET", "P P DEVELOPMENT LLC MORGAN COLE", "P P DEVLOPMENT LLC MORGAN COLE"], "registered_agents": [], "principal_offices": [], "primary_sos_status": "", "primary_foreign_state": "", "brand": "", "opencorporates": "https://opencorporates.com/companies?q=P+P+DEVELOPMENT+LLC+MORGAN+COLE&utf8=%E2%9C%93", "primary_type": "", "portfolio": {"n_parcels_with_acs": 6, "median_income": 91716, "median_home_value": 480300, "pct_renter": 37, "pct_poverty": null, "pct_vacant": 8, "pct_black": 19, "pct_white": 59, "pct_hispanic": 15, "pct_asian": 4}, "related": [{"owner": "O I C HOMES AT 6378 IVY STREET", "parcels": 1, "via": "mailing address"}, {"owner": "O I C 6515 PREMIER DRIVE HOMES", "parcels": 1, "via": "mailing address"}, {"owner": "O I C 1412 ANN STREET HOMES", "parcels": 1, "via": "mailing address"}, {"owner": "P P DEVLOPMENT LLC MORGAN COLE", "parcels": 1, "via": "mailing address"}, {"owner": "O I C 355 LEO LANE HOMES", "parcels": 1, "via": "mailing address"}, {"owner": "O I C 506 EAST BEND DRIVE HOMES", "parcels": 1, "via": "mailing address"}, {"owner": "O I C 2146 BURNS STREET HOMES", "parcels": 1, "via": "mailing address"}], "parcels": [{"parcel_id": "120378", "address": "", "lat": "", "lon": ""}, {"parcel_id": "434198", "address": "6380B IVY ST", "lat": "36.154623", "lon": "-86.874593"}, {"parcel_id": "442049", "address": "506C E BEND DR", "lat": "36.151185", "lon": "-86.868793"}, {"parcel_id": "442297", "address": "3803 BARLOW DR", "lat": "36.071597", "lon": "-86.706569"}, {"parcel_id": "447463", "address": "2148 BURNS ST", "lat": "36.198545", "lon": "-86.729527"}, {"parcel_id": "449011", "address": "1412B ANN ST", "lat": "36.19867", "lon": "-86.729291"}, {"parcel_id": "459689", "address": "6515C PREMIER DR", "lat": "36.145554", "lon": "-86.877935"}, {"parcel_id": "76207", "address": "", "lat": "", "lon": ""}]}