{"cluster_id": 1535, "name": "STEPHENSON HOME CO LLC", "entity_count": 6, "parcel_count": 8, "total_market_value": 842300, "total_acres": 0.8, "owner_names": ["O I C 539 AMERICAN ROAD HOMES", "O I C 6366 ALAMO PLACE HOMES", "O I C 75 BROOKWOOD TERRACE HOMES", "O I C HOMES AT 443 ANNEX AVENUE", "OATH ALEX HENNING TRUST", "STEPHENSON HOME CO LLC"], "registered_agents": [], "principal_offices": [], "primary_sos_status": "", "primary_foreign_state": "", "brand": "", "opencorporates": "https://opencorporates.com/companies?q=STEPHENSON+HOME+CO+LLC&utf8=%E2%9C%93", "primary_type": "", "portfolio": {"n_parcels_with_acs": 6, "median_income": 97242, "median_home_value": 579450, "pct_renter": 34, "pct_poverty": null, "pct_vacant": 6, "pct_black": 4, "pct_white": 81, "pct_hispanic": 8, "pct_asian": 5}, "related": [{"owner": "O I C 539 AMERICAN ROAD HOMES", "parcels": 1, "via": "mailing address"}, {"owner": "O I C HOMES AT 443 ANNEX AVENUE", "parcels": 1, "via": "mailing address"}, {"owner": "OATH ALEX HENNING TRUST", "parcels": 1, "via": "mailing address"}, {"owner": "O I C 6366 ALAMO PLACE HOMES", "parcels": 1, "via": "mailing address"}, {"owner": "O I C 75 BROOKWOOD TERRACE HOMES", "parcels": 1, "via": "mailing address"}], "parcels": [{"parcel_id": "149913", "address": "", "lat": "", "lon": ""}, {"parcel_id": "184984", "address": "", "lat": "", "lon": ""}, {"parcel_id": "238934", "address": "400 ARROWWOOD DR", "lat": "36.068577", "lon": "-86.756698", "sale_price": 1060000.0, "sale_date": "22 Jul 2022", "market_value": 842300.0, "beds": 4.0, "bath": 3.0, "sqft": 2059.0, "year_built": "2010", "acres": 0.79}, {"parcel_id": "421824", "address": "443 ANNEX AVE", "lat": "36.148273", "lon": "-86.886872"}, {"parcel_id": "427559", "address": "6366C ALAMO PL", "lat": "36.153425", "lon": "-86.873639"}, {"parcel_id": "432424", "address": "539C AMERICAN RD", "lat": "36.151796", "lon": "-86.880774"}, {"parcel_id": "448426", "address": "75C BROOKWOOD TER", "lat": "36.129074", "lon": "-86.8587"}, {"parcel_id": "467536", "address": "3411 RICHARDS ST", "lat": "36.115674", "lon": "-86.801875"}]}