{"cluster_id": 1557, "name": "RESERVE AT SEVEN POINTS TOWNHOUSE CORP", "entity_count": 1, "parcel_count": 8, "total_market_value": 0, "total_acres": 0.0, "owner_names": ["RESERVE AT SEVEN POINTS TOWNHOUSE CORP"], "registered_agents": [], "principal_offices": [], "primary_sos_status": "", "primary_foreign_state": "", "brand": "", "opencorporates": "https://opencorporates.com/companies?q=RESERVE+AT+SEVEN+POINTS+TOWNHOUSE+CORP&utf8=%E2%9C%93", "primary_type": "", "portfolio": {"n_parcels_with_acs": 8, "median_income": 133679, "median_home_value": 487700, "pct_renter": 4, "pct_poverty": null, "pct_vacant": 8, "pct_black": 24, "pct_white": 71, "pct_hispanic": 2, "pct_asian": 0}, "related": [], "parcels": [{"parcel_id": "428464", "address": "2288 SEVEN POINTS CIR", "lat": "36.146891", "lon": "-86.578085"}, {"parcel_id": "428465", "address": "5028 HARBOR RESERVE CV", "lat": "36.145637", "lon": "-86.575062"}, {"parcel_id": "428466", "address": "412 ANCHOR RESERVE CV", "lat": "36.146606", "lon": "-86.573648"}, {"parcel_id": "428467", "address": "2267 SEVEN POINTS CIR", "lat": "36.147606", "lon": "-86.574829"}, {"parcel_id": "434260", "address": "613B LAKE RESERVE CV", "lat": "36.147232", "lon": "-86.577083"}, {"parcel_id": "434261", "address": "0 SMOTHERMAN LN", "lat": "36.147935", "lon": "-86.578312"}, {"parcel_id": "434262", "address": "608B LAKE RESERVE CV", "lat": "36.147525", "lon": "-86.577094"}, {"parcel_id": "434263", "address": "0 SEVEN POINTS CIR", "lat": "36.146085", "lon": "-86.5771"}]}