{"cluster_id": 1562, "name": "TRY PROPERTIES", "entity_count": 4, "parcel_count": 8, "total_market_value": 19007900, "total_acres": 13.1, "owner_names": ["S B PROPERTIES LP", "TRY PROPERTIES", "TRY PROPERTIES 15114 LLC", "TRY PROPERTIES GENERAL PARTNERSHIP"], "registered_agents": [], "principal_offices": [], "primary_sos_status": "", "primary_foreign_state": "", "brand": "", "opencorporates": "https://opencorporates.com/companies?q=TRY+PROPERTIES&utf8=%E2%9C%93", "primary_type": "", "portfolio": {"n_parcels_with_acs": 8, "median_income": 140527, "median_home_value": 566386, "pct_renter": 42, "pct_poverty": null, "pct_vacant": 7, "pct_black": 15, "pct_white": 70, "pct_hispanic": 11, "pct_asian": 2}, "related": [{"owner": "S B PROPERTIES LP", "parcels": 2, "via": "mailing address"}, {"owner": "TRY PROPERTIES 15114 LLC", "parcels": 1, "via": "mailing address"}, {"owner": "TRY PROPERTIES GENERAL PARTNERSHIP", "parcels": 1, "via": "mailing address"}], "parcels": [{"parcel_id": "134717", "address": "1905 EASTSIDE AVE", "lat": "36.168206", "lon": "-86.737173", "sale_price": -1.0, "sale_date": "", "market_value": 553600.0, "beds": 3.0, "bath": 2.0, "sqft": 1579.0, "year_built": "1995", "acres": 0.17}, {"parcel_id": "185727", "address": "1555 BATTLEFIELD DR", "lat": "36.115613", "lon": "-86.798373", "sale_price": 390000.0, "sale_date": "25 Jul 2019", "market_value": 532000.0, "beds": 2.0, "bath": 3.0, "sqft": 1672.0, "year_built": "1984", "acres": 0.12}, {"parcel_id": "185748", "address": "1553 BATTLEFIELD DR", "lat": "36.115535", "lon": "-86.798239", "sale_price": 365000.0, "sale_date": "28 Sep 2020", "market_value": 490700.0, "beds": 2.0, "bath": 2.0, "sqft": 1512.0, "year_built": "1984", "acres": 0.13}, {"parcel_id": "220033", "address": "1824 MURFREESBORO PIKE", "lat": "36.099663", "lon": "-86.659888", "sale_price": -1.0, "sale_date": "", "market_value": 1294200.0, "beds": 0.0, "bath": 0.0, "sqft": 11236.0, "year_built": "1976", "acres": 1.48}, {"parcel_id": "239075", "address": "384 BARRYWOOD DR", "lat": "36.067317", "lon": "-86.753089", "sale_price": 385000.0, "sale_date": "31 Jan 2020", "market_value": 583200.0, "beds": 3.0, "bath": 1.0, "sqft": 1471.0, "year_built": "1990", "acres": 0.45}, {"parcel_id": "239175", "address": "5015 MANUEL DR", "lat": "36.068563", "lon": "-86.752718", "sale_price": 350000.0, "sale_date": "18 Oct 2019", "market_value": 545300.0, "beds": 3.0, "bath": 2.0, "sqft": 1521.0, "year_built": "1956", "acres": 0.41}, {"parcel_id": "262249", "address": "5530 EDMONDSON PIKE", "lat": "36.041975", "lon": "-86.741888", "sale_price": -1.0, "sale_date": "", "market_value": 12730000.0, "beds": 0.0, "bath": 0.0, "sqft": 0.0, "year_built": "1995", "acres": 9.36}, {"parcel_id": "274586", "address": "15114 OLD HICKORY BLVD", "lat": "36.045618", "lon": "-86.715303", "sale_price": -1.0, "sale_date": "", "market_value": 2278900.0, "beds": 0.0, "bath": 0.0, "sqft": 10812.0, "year_built": "1978", "acres": 0.95}]}