{"cluster_id": 1573, "name": "STEVENS HOMES LLC", "entity_count": 2, "parcel_count": 8, "total_market_value": 1601200, "total_acres": 2.4, "owner_names": ["STEVENS HOMES LLC", "T F HOMES LLC STEVENS TERRY D"], "registered_agents": [], "principal_offices": [], "primary_sos_status": "", "primary_foreign_state": "", "brand": "", "opencorporates": "https://opencorporates.com/companies?q=STEVENS+HOMES+LLC&utf8=%E2%9C%93", "primary_type": "", "portfolio": {"n_parcels_with_acs": 4, "median_income": 47852, "median_home_value": 242900, "pct_renter": 59, "pct_poverty": null, "pct_vacant": 5, "pct_black": 20, "pct_white": 44, "pct_hispanic": 16, "pct_asian": 10}, "related": [{"owner": "T F HOMES LLC STEVENS TERRY D", "parcels": 1, "via": "mailing address"}], "parcels": [{"parcel_id": "171072", "address": "1001 E LAKE CT", "lat": "36.14021", "lon": "-86.6385", "sale_price": -1.0, "sale_date": "", "market_value": 279500.0, "beds": 3.0, "bath": 1.0, "sqft": 1125.0, "year_built": "1981", "acres": 0.32}, {"parcel_id": "241708", "address": "4811 HOPEDALE DR", "lat": "36.078044", "lon": "-86.718986", "sale_price": -1.0, "sale_date": "", "market_value": 270600.0, "beds": 2.0, "bath": 1.0, "sqft": 900.0, "year_built": "1955", "acres": 0.36}, {"parcel_id": "246964", "address": "1042 RURAL HILL RD", "lat": "36.070726", "lon": "-86.639149"}, {"parcel_id": "247231", "address": "", "lat": "", "lon": ""}, {"parcel_id": "249422", "address": "535 BELL RD", "lat": "36.069294", "lon": "-86.637449", "sale_price": -1.0, "sale_date": "", "market_value": 429300.0, "beds": 3.0, "bath": 2.0, "sqft": 2048.0, "year_built": "1970", "acres": 1.47}, {"parcel_id": "260436", "address": "", "lat": "", "lon": ""}, {"parcel_id": "276427", "address": "205 OCALA DR", "lat": "36.049938", "lon": "-86.696088", "sale_price": -1.0, "sale_date": "", "market_value": 261400.0, "beds": 3.0, "bath": 1.0, "sqft": 1125.0, "year_built": "1973", "acres": 0.27}, {"parcel_id": "417407", "address": "3318 ANDERSON RD", "lat": "36.081698", "lon": "-86.607277", "sale_price": -1.0, "sale_date": "", "market_value": 360400.0, "beds": 3.0, "bath": 1.0, "sqft": 1587.0, "year_built": "1985", "acres": null}]}