{"cluster_id": 1588, "name": "WIDICK PROPERTIES LLC", "entity_count": 2, "parcel_count": 8, "total_market_value": 3914600, "total_acres": 2.4, "owner_names": ["WIDICK PROPERTIES", "WIDICK PROPERTIES LLC"], "registered_agents": [], "principal_offices": [], "primary_sos_status": "", "primary_foreign_state": "", "brand": "", "opencorporates": "https://opencorporates.com/companies?q=WIDICK+PROPERTIES+LLC&utf8=%E2%9C%93", "primary_type": "", "portfolio": {"n_parcels_with_acs": 8, "median_income": 99096, "median_home_value": 578738, "pct_renter": 38, "pct_poverty": null, "pct_vacant": 9, "pct_black": 8, "pct_white": 82, "pct_hispanic": 3, "pct_asian": 6}, "related": [{"owner": "WIDICK PROPERTIES", "parcels": 1, "via": "mailing address"}], "parcels": [{"parcel_id": "213538", "address": "740 ELYSIAN FIELDS RD", "lat": "36.086672", "lon": "-86.76625", "sale_price": -1.0, "sale_date": "", "market_value": 787700.0, "beds": 3.0, "bath": 3.0, "sqft": 1436.0, "year_built": "1952", "acres": 1.07}, {"parcel_id": "214160", "address": "619 ELYSIAN FIELDS RD", "lat": "36.084642", "lon": "-86.752117", "sale_price": 203000.0, "sale_date": "14 Feb 2014", "market_value": 530100.0, "beds": 3.0, "bath": 1.5, "sqft": 1709.0, "year_built": "1975", "acres": 0.35}, {"parcel_id": "234652", "address": "523 BELLE POINTE CT", "lat": "36.06617", "lon": "-86.939867", "sale_price": -1.0, "sale_date": "", "market_value": 353400.0, "beds": 2.0, "bath": 2.0, "sqft": 1549.0, "year_built": "1985", "acres": 0.0}, {"parcel_id": "244201", "address": "505 BONERWOOD DR", "lat": "36.069108", "lon": "-86.730617", "sale_price": 163500.0, "sale_date": "18 Mar 2013", "market_value": 416200.0, "beds": 3.0, "bath": 1.5, "sqft": 1605.0, "year_built": "1967", "acres": 0.25}, {"parcel_id": "245747", "address": "461 MCMURRAY DR", "lat": "36.060382", "lon": "-86.721802", "sale_price": 172000.0, "sale_date": "18 Oct 2013", "market_value": 399600.0, "beds": 3.0, "bath": 1.0, "sqft": 1575.0, "year_built": "1958", "acres": 0.41}, {"parcel_id": "274183", "address": "708 TOBYLYNN DR", "lat": "36.051531", "lon": "-86.737069", "sale_price": 185000.0, "sale_date": "16 May 2013", "market_value": 449700.0, "beds": 3.0, "bath": 2.0, "sqft": 1412.0, "year_built": "1972", "acres": 0.29}, {"parcel_id": "374438", "address": "2310 ELLIOTT AVE APT 515", "lat": "36.1269", "lon": "-86.780641", "sale_price": -1.0, "sale_date": "", "market_value": 565200.0, "beds": 2.0, "bath": 2.5, "sqft": 1269.0, "year_built": "2007", "acres": null}, {"parcel_id": "459242", "address": "115 STELLA DR", "lat": "36.129698", "lon": "-86.910244", "sale_price": 410000.0, "sale_date": "20 Sep 2024", "market_value": 412700.0, "beds": 2.0, "bath": 2.5, "sqft": 1280.0, "year_built": "2023", "acres": null}]}