{"cluster_id": 1590, "name": "WILSON CHRISTINE A REVOCABLE LIVING TRUST", "entity_count": 1, "parcel_count": 8, "total_market_value": 6945900, "total_acres": 2.0, "owner_names": ["WILSON CHRISTINE A REVOCABLE LIVING TRUST"], "registered_agents": [], "principal_offices": [], "primary_sos_status": "", "primary_foreign_state": "", "brand": "", "opencorporates": "https://opencorporates.com/companies?q=WILSON+CHRISTINE+A+REVOCABLE+LIVING+TRUST&utf8=%E2%9C%93", "primary_type": "", "portfolio": {"n_parcels_with_acs": 7, "median_income": 106289, "median_home_value": 688325, "pct_renter": 42, "pct_poverty": null, "pct_vacant": 10, "pct_black": 8, "pct_white": 84, "pct_hispanic": 2, "pct_asian": 2}, "related": [], "parcels": [{"parcel_id": "118678", "address": "4406 ILLINOIS AVE", "lat": "36.158247", "lon": "-86.840472", "sale_price": -1.0, "sale_date": "", "market_value": 537800.0, "beds": 6.0, "bath": 2.0, "sqft": 1864.0, "year_built": "2001", "acres": 0.3}, {"parcel_id": "120670", "address": "304 42ND AVE N", "lat": "36.149338", "lon": "-86.83646", "sale_price": -1.0, "sale_date": "", "market_value": 1426600.0, "beds": 0.0, "bath": 0.0, "sqft": 3656.0, "year_built": "2006", "acres": 0.17}, {"parcel_id": "121253", "address": "4807 ELKINS AVE", "lat": "36.149504", "lon": "-86.845293", "sale_price": -1.0, "sale_date": "", "market_value": 1220600.0, "beds": 3.0, "bath": 3.0, "sqft": 2339.5, "year_built": "1990", "acres": 0.28}, {"parcel_id": "145183", "address": "6661 RIVER VIEW DR", "lat": "36.136583", "lon": "-86.921193", "sale_price": -1.0, "sale_date": "", "market_value": 1301400.0, "beds": 3.0, "bath": 2.5, "sqft": 2475.0, "year_built": "2024", "acres": 0.47}, {"parcel_id": "148034", "address": "204A 54TH AVE N", "lat": "36.145651", "lon": "-86.851493", "sale_price": -1.0, "sale_date": "", "market_value": 614000.0, "beds": 4.0, "bath": 2.0, "sqft": 1404.0, "year_built": "1982", "acres": 0.19}, {"parcel_id": "148129", "address": "200A 54TH AVE N", "lat": "36.145311", "lon": "-86.851405", "sale_price": -1.0, "sale_date": "", "market_value": 620000.0, "beds": 4.0, "bath": 2.0, "sqft": 1404.0, "year_built": "1982", "acres": 0.19}, {"parcel_id": "149124", "address": "202A 54TH AVE N", "lat": "36.145471", "lon": "-86.851453", "sale_price": -1.0, "sale_date": "", "market_value": 620000.0, "beds": 4.0, "bath": 2.0, "sqft": 1404.0, "year_built": "1982", "acres": 0.19}, {"parcel_id": "159044", "address": "2005 24TH AVE S", "lat": "36.132942", "lon": "-86.805961", "sale_price": 437500.0, "sale_date": "27 Jan 2020", "market_value": 605500.0, "beds": 3.0, "bath": 3.0, "sqft": 1820.0, "year_built": "1987", "acres": 0.17}]}