{"cluster_id": 1657, "name": "BRANDYWINE PROPERTIES L LP", "entity_count": 1, "parcel_count": 7, "total_market_value": 2493900, "total_acres": 2.1, "owner_names": ["BRANDYWINE PROPERTIES L LP"], "registered_agents": [], "principal_offices": [], "primary_sos_status": "", "primary_foreign_state": "", "brand": "", "opencorporates": "https://opencorporates.com/companies?q=BRANDYWINE+PROPERTIES+L+LP&utf8=%E2%9C%93", "primary_type": "", "portfolio": {"n_parcels_with_acs": 4, "median_income": 82720, "median_home_value": 510829, "pct_renter": 25, "pct_poverty": null, "pct_vacant": 4, "pct_black": 13, "pct_white": 78, "pct_hispanic": 8, "pct_asian": 0}, "related": [], "parcels": [{"parcel_id": "42642", "address": "205 26TH ST", "lat": "36.248183", "lon": "-86.639284", "sale_price": -1.0, "sale_date": "", "market_value": 229500.0, "beds": 2.0, "bath": 1.0, "sqft": 937.0, "year_built": "1934", "acres": 0.17}, {"parcel_id": "44461", "address": "409 PITTS AVE", "lat": "36.238431", "lon": "-86.63134", "sale_price": -1.0, "sale_date": "", "market_value": 282800.0, "beds": 3.0, "bath": 1.0, "sqft": 1645.0, "year_built": "1933", "acres": 0.41}, {"parcel_id": "44510", "address": "106 FIELDS DR", "lat": "36.236803", "lon": "-86.62615", "sale_price": -1.0, "sale_date": "", "market_value": 492000.0, "beds": 3.0, "bath": 2.0, "sqft": 1994.0, "year_built": "1968", "acres": 0.52}, {"parcel_id": "44898", "address": "116 HAMBLEN AVE", "lat": "36.244782", "lon": "-86.640652", "sale_price": -1.0, "sale_date": "", "market_value": 263500.0, "beds": 3.0, "bath": 1.5, "sqft": 927.0, "year_built": "1990", "acres": 0.23}, {"parcel_id": "45155", "address": "107 28TH ST", "lat": "36.246735", "lon": "-86.639362", "sale_price": -1.0, "sale_date": "", "market_value": 278600.0, "beds": 2.0, "bath": 1.0, "sqft": 915.0, "year_built": "2000", "acres": 0.16}, {"parcel_id": "60348", "address": "100 KAREN WAYNE DR", "lat": "36.23617", "lon": "-86.632951", "sale_price": -1.0, "sale_date": "", "market_value": 475200.0, "beds": 3.0, "bath": 3.0, "sqft": 2184.0, "year_built": "2001", "acres": 0.32}, {"parcel_id": "60349", "address": "102 KAREN WAYNE DR", "lat": "36.236383", "lon": "-86.632843", "sale_price": -1.0, "sale_date": "", "market_value": 472300.0, "beds": 3.0, "bath": 3.0, "sqft": 2185.5, "year_built": "2000", "acres": 0.25}]}