{"cluster_id": 1664, "name": "CAMA SDIRA LLC", "entity_count": 4, "parcel_count": 7, "total_market_value": 2558200, "total_acres": 2.3, "owner_names": ["CAMA SDIRA LLC", "CAMA SDIRA LLC CUSTODIAN", "CAMA SDIRA LLC FBO ELIZABETH BECKER IRA", "CAMA SDIRA LLC FBO ROBERT BECKER IRA T 130419 02"], "registered_agents": [], "principal_offices": [], "primary_sos_status": "", "primary_foreign_state": "", "brand": "", "opencorporates": "https://opencorporates.com/companies?q=CAMA+SDIRA+LLC&utf8=%E2%9C%93", "primary_type": "", "portfolio": {"n_parcels_with_acs": 7, "median_income": 98349, "median_home_value": 338286, "pct_renter": 40, "pct_poverty": null, "pct_vacant": 5, "pct_black": 28, "pct_white": 58, "pct_hispanic": 16, "pct_asian": 0}, "related": [{"owner": "CAMA SDIRA LLC CUSTODIAN", "parcels": 1, "via": "mailing address"}, {"owner": "CAMA SDIRA LLC FBO ROBERT BECKER IRA T 130419 02", "parcels": 1, "via": "mailing address"}, {"owner": "CAMA SDIRA LLC FBO ELIZABETH BECKER IRA", "parcels": 1, "via": "mailing address"}], "parcels": [{"parcel_id": "113968", "address": "4453 GINA BROOKE DR", "lat": "36.175987", "lon": "-86.588566", "sale_price": -1.0, "sale_date": "", "market_value": 325900.0, "beds": 4.0, "bath": 2.0, "sqft": 1519.0, "year_built": "1982", "acres": 0.18}, {"parcel_id": "114114", "address": "4508 BROOKE VALLEY DR", "lat": "36.175048", "lon": "-86.587309", "sale_price": 78076.0, "sale_date": "5 Jun 2013", "market_value": 335700.0, "beds": 4.0, "bath": 2.0, "sqft": 1549.0, "year_built": "1983", "acres": 0.19}, {"parcel_id": "17732", "address": "1507 MONTICELLO AVE", "lat": "36.289257", "lon": "-86.709985", "sale_price": 101000.0, "sale_date": "31 Aug 2009", "market_value": 215900.0, "beds": 2.0, "bath": 1.0, "sqft": 942.0, "year_built": "1955", "acres": 0.43}, {"parcel_id": "23051", "address": "1311 PIERCE RD", "lat": "36.279177", "lon": "-86.70523", "sale_price": 100000.0, "sale_date": "7 Mar 2014", "market_value": 306700.0, "beds": 4.0, "bath": 2.0, "sqft": 1512.0, "year_built": "1984", "acres": 0.18}, {"parcel_id": "23067", "address": "1309 PIERCE RD", "lat": "36.27925", "lon": "-86.705076", "sale_price": 89000.0, "sale_date": "10 Mar 2014", "market_value": 306500.0, "beds": 4.0, "bath": 2.0, "sqft": 1512.0, "year_built": "1984", "acres": 0.2}, {"parcel_id": "75302", "address": "988 DOZIER PL", "lat": "36.203357", "lon": "-86.743676", "sale_price": -1.0, "sale_date": "", "market_value": 445600.0, "beds": 4.0, "bath": 2.0, "sqft": 1819.0, "year_built": "1950", "acres": 0.33}, {"parcel_id": "80313", "address": "2205 CABIN HILL RD", "lat": "36.208188", "lon": "-86.689722", "sale_price": -1.0, "sale_date": "", "market_value": 621900.0, "beds": 5.0, "bath": 4.0, "sqft": 4857.0, "year_built": "1962", "acres": 0.78}]}