{"cluster_id": 1678, "name": "CJMK PROPERTIES LLC", "entity_count": 1, "parcel_count": 7, "total_market_value": 24733000, "total_acres": 16.2, "owner_names": ["CJMK PROPERTIES LLC"], "registered_agents": [], "principal_offices": [], "primary_sos_status": "", "primary_foreign_state": "", "brand": "", "opencorporates": "https://opencorporates.com/companies?q=CJMK+PROPERTIES+LLC&utf8=%E2%9C%93", "primary_type": "", "portfolio": {"n_parcels_with_acs": 7, "median_income": 65941, "median_home_value": 330971, "pct_renter": 77, "pct_poverty": null, "pct_vacant": 8, "pct_black": 9, "pct_white": 61, "pct_hispanic": 26, "pct_asian": 4}, "related": [], "parcels": [{"parcel_id": "165764", "address": "1510 FORT NEGLEY BLVD", "lat": "36.13618", "lon": "-86.774544", "sale_price": -1.0, "sale_date": "", "market_value": 10502500.0, "beds": 0.0, "bath": 0.0, "sqft": 33176.0, "year_built": "1925", "acres": 3.16}, {"parcel_id": "167425", "address": "400 HOLLYDALE DR", "lat": "36.128411", "lon": "-86.717025", "sale_price": 400000.0, "sale_date": "2 Jul 2019", "market_value": 590600.0, "beds": 6.0, "bath": 3.0, "sqft": 1873.0, "year_built": "2000", "acres": 1.94}, {"parcel_id": "167554", "address": "993 MURFREESBORO PIKE", "lat": "36.127204", "lon": "-86.716355"}, {"parcel_id": "168149", "address": "909 MURFREESBORO PIKE", "lat": "36.129929", "lon": "-86.71712", "sale_price": 2750000.0, "sale_date": "31 Mar 2014", "market_value": 9452800.0, "beds": 0.0, "bath": 0.0, "sqft": 73016.0, "year_built": "1990", "acres": 6.63}, {"parcel_id": "197591", "address": "1134 MURFREESBORO PIKE", "lat": "36.125194", "lon": "-86.707907", "sale_price": -1.0, "sale_date": "", "market_value": 2270200.0, "beds": 0.0, "bath": 0.0, "sqft": 14536.0, "year_built": "1965", "acres": 2.3}, {"parcel_id": "197592", "address": "1134 VULTEE BLVD", "lat": "36.125197", "lon": "-86.707196", "sale_price": -1.0, "sale_date": "", "market_value": 1637700.0, "beds": 0.0, "bath": 0.0, "sqft": 9840.0, "year_built": "1980", "acres": 2.2}, {"parcel_id": "234279", "address": "7309 WESTON WAY", "lat": "36.069485", "lon": "-86.939338", "sale_price": -1.0, "sale_date": "", "market_value": 279200.0, "beds": 2.0, "bath": 1.5, "sqft": 1110.0, "year_built": "1979", "acres": 0.0}]}