{"cluster_id": 1681, "name": "CMG HOLDINGS LLC", "entity_count": 1, "parcel_count": 7, "total_market_value": 2923100, "total_acres": 0.8, "owner_names": ["CMG HOLDINGS LLC"], "registered_agents": [], "principal_offices": [], "primary_sos_status": "", "primary_foreign_state": "", "brand": "", "opencorporates": "https://opencorporates.com/companies?q=CMG+HOLDINGS+LLC&utf8=%E2%9C%93", "primary_type": "", "portfolio": {"n_parcels_with_acs": 6, "median_income": 59954, "median_home_value": 522600, "pct_renter": 79, "pct_poverty": null, "pct_vacant": 14, "pct_black": 66, "pct_white": 25, "pct_hispanic": 5, "pct_asian": 1}, "related": [], "parcels": [{"parcel_id": "121967", "address": "1016 33RD AVE N", "lat": "36.164441", "lon": "-86.825959", "sale_price": 560000.0, "sale_date": "14 Jun 2024", "market_value": 558100.0, "beds": 7.0, "bath": 4.0, "sqft": 3288.0, "year_built": "1978", "acres": 0.29}, {"parcel_id": "122212", "address": "2722 SCOVEL ST", "lat": "36.168995", "lon": "-86.820633"}, {"parcel_id": "122214", "address": "2718 SCOVEL ST", "lat": "36.169017", "lon": "-86.820463", "sale_price": 200000.0, "sale_date": "10 Aug 2018", "market_value": 280900.0, "beds": 4.0, "bath": 1.5, "sqft": 1809.0, "year_built": "1931", "acres": 0.16}, {"parcel_id": "123008", "address": "2410 BOOKER ST", "lat": "36.160867", "lon": "-86.812876", "sale_price": 260000.0, "sale_date": "17 Jul 2024", "market_value": 245500.0, "beds": 2.0, "bath": 1.0, "sqft": 850.0, "year_built": "1954", "acres": 0.06}, {"parcel_id": "123415", "address": "2702 MORENA ST", "lat": "36.163297", "lon": "-86.81807", "sale_price": 57500.0, "sale_date": "15 Aug 2014", "market_value": 365900.0, "beds": 3.0, "bath": 1.0, "sqft": 1093.0, "year_built": "1930", "acres": 0.17}, {"parcel_id": "364314", "address": "415 CHURCH ST APT 2012", "lat": "36.162943", "lon": "-86.779328", "sale_price": 665000.0, "sale_date": "29 Nov 2021", "market_value": 886300.0, "beds": 2.0, "bath": 2.0, "sqft": 1083.0, "year_built": "2006", "acres": null}, {"parcel_id": "96968", "address": "1209 MEHARRY BLVD", "lat": "36.170166", "lon": "-86.799373", "sale_price": 270000.0, "sale_date": "16 Nov 2017", "market_value": 586400.0, "beds": 3.0, "bath": 2.0, "sqft": 1126.0, "year_built": "2005", "acres": 0.11}]}