{"cluster_id": 1710, "name": "MKK FAMILY LLC", "entity_count": 5, "parcel_count": 7, "total_market_value": 5288700, "total_acres": 3.6, "owner_names": ["FOREVER TRUST", "HALLMARK GROGS PRINCES TCKH TRUST", "MKK FAMILY LLC", "SIX SISTERS TRUST", "SPRINGWATERS 20 6 TCKMAH TRUST"], "registered_agents": [], "principal_offices": [], "primary_sos_status": "", "primary_foreign_state": "", "brand": "", "opencorporates": "https://opencorporates.com/companies?q=MKK+FAMILY+LLC&utf8=%E2%9C%93", "primary_type": "", "portfolio": {"n_parcels_with_acs": 4, "median_income": 94918, "median_home_value": 618580, "pct_renter": 41, "pct_poverty": null, "pct_vacant": 10, "pct_black": 41, "pct_white": 53, "pct_hispanic": 3, "pct_asian": 1}, "related": [{"owner": "FOREVER TRUST", "parcels": 1, "via": "mailing address"}, {"owner": "SPRINGWATERS 20 6 TCKMAH TRUST", "parcels": 1, "via": "mailing address"}, {"owner": "SIX SISTERS TRUST", "parcels": 1, "via": "mailing address"}, {"owner": "HALLMARK GROGS PRINCES TCKH TRUST", "parcels": 1, "via": "mailing address"}], "parcels": [{"parcel_id": "204020", "address": "6311 E VALLEY RD", "lat": "36.097958", "lon": "-86.886978", "sale_price": -1.0, "sale_date": "", "market_value": 3617500.0, "beds": 4.0, "bath": 5.5, "sqft": 6197.0, "year_built": "2018", "acres": 3.64}, {"parcel_id": "204871", "address": "", "lat": "", "lon": ""}, {"parcel_id": "228376", "address": "", "lat": "", "lon": ""}, {"parcel_id": "32037", "address": "3420 GWEN DR", "lat": "36.243744", "lon": "-86.778263"}, {"parcel_id": "361013", "address": "1382 RURAL HILL RD UNIT 190", "lat": "36.054726", "lon": "-86.648693", "sale_price": 235000.0, "sale_date": "20 May 2022", "market_value": 263700.0, "beds": 2.0, "bath": 2.5, "sqft": 1248.0, "year_built": "2008", "acres": null}, {"parcel_id": "423712", "address": "1410 SIGLER ST", "lat": "36.150837", "lon": "-86.789064", "sale_price": -1.0, "sale_date": "", "market_value": 1407500.0, "beds": 4.0, "bath": 4.0, "sqft": 3591.0, "year_built": "2017", "acres": null}, {"parcel_id": "68440", "address": "2424 14TH AVE N", "lat": "36.192114", "lon": "-86.810691", "sale_price": null, "sale_date": "", "market_value": null, "beds": null, "bath": 0.0, "sqft": null, "year_built": "", "acres": null}]}