{"cluster_id": 1713, "name": "FOX BROTHERS REALTY LLC", "entity_count": 1, "parcel_count": 7, "total_market_value": 2878100, "total_acres": 1.5, "owner_names": ["FOX BROTHERS REALTY LLC"], "registered_agents": [], "principal_offices": [], "primary_sos_status": "", "primary_foreign_state": "", "brand": "", "opencorporates": "https://opencorporates.com/companies?q=FOX+BROTHERS+REALTY+LLC&utf8=%E2%9C%93", "primary_type": "", "portfolio": {"n_parcels_with_acs": 6, "median_income": 89606, "median_home_value": 517486, "pct_renter": 32, "pct_poverty": null, "pct_vacant": 9, "pct_black": 28, "pct_white": 55, "pct_hispanic": 11, "pct_asian": 3}, "related": [], "parcels": [{"parcel_id": "115580", "address": "6312 THUNDERBIRD DR", "lat": "36.150936", "lon": "-86.876346", "sale_price": -1.0, "sale_date": "", "market_value": 490200.0, "beds": 4.0, "bath": 2.0, "sqft": 1575.0, "year_built": "1972", "acres": 0.34}, {"parcel_id": "117304", "address": "5412 KENTUCKY AVE", "lat": "36.160001", "lon": "-86.854082", "sale_price": 107500.0, "sale_date": "7 Feb 2013", "market_value": 313500.0, "beds": 2.0, "bath": 1.0, "sqft": 996.0, "year_built": "1971", "acres": 0.19}, {"parcel_id": "152442", "address": "3528 NEBRASKA AVE", "lat": "36.143069", "lon": "-86.826598", "sale_price": -1.0, "sale_date": "", "market_value": 650700.0, "beds": 4.0, "bath": 4.0, "sqft": 1584.0, "year_built": "1983", "acres": 0.14}, {"parcel_id": "152443", "address": "3536 NEBRASKA AVE", "lat": "36.143049", "lon": "-86.826784", "sale_price": -1.0, "sale_date": "", "market_value": 650700.0, "beds": 4.0, "bath": 4.0, "sqft": 1584.0, "year_built": "1983", "acres": 0.14}, {"parcel_id": "27373", "address": "1016 NEW PROVIDENCE PASS", "lat": "36.258539", "lon": "-86.687662", "sale_price": -1.0, "sale_date": "", "market_value": 267300.0, "beds": 3.0, "bath": 2.0, "sqft": 972.0, "year_built": "1985", "acres": 0.32}, {"parcel_id": "66348", "address": "117 BOYCE CT", "lat": "36.212591", "lon": "-86.835409", "sale_price": 120000.0, "sale_date": "8 Sep 2017", "market_value": 242400.0, "beds": 2.0, "bath": 2.0, "sqft": 1646.0, "year_built": "1973", "acres": 0.23}, {"parcel_id": "92177", "address": "1705 23RD AVE N", "lat": "36.177021", "lon": "-86.814096", "sale_price": -1.0, "sale_date": "", "market_value": 263300.0, "beds": 3.0, "bath": 2.0, "sqft": 1188.0, "year_built": "2003", "acres": 0.14}]}