{"cluster_id": 1717, "name": "GEORGETOWN 23L TRUST", "entity_count": 7, "parcel_count": 7, "total_market_value": 2013200, "total_acres": 0.0, "owner_names": ["GEORGETOWN 14R TRUST", "GEORGETOWN 23K TRUST", "GEORGETOWN 23L TRUST", "HOBBS TRUST", "ROYAL OAKS TRUST", "SUMMIT RIDGE TRUST", "TRADING POST TRUST"], "registered_agents": [], "principal_offices": [], "primary_sos_status": "", "primary_foreign_state": "", "brand": "", "opencorporates": "https://opencorporates.com/companies?q=GEORGETOWN+23L+TRUST&utf8=%E2%9C%93", "primary_type": "", "portfolio": {"n_parcels_with_acs": 3, "median_income": 110484, "median_home_value": 487171, "pct_renter": 38, "pct_poverty": null, "pct_vacant": 13, "pct_black": 2, "pct_white": 80, "pct_hispanic": 10, "pct_asian": 9}, "related": [{"owner": "HOBBS TRUST", "parcels": 1, "via": "mailing address"}, {"owner": "GEORGETOWN 23K TRUST", "parcels": 1, "via": "mailing address"}, {"owner": "SUMMIT RIDGE TRUST", "parcels": 1, "via": "mailing address"}, {"owner": "ROYAL OAKS TRUST", "parcels": 1, "via": "mailing address"}, {"owner": "TRADING POST TRUST", "parcels": 1, "via": "mailing address"}, {"owner": "GEORGETOWN 14R TRUST", "parcels": 1, "via": "mailing address"}], "parcels": [{"parcel_id": "200247", "address": "8309 TRADING POST CT", "lat": "36.087388", "lon": "-87.013696", "sale_price": -1.0, "sale_date": "", "market_value": 493700.0, "beds": 3.0, "bath": 2.0, "sqft": 2045.0, "year_built": "2000", "acres": null}, {"parcel_id": "208033", "address": "2116 HOBBS RD APT I11", "lat": "36.102676", "lon": "-86.82027", "sale_price": 128000.0, "sale_date": "14 Sep 2013", "market_value": 231700.0, "beds": 1.0, "bath": 1.0, "sqft": 705.0, "year_built": "1968", "acres": 0.0}, {"parcel_id": "208133", "address": "5025 HILLSBORO PIKE APT 14R", "lat": "36.099022", "lon": "-86.825264", "sale_price": 131500.0, "sale_date": "8 Nov 2013", "market_value": 238200.0, "beds": 1.0, "bath": 1.0, "sqft": 771.0, "year_built": "1969", "acres": 0.0}, {"parcel_id": "208603", "address": "5025 HILLSBORO PIKE APT 23K", "lat": "36.099292", "lon": "-86.827092", "sale_price": 135000.0, "sale_date": "31 Jul 2014", "market_value": 249400.0, "beds": 1.0, "bath": 1.0, "sqft": 771.0, "year_built": "1980", "acres": 0.0}, {"parcel_id": "208604", "address": "5025 HILLSBORO PIKE APT 23L", "lat": "36.099216", "lon": "-86.827118", "sale_price": 135900.0, "sale_date": "18 Aug 2014", "market_value": 249400.0, "beds": 1.0, "bath": 1.0, "sqft": 771.0, "year_built": "1980", "acres": 0.0}, {"parcel_id": "209828", "address": "363 SUMMIT RIDGE CIR", "lat": "36.094675", "lon": "-86.828315", "sale_price": 131000.0, "sale_date": "18 Jul 2014", "market_value": 260000.0, "beds": 1.0, "bath": 1.0, "sqft": 716.0, "year_built": "1978", "acres": 0.0}, {"parcel_id": "306424", "address": "1731 RED JACKET DR", "lat": "36.032029", "lon": "-86.705644", "sale_price": 280000.0, "sale_date": "30 Apr 2025", "market_value": 290800.0, "beds": 2.0, "bath": 2.5, "sqft": 1348.0, "year_built": "2006", "acres": null}]}