{"cluster_id": 1730, "name": "HEAD 2026 TENNESSEE COMMUNITY PROPERTY TRUST", "entity_count": 2, "parcel_count": 7, "total_market_value": 2971000, "total_acres": 3.5, "owner_names": ["HEAD 2026 TENNESSEE COMMUNITY PROPERTY TRUST", "HEAD 2026 TENNESSEE COMMUNITY PROPERTY TRUST THE"], "registered_agents": [], "principal_offices": [], "primary_sos_status": "", "primary_foreign_state": "", "brand": "", "opencorporates": "https://opencorporates.com/companies?q=HEAD+2026+TENNESSEE+COMMUNITY+PROPERTY+TRUST&utf8=%E2%9C%93", "primary_type": "", "portfolio": {"n_parcels_with_acs": 6, "median_income": 99448, "median_home_value": 446017, "pct_renter": 38, "pct_poverty": null, "pct_vacant": 4, "pct_black": 18, "pct_white": 74, "pct_hispanic": 3, "pct_asian": 1}, "related": [{"owner": "HEAD 2026 TENNESSEE COMMUNITY PROPERTY TRUST THE", "parcels": 1, "via": "mailing address"}], "parcels": [{"parcel_id": "244996", "address": "4937 MILLERWOOD DR", "lat": "36.063929", "lon": "-86.721896", "sale_price": 300000.0, "sale_date": "30 Aug 2021", "market_value": 391400.0, "beds": 3.0, "bath": 1.0, "sqft": 1100.0, "year_built": "1960", "acres": 0.5}, {"parcel_id": "245001", "address": "4917 MILLERWOOD DR", "lat": "36.065164", "lon": "-86.72195", "sale_price": -1.0, "sale_date": "", "market_value": 519700.0, "beds": 3.0, "bath": 2.0, "sqft": 1400.0, "year_built": "1961", "acres": 1.3}, {"parcel_id": "246481", "address": "4936 AQUATIC RD", "lat": "36.063677", "lon": "-86.718462", "sale_price": 400000.0, "sale_date": "31 Aug 2022", "market_value": 336200.0, "beds": 3.0, "bath": 1.5, "sqft": 1400.0, "year_built": "1960", "acres": 0.41}, {"parcel_id": "52061", "address": "120A HART LN", "lat": "36.220646", "lon": "-86.757818", "sale_price": -1.0, "sale_date": "", "market_value": 369900.0, "beds": 2.0, "bath": 1.5, "sqft": 893.0, "year_built": "1985", "acres": 0.42}, {"parcel_id": "54627", "address": "4820 LINDELL ST", "lat": "36.232863", "lon": "-86.727531", "sale_price": 182000.0, "sale_date": "18 Nov 2016", "market_value": 493400.0, "beds": 4.0, "bath": 2.0, "sqft": 1652.0, "year_built": "1952", "acres": 0.47}, {"parcel_id": "77085", "address": "1512 ANDY ST", "lat": "36.202461", "lon": "-86.729845", "sale_price": 94500.0, "sale_date": "14 Jan 2015", "market_value": 440800.0, "beds": 4.0, "bath": 2.0, "sqft": 1432.0, "year_built": "1982", "acres": 0.21}, {"parcel_id": "77323", "address": "1714 HANOVER RD", "lat": "36.202327", "lon": "-86.720472", "sale_price": 66000.0, "sale_date": "18 Jun 2010", "market_value": 419600.0, "beds": 4.0, "bath": 1.0, "sqft": 725.0, "year_built": "1947", "acres": 0.18}]}