{"cluster_id": 1738, "name": "HUGHES BRIAN C LIVING TRUST THE", "entity_count": 1, "parcel_count": 7, "total_market_value": 2721100, "total_acres": 1.6, "owner_names": ["HUGHES BRIAN C LIVING TRUST THE"], "registered_agents": [], "principal_offices": [], "primary_sos_status": "", "primary_foreign_state": "", "brand": "", "opencorporates": "https://opencorporates.com/companies?q=HUGHES+BRIAN+C+LIVING+TRUST+THE&utf8=%E2%9C%93", "primary_type": "", "portfolio": {"n_parcels_with_acs": 7, "median_income": 99018, "median_home_value": 393471, "pct_renter": 31, "pct_poverty": null, "pct_vacant": 8, "pct_black": 1, "pct_white": 75, "pct_hispanic": 13, "pct_asian": 2}, "related": [], "parcels": [{"parcel_id": "195393", "address": "304 TIMMONS ST", "lat": "36.107995", "lon": "-86.742077", "sale_price": 75000.0, "sale_date": "19 Jun 2015", "market_value": 307300.0, "beds": 2.0, "bath": 1.0, "sqft": 982.0, "year_built": "1935", "acres": 0.17}, {"parcel_id": "195394", "address": "306 TIMMONS ST", "lat": "36.108008", "lon": "-86.742246", "sale_price": -1.0, "sale_date": "", "market_value": 369700.0, "beds": 3.0, "bath": 1.0, "sqft": 1347.0, "year_built": "1935", "acres": 0.17}, {"parcel_id": "196573", "address": "211 MORTON AVE", "lat": "36.10549", "lon": "-86.734825", "sale_price": -1.0, "sale_date": "", "market_value": 480300.0, "beds": 4.0, "bath": 4.0, "sqft": 1695.0, "year_built": "1936", "acres": 0.25}, {"parcel_id": "196574", "address": "3011 WINGATE AVE", "lat": "36.105236", "lon": "-86.73492", "sale_price": -1.0, "sale_date": "", "market_value": 406600.0, "beds": 4.0, "bath": 2.0, "sqft": 2140.0, "year_built": "1969", "acres": 0.18}, {"parcel_id": "197155", "address": "260 TANKSLEY AVE", "lat": "36.108754", "lon": "-86.739472", "sale_price": -1.0, "sale_date": "", "market_value": 367000.0, "beds": 3.0, "bath": 1.0, "sqft": 1196.0, "year_built": "1948", "acres": 0.27}, {"parcel_id": "197286", "address": "266 TIMMONS ST", "lat": "36.107833", "lon": "-86.740361", "sale_price": 92500.0, "sale_date": "27 Sep 2010", "market_value": 392700.0, "beds": 2.0, "bath": 1.0, "sqft": 1260.0, "year_built": "1980", "acres": 0.29}, {"parcel_id": "198028", "address": "3015 WINGATE AVE", "lat": "36.105077", "lon": "-86.734994", "sale_price": -1.0, "sale_date": "", "market_value": 397500.0, "beds": 4.0, "bath": 2.0, "sqft": 1500.0, "year_built": "1990", "acres": 0.22}]}