{"cluster_id": 1747, "name": "JONES CONSTRUCTION LLC", "entity_count": 1, "parcel_count": 7, "total_market_value": 1172500, "total_acres": 6.0, "owner_names": ["JONES CONSTRUCTION LLC"], "registered_agents": [], "principal_offices": [], "primary_sos_status": "", "primary_foreign_state": "", "brand": "", "opencorporates": "https://opencorporates.com/companies?q=JONES+CONSTRUCTION+LLC&utf8=%E2%9C%93", "primary_type": "", "portfolio": {"n_parcels_with_acs": 5, "median_income": 63416, "median_home_value": 288040, "pct_renter": 60, "pct_poverty": null, "pct_vacant": 5, "pct_black": 36, "pct_white": 42, "pct_hispanic": 15, "pct_asian": 0}, "related": [], "parcels": [{"parcel_id": "219660", "address": "0 FRANKLIN LIMESTONE RD", "lat": "36.087041", "lon": "-86.660515", "sale_price": null, "sale_date": "", "market_value": null, "beds": null, "bath": 0.0, "sqft": null, "year_built": "", "acres": null}, {"parcel_id": "219662", "address": "420 FRANKLIN LIMESTONE RD", "lat": "36.088246", "lon": "-86.660408", "sale_price": -1.0, "sale_date": "", "market_value": 880800.0, "beds": 4.0, "bath": 3.0, "sqft": 2522.97, "year_built": "2015", "acres": 6.01}, {"parcel_id": "28840", "address": "", "lat": "", "lon": ""}, {"parcel_id": "449924", "address": "2426 DANILYNN DR", "lat": "36.042224", "lon": "-86.628703", "sale_price": 294000.0, "sale_date": "8 May 2026", "market_value": 291700.0, "beds": 2.0, "bath": 2.5, "sqft": 1364.0, "year_built": "2022", "acres": null}, {"parcel_id": "478785", "address": "1000A BRYAN ST", "lat": "36.260723", "lon": "-86.651061"}, {"parcel_id": "478786", "address": "1000 BRYAN ST", "lat": "36.260729", "lon": "-86.651255"}, {"parcel_id": "77030", "address": "", "lat": "", "lon": ""}]}