{"cluster_id": 1759, "name": "LANTZ FAMILY LIVING TRUST", "entity_count": 1, "parcel_count": 7, "total_market_value": 2050900, "total_acres": 0.8, "owner_names": ["LANTZ FAMILY LIVING TRUST"], "registered_agents": [], "principal_offices": [], "primary_sos_status": "", "primary_foreign_state": "", "brand": "", "opencorporates": "https://opencorporates.com/companies?q=LANTZ+FAMILY+LIVING+TRUST&utf8=%E2%9C%93", "primary_type": "", "portfolio": {"n_parcels_with_acs": 7, "median_income": 88735, "median_home_value": 387843, "pct_renter": 22, "pct_poverty": null, "pct_vacant": 5, "pct_black": 12, "pct_white": 78, "pct_hispanic": 3, "pct_asian": 5}, "related": [], "parcels": [{"parcel_id": "145605", "address": "5109 HUNTERS POINT LN", "lat": "36.162724", "lon": "-86.583789", "sale_price": 95000.0, "sale_date": "2 Feb 2012", "market_value": 241700.0, "beds": 2.0, "bath": 1.5, "sqft": 1388.0, "year_built": "1984", "acres": 0.18}, {"parcel_id": "145708", "address": "5111 HUNTERS POINT LN", "lat": "36.1627", "lon": "-86.583606", "sale_price": 95000.0, "sale_date": "22 Mar 2012", "market_value": 249500.0, "beds": 2.0, "bath": 1.5, "sqft": 1381.0, "year_built": "1984", "acres": 0.18}, {"parcel_id": "145713", "address": "5135 HUNTERS POINT LN", "lat": "36.162654", "lon": "-86.581572", "sale_price": 85000.0, "sale_date": "31 Oct 2012", "market_value": 247000.0, "beds": 2.0, "bath": 1.5, "sqft": 1381.0, "year_built": "1984", "acres": 0.22}, {"parcel_id": "198312", "address": "119 ANTLER RIDGE CIR", "lat": "36.120434", "lon": "-86.629954", "sale_price": 146000.0, "sale_date": "6 Mar 2009", "market_value": 297600.0, "beds": 3.0, "bath": 2.5, "sqft": 1470.86, "year_built": "2004", "acres": null}, {"parcel_id": "84092", "address": "4280 RACHEL DONELSON PASS", "lat": "36.198405", "lon": "-86.603157", "sale_price": -1.0, "sale_date": "", "market_value": 463400.0, "beds": 3.0, "bath": 2.5, "sqft": 2104.0, "year_built": "2004", "acres": null}, {"parcel_id": "84377", "address": "701 RACHELS TRL", "lat": "36.20549", "lon": "-86.605875", "sale_price": 280000.0, "sale_date": "23 Sep 2024", "market_value": 273000.0, "beds": 3.0, "bath": 2.5, "sqft": 1335.0, "year_built": "1984", "acres": 0.15}, {"parcel_id": "84734", "address": "300 RACHELS CT E", "lat": "36.205667", "lon": "-86.604572", "sale_price": 135000.0, "sale_date": "10 Aug 2017", "market_value": 278700.0, "beds": 3.0, "bath": 2.0, "sqft": 1350.0, "year_built": "1984", "acres": 0.11}]}