{"cluster_id": 1771, "name": "TAYAB INVESTMENTS LLC", "entity_count": 2, "parcel_count": 7, "total_market_value": 7246400, "total_acres": 1.2, "owner_names": ["MELROSE AUTO REPAIR INC", "TAYAB INVESTMENTS LLC"], "registered_agents": [], "principal_offices": [], "primary_sos_status": "", "primary_foreign_state": "", "brand": "", "opencorporates": "https://opencorporates.com/companies?q=TAYAB+INVESTMENTS+LLC&utf8=%E2%9C%93", "primary_type": "", "portfolio": {"n_parcels_with_acs": 6, "median_income": 79476, "median_home_value": 699200, "pct_renter": 55, "pct_poverty": null, "pct_vacant": 12, "pct_black": 17, "pct_white": 73, "pct_hispanic": 6, "pct_asian": 3}, "related": [{"owner": "MELROSE AUTO REPAIR INC", "parcels": 1, "via": "mailing address"}], "parcels": [{"parcel_id": "165889", "address": "", "lat": "", "lon": ""}, {"parcel_id": "165891", "address": "1800 8TH AVE S", "lat": "36.135972", "lon": "-86.778527", "sale_price": null, "sale_date": "", "market_value": null, "beds": null, "bath": 0.0, "sqft": null, "year_built": "", "acres": null}, {"parcel_id": "188637", "address": "2519 8TH AVE S", "lat": "36.123867", "lon": "-86.776664", "sale_price": 2700000.0, "sale_date": "29 Jul 2021", "market_value": 4288300.0, "beds": 0.0, "bath": 0.0, "sqft": 9664.0, "year_built": "1985", "acres": 0.69}, {"parcel_id": "188887", "address": "812 HORNER AVE", "lat": "36.122505", "lon": "-86.777281", "sale_price": -1.0, "sale_date": "", "market_value": 755600.0, "beds": 2.0, "bath": 2.0, "sqft": 1325.0, "year_built": "1948", "acres": 0.21}, {"parcel_id": "190168", "address": "2707 BRANSFORD AVE", "lat": "36.119367", "lon": "-86.766065", "sale_price": null, "sale_date": "", "market_value": null, "beds": null, "bath": 0.0, "sqft": null, "year_built": "", "acres": null}, {"parcel_id": "190169", "address": "2724 BERRYWOOD DR", "lat": "36.119059", "lon": "-86.766212", "sale_price": -1.0, "sale_date": "", "market_value": 2202500.0, "beds": 0.0, "bath": 0.0, "sqft": 2383.0, "year_built": "1975", "acres": 0.28}, {"parcel_id": "90073", "address": "900 CLAY ST", "lat": "36.184944", "lon": "-86.803741", "sale_price": null, "sale_date": "", "market_value": null, "beds": null, "bath": 0.0, "sqft": null, "year_built": "", "acres": null}]}