{"cluster_id": 1809, "name": "PINNACLE WOODLAND STREET LLC", "entity_count": 3, "parcel_count": 7, "total_market_value": 11844900, "total_acres": 0.9, "owner_names": ["PINNACLE 4TH AND LEA LLC", "PINNACLE OPRYLAND LLC", "PINNACLE WOODLAND STREET LLC"], "registered_agents": [], "principal_offices": [], "primary_sos_status": "", "primary_foreign_state": "", "brand": "", "opencorporates": "https://opencorporates.com/companies?q=PINNACLE+WOODLAND+STREET+LLC&utf8=%E2%9C%93", "primary_type": "", "portfolio": {"n_parcels_with_acs": 7, "median_income": 68102, "median_home_value": 347533, "pct_renter": 80, "pct_poverty": null, "pct_vacant": 18, "pct_black": 23, "pct_white": 59, "pct_hispanic": 11, "pct_asian": 0}, "related": [{"owner": "PINNACLE 4TH AND LEA LLC", "parcels": 2, "via": "mailing address"}, {"owner": "PINNACLE OPRYLAND LLC", "parcels": 1, "via": "mailing address"}], "parcels": [{"parcel_id": "100510", "address": "100 INTERSTATE DR", "lat": "36.170947", "lon": "-86.76913"}, {"parcel_id": "100523", "address": "201 WOODLAND ST", "lat": "36.1701", "lon": "-86.770316", "sale_price": null, "sale_date": "", "market_value": null, "beds": null, "bath": 0.0, "sqft": null, "year_built": "", "acres": null}, {"parcel_id": "101120", "address": "110 INTERSTATE DR", "lat": "36.170569", "lon": "-86.769032", "sale_price": null, "sale_date": "", "market_value": null, "beds": null, "bath": 0.0, "sqft": null, "year_built": "", "acres": null}, {"parcel_id": "101121", "address": "225 WOODLAND ST", "lat": "36.170397", "lon": "-86.769497"}, {"parcel_id": "130435", "address": "600 4TH AVE S", "lat": "36.154613", "lon": "-86.772653", "sale_price": -1.0, "sale_date": "", "market_value": 5656300.0, "beds": null, "bath": 0.0, "sqft": 11500.0, "year_built": "1960", "acres": 0.43}, {"parcel_id": "130437", "address": "616 4TH AVE S", "lat": "36.154274", "lon": "-86.772446", "sale_price": -1.0, "sale_date": "", "market_value": 6188600.0, "beds": 0.0, "bath": 0.0, "sqft": 19886.0, "year_built": "1950", "acres": 0.48}, {"parcel_id": "443279", "address": "124 MUSIC CITY CIR", "lat": "36.223397", "lon": "-86.696156"}]}