{"cluster_id": 1815, "name": "RAGAN FAMILY REVOCABLE LIVING TRUST THE", "entity_count": 1, "parcel_count": 7, "total_market_value": 3515400, "total_acres": 3.5, "owner_names": ["RAGAN FAMILY REVOCABLE LIVING TRUST THE"], "registered_agents": [], "principal_offices": [], "primary_sos_status": "", "primary_foreign_state": "", "brand": "", "opencorporates": "https://opencorporates.com/companies?q=RAGAN+FAMILY+REVOCABLE+LIVING+TRUST+THE&utf8=%E2%9C%93", "primary_type": "", "portfolio": {"n_parcels_with_acs": 7, "median_income": 102902, "median_home_value": 476300, "pct_renter": 33, "pct_poverty": null, "pct_vacant": 6, "pct_black": 30, "pct_white": 58, "pct_hispanic": 2, "pct_asian": 4}, "related": [], "parcels": [{"parcel_id": "119988", "address": "3900 ALABAMA AVE", "lat": "36.153783", "lon": "-86.833257", "sale_price": null, "sale_date": "", "market_value": null, "beds": null, "bath": 0.0, "sqft": null, "year_built": "", "acres": null}, {"parcel_id": "120007", "address": "411 39TH AVE N", "lat": "36.153262", "lon": "-86.83336", "sale_price": -1.0, "sale_date": "", "market_value": 1086800.0, "beds": 0.0, "bath": 0.0, "sqft": 4779.0, "year_built": "1965", "acres": 0.2}, {"parcel_id": "125084", "address": "0 ALABAMA AVE", "lat": "36.153796", "lon": "-86.833084", "sale_price": null, "sale_date": "", "market_value": null, "beds": null, "bath": 0.0, "sqft": null, "year_built": "", "acres": null}, {"parcel_id": "125802", "address": "518 39TH AVE N", "lat": "36.154794", "lon": "-86.832697"}, {"parcel_id": "125803", "address": "520 39TH AVE N", "lat": "36.15496", "lon": "-86.832654", "sale_price": -1.0, "sale_date": "", "market_value": 831500.0, "beds": 0.0, "bath": 0.0, "sqft": 3280.0, "year_built": "2015", "acres": 0.17}, {"parcel_id": "126438", "address": "3801 CHARLOTTE AVE", "lat": "36.152257", "lon": "-86.831116", "sale_price": -1.0, "sale_date": "", "market_value": 753700.0, "beds": 0.0, "bath": 0.0, "sqft": 3185.0, "year_built": "1955", "acres": 0.17}, {"parcel_id": "203091", "address": "1055 HICKORY HOLLOW RD", "lat": "36.089543", "lon": "-86.959362", "sale_price": -1.0, "sale_date": "", "market_value": 843400.0, "beds": 3.0, "bath": 3.5, "sqft": 2438.0, "year_built": "2005", "acres": 2.99}]}