{"cluster_id": 1838, "name": "STANLEY BARBARA L LIVING TRUST", "entity_count": 1, "parcel_count": 7, "total_market_value": 6106700, "total_acres": 4.8, "owner_names": ["STANLEY BARBARA L LIVING TRUST"], "registered_agents": [], "principal_offices": [], "primary_sos_status": "", "primary_foreign_state": "", "brand": "", "opencorporates": "https://opencorporates.com/companies?q=STANLEY+BARBARA+L+LIVING+TRUST&utf8=%E2%9C%93", "primary_type": "", "portfolio": {"n_parcels_with_acs": 7, "median_income": 139911, "median_home_value": 995800, "pct_renter": 24, "pct_poverty": null, "pct_vacant": 8, "pct_black": 7, "pct_white": 72, "pct_hispanic": 11, "pct_asian": 4}, "related": [], "parcels": [{"parcel_id": "190447", "address": "2826 AZALEA PL", "lat": "36.114045", "lon": "-86.767508", "sale_price": -1.0, "sale_date": "", "market_value": 1282600.0, "beds": 0.0, "bath": 0.0, "sqft": 1032.0, "year_built": "1975", "acres": 0.21}, {"parcel_id": "192264", "address": "3501 CRESTRIDGE DR", "lat": "36.109729", "lon": "-86.778171", "sale_price": -1.0, "sale_date": "", "market_value": 749400.0, "beds": 4.0, "bath": 1.5, "sqft": 1350.0, "year_built": "1951", "acres": 0.46}, {"parcel_id": "213345", "address": "1318 HARDING PL", "lat": "36.090373", "lon": "-86.808654", "sale_price": -1.0, "sale_date": "", "market_value": 1183700.0, "beds": 3.0, "bath": 3.0, "sqft": 2735.0, "year_built": "1980", "acres": 1.33}, {"parcel_id": "214229", "address": "4336 CORAL WAY", "lat": "36.093711", "lon": "-86.78619", "sale_price": -1.0, "sale_date": "", "market_value": 950400.0, "beds": 3.0, "bath": 2.0, "sqft": 1785.0, "year_built": "1955", "acres": 0.94}, {"parcel_id": "215418", "address": "720 ELYSIAN FIELDS RD", "lat": "36.085136", "lon": "-86.765094", "sale_price": -1.0, "sale_date": "", "market_value": 977600.0, "beds": 4.0, "bath": 2.0, "sqft": 1996.0, "year_built": "1975", "acres": 1.14}, {"parcel_id": "270980", "address": "356 ASH GROVE DR", "lat": "36.050244", "lon": "-86.708779", "sale_price": -1.0, "sale_date": "", "market_value": 333000.0, "beds": 3.0, "bath": 2.0, "sqft": 1352.0, "year_built": "1972", "acres": 0.68}, {"parcel_id": "296837", "address": "2028 SHERBROOKE LN", "lat": "36.016236", "lon": "-86.715211", "sale_price": -1.0, "sale_date": "", "market_value": 630000.0, "beds": 3.0, "bath": 2.5, "sqft": 3131.0, "year_built": "2002", "acres": null}]}