{"cluster_id": 1843, "name": "TACO BELL OF AMERICA LLC", "entity_count": 1, "parcel_count": 7, "total_market_value": 11130105, "total_acres": 4.7, "owner_names": ["TACO BELL OF AMERICA LLC"], "registered_agents": [], "principal_offices": [], "primary_sos_status": "", "primary_foreign_state": "", "brand": "", "opencorporates": "https://opencorporates.com/companies?q=TACO+BELL+OF+AMERICA+LLC&utf8=%E2%9C%93", "primary_type": "", "portfolio": {"n_parcels_with_acs": 6, "median_income": 75736, "median_home_value": 405060, "pct_renter": 66, "pct_poverty": null, "pct_vacant": 9, "pct_black": 29, "pct_white": 42, "pct_hispanic": 18, "pct_asian": 2}, "related": [], "parcels": [{"parcel_id": "11046", "address": "2100 GALLATIN PIKE N", "lat": "36.303729", "lon": "-86.692117", "sale_price": -1.0, "sale_date": "", "market_value": 2123400.0, "beds": 0.0, "bath": 0.0, "sqft": 2157.0, "year_built": "1995", "acres": 0.77}, {"parcel_id": "172461", "address": "529 DONELSON PIKE", "lat": "36.147199", "lon": "-86.665883", "sale_price": -1.0, "sale_date": "", "market_value": 1610705.0, "beds": 0.0, "bath": 0.0, "sqft": 0.0, "year_built": "1985", "acres": 1.14}, {"parcel_id": "219120", "address": "4000 NOLENSVILLE PIKE", "lat": "36.084595", "lon": "-86.727475", "sale_price": -1.0, "sale_date": "", "market_value": 1350000.0, "beds": 0.0, "bath": 0.0, "sqft": 0.0, "year_built": "2005", "acres": 0.41}, {"parcel_id": "219359", "address": "4000 NOLENSVILLE PIKE", "lat": "36.084829", "lon": "-86.727636"}, {"parcel_id": "253360", "address": "2541 MURFREESBORO PIKE", "lat": "36.076642", "lon": "-86.641575", "sale_price": -1.0, "sale_date": "", "market_value": 1350000.0, "beds": 0.0, "bath": 0.0, "sqft": 0.0, "year_built": "2000", "acres": 0.93}, {"parcel_id": "284364", "address": "5315 HICKORY HOLLOW LN", "lat": "36.048427", "lon": "-86.652828", "sale_price": -1.0, "sale_date": "", "market_value": 1560000.0, "beds": 0.0, "bath": 0.0, "sqft": 0.0, "year_built": "2006", "acres": 0.62}, {"parcel_id": "77665", "address": "2904 GALLATIN PIKE", "lat": "36.202913", "lon": "-86.738302", "sale_price": -1.0, "sale_date": "", "market_value": 3136000.0, "beds": 0.0, "bath": 0.0, "sqft": 0.0, "year_built": "2015", "acres": 0.8}]}