{"cluster_id": 1868, "name": "1031 TYNE TRUST", "entity_count": 6, "parcel_count": 6, "total_market_value": 11014600, "total_acres": 26.6, "owner_names": ["1031 TYNE TRUST", "1233 VINTAGE PLACE TRUST", "54 PARK CRESCENT TRUST THE", "5900 EDMONDSON PIKE TRUST", "PHILLIPS STREET INVESTMENT LLC", "VINTAGE PLACE HOMES LLC"], "registered_agents": [], "principal_offices": [], "primary_sos_status": "", "primary_foreign_state": "", "brand": "", "opencorporates": "https://opencorporates.com/companies?q=1031+TYNE+TRUST&utf8=%E2%9C%93", "primary_type": "", "portfolio": {"n_parcels_with_acs": 6, "median_income": 177794, "median_home_value": 1013817, "pct_renter": 26, "pct_poverty": null, "pct_vacant": 6, "pct_black": 3, "pct_white": 86, "pct_hispanic": 5, "pct_asian": 3}, "related": [{"owner": "PHILLIPS STREET INVESTMENT LLC", "parcels": 1, "via": "mailing address"}, {"owner": "VINTAGE PLACE HOMES LLC", "parcels": 1, "via": "mailing address"}, {"owner": "5900 EDMONDSON PIKE TRUST", "parcels": 1, "via": "mailing address"}, {"owner": "1233 VINTAGE PLACE TRUST", "parcels": 1, "via": "mailing address"}, {"owner": "54 PARK CRESCENT TRUST THE", "parcels": 1, "via": "mailing address"}], "parcels": [{"parcel_id": "211511", "address": "54 PARK CRESCENT CIR", "lat": "36.093222", "lon": "-86.813445"}, {"parcel_id": "237240", "address": "1208 VINTAGE PL", "lat": "36.075542", "lon": "-86.82988", "sale_price": 3200000.0, "sale_date": "14 Aug 2025", "market_value": 2185600.0, "beds": 4.0, "bath": 4.5, "sqft": 5140.0, "year_built": "1980", "acres": 2.0}, {"parcel_id": "237249", "address": "1233 VINTAGE PL", "lat": "36.073378", "lon": "-86.827598", "sale_price": 990000.0, "sale_date": "12 Dec 2025", "market_value": 1409100.0, "beds": 4.0, "bath": 3.0, "sqft": 3213.0, "year_built": "1980", "acres": 2.3}, {"parcel_id": "237250", "address": "1229 VINTAGE PL", "lat": "36.073887", "lon": "-86.827989", "sale_price": 2500000.0, "sale_date": "12 Dec 2025", "market_value": 2435200.0, "beds": 5.0, "bath": 4.0, "sqft": 5930.125, "year_built": "1985", "acres": 2.25}, {"parcel_id": "290522", "address": "5900 EDMONDSON PIKE", "lat": "36.027566", "lon": "-86.742232", "sale_price": -1.0, "sale_date": "", "market_value": 4231800.0, "beds": 4.0, "bath": 5.0, "sqft": 12964.0, "year_built": "1985", "acres": 20.0}, {"parcel_id": "356881", "address": "912 PHILLIPS ST", "lat": "36.172282", "lon": "-86.792761", "sale_price": 499000.0, "sale_date": "15 Feb 2019", "market_value": 752900.0, "beds": 3.0, "bath": 2.5, "sqft": 2080.0, "year_built": "2006", "acres": null}]}