{"cluster_id": 1876, "name": "130 NW 30 STREET LLC", "entity_count": 1, "parcel_count": 6, "total_market_value": 2051400, "total_acres": 0.0, "owner_names": ["130 NW 30 STREET LLC"], "registered_agents": [], "principal_offices": [], "primary_sos_status": "", "primary_foreign_state": "", "brand": "", "opencorporates": "https://opencorporates.com/companies?q=130+NW+30+STREET+LLC&utf8=%E2%9C%93", "primary_type": "", "portfolio": {"n_parcels_with_acs": 6, "median_income": 87750, "median_home_value": 467500, "pct_renter": 47, "pct_poverty": null, "pct_vacant": 12, "pct_black": 36, "pct_white": 59, "pct_hispanic": 10, "pct_asian": 0}, "related": [], "parcels": [{"parcel_id": "363687", "address": "2200 BUCHANAN ST UNIT A", "lat": "36.180356", "lon": "-86.813388", "sale_price": -1.0, "sale_date": "", "market_value": 341900.0, "beds": 3.0, "bath": 2.5, "sqft": 1392.0, "year_built": "2006", "acres": null}, {"parcel_id": "363688", "address": "2200 BUCHANAN ST UNIT B", "lat": "36.180354", "lon": "-86.813317", "sale_price": -1.0, "sale_date": "", "market_value": 341900.0, "beds": 3.0, "bath": 2.5, "sqft": 1392.0, "year_built": "2006", "acres": null}, {"parcel_id": "363689", "address": "2200 BUCHANAN ST UNIT C", "lat": "36.180535", "lon": "-86.81338", "sale_price": -1.0, "sale_date": "", "market_value": 341900.0, "beds": 3.0, "bath": 2.5, "sqft": 1392.0, "year_built": "2006", "acres": null}, {"parcel_id": "363690", "address": "2200 BUCHANAN ST UNIT D", "lat": "36.180533", "lon": "-86.813312", "sale_price": -1.0, "sale_date": "", "market_value": 341900.0, "beds": 3.0, "bath": 2.5, "sqft": 1392.0, "year_built": "2006", "acres": null}, {"parcel_id": "363691", "address": "2200 BUCHANAN ST", "lat": "36.18053", "lon": "-86.813244", "sale_price": -1.0, "sale_date": "", "market_value": 341900.0, "beds": 3.0, "bath": 2.5, "sqft": 1392.0, "year_built": "2006", "acres": null}, {"parcel_id": "363692", "address": "2200 BUCHANAN ST UNIT F", "lat": "36.180528", "lon": "-86.813177", "sale_price": -1.0, "sale_date": "", "market_value": 341900.0, "beds": 3.0, "bath": 2.5, "sqft": 1392.0, "year_built": "2006", "acres": null}]}