{"cluster_id": 188, "name": "TRI STAR ENERGY LLC", "entity_count": 1, "parcel_count": 48, "total_market_value": 72791340, "total_acres": 16.9, "owner_names": ["TRI STAR ENERGY LLC"], "registered_agents": [], "principal_offices": [], "primary_sos_status": "", "primary_foreign_state": "", "brand": "", "opencorporates": "https://opencorporates.com/companies?q=TRI+STAR+ENERGY+LLC&utf8=%E2%9C%93", "primary_type": "", "portfolio": {"n_parcels_with_acs": 37, "median_income": 79807, "median_home_value": 473155, "pct_renter": 50, "pct_poverty": null, "pct_vacant": 10, "pct_black": 27, "pct_white": 55, "pct_hispanic": 14, "pct_asian": 2}, "related": [], "parcels": [{"parcel_id": "10222", "address": "150 LONG HOLLOW PIKE", "lat": "36.323426", "lon": "-86.708343", "sale_price": -1.0, "sale_date": "", "market_value": 3560000.0, "beds": 0.0, "bath": 0.0, "sqft": 0.0, "year_built": "2007", "acres": 1.18}, {"parcel_id": "10334", "address": "0 CARTWRIGHT ST", "lat": "36.323566", "lon": "-86.707969"}, {"parcel_id": "11162", "address": "750 RIVERGATE PKWY", "lat": "36.304369", "lon": "-86.70206", "sale_price": -1.0, "sale_date": "", "market_value": 1410000.0, "beds": 0.0, "bath": 0.0, "sqft": 1734.0, "year_built": "1973", "acres": 0.6}, {"parcel_id": "119317", "address": "6012 CHARLOTTE PIKE", "lat": "36.14868", "lon": "-86.866942"}, {"parcel_id": "121707", "address": "405 46TH AVE N", "lat": "36.152637", "lon": "-86.842512", "sale_price": 2150000.0, "sale_date": "20 Jan 2023", "market_value": 2232300.0, "beds": 0.0, "bath": 0.0, "sqft": 4500.0, "year_built": "1950", "acres": 0.23}, {"parcel_id": "12419", "address": "703 RIVERGATE PKWY", "lat": "36.306112", "lon": "-86.703796"}, {"parcel_id": "12764", "address": "0 RIVERGATE PKWY", "lat": "36.305851", "lon": "-86.703687"}, {"parcel_id": "141438", "address": "500 DONELSON PIKE", "lat": "36.150491", "lon": "-86.66692", "sale_price": -1.0, "sale_date": "", "market_value": 1710400.0, "beds": null, "bath": 0.0, "sqft": 1363.0, "year_built": "1995", "acres": 0.55}, {"parcel_id": "141913", "address": "3696 BELL RD", "lat": "36.151791", "lon": "-86.625783", "sale_price": -1.0, "sale_date": "", "market_value": 3534600.0, "beds": 0.0, "bath": 0.0, "sqft": 3825.0, "year_built": "2007", "acres": 0.99}, {"parcel_id": "147605", "address": "6931 CHARLOTTE PIKE", "lat": "36.129631", "lon": "-86.900647", "sale_price": -1.0, "sale_date": "", "market_value": 1636500.0, "beds": 0.0, "bath": 0.0, "sqft": 1624.0, "year_built": "1965", "acres": 0.67}, {"parcel_id": "148724", "address": "301 WHITE BRIDGE PIKE", "lat": "36.145331", "lon": "-86.858468"}, {"parcel_id": "162133", "address": "0 FAIRFIELD AVE", "lat": "36.146922", "lon": "-86.75787"}, {"parcel_id": "162134", "address": "167 LAFAYETTE ST", "lat": "36.146968", "lon": "-86.757656", "sale_price": -1.0, "sale_date": "", "market_value": 1454500.0, "beds": null, "bath": 0.0, "sqft": 2002.0, "year_built": "2008", "acres": 0.36}, {"parcel_id": "166252", "address": "2017 8TH AVE S", "lat": "36.132531", "lon": "-86.779665", "sale_price": -1.0, "sale_date": "", "market_value": 5751000.0, "beds": 0.0, "bath": 0.0, "sqft": 0.0, "year_built": "1995", "acres": 0.88}, {"parcel_id": "167192", "address": "601 FESSLERS LN", "lat": "36.144148", "lon": "-86.744715", "sale_price": -1.0, "sale_date": "", "market_value": 6915000.0, "beds": 0.0, "bath": 0.0, "sqft": 0.0, "year_built": "1998", "acres": 2.34}, {"parcel_id": "170796", "address": "801 BRILEY PKWY", "lat": "36.139318", "lon": "-86.700873", "sale_price": -1.0, "sale_date": "", "market_value": 1348300.0, "beds": 0.0, "bath": 0.0, "sqft": 2268.0, "year_built": "1986", "acres": 0.56}, {"parcel_id": "175250", "address": "0 CHARLOTTE PIKE", "lat": "36.11726", "lon": "-86.923017"}, {"parcel_id": "17765", "address": "0 WELWORTH ST", "lat": "36.282346", "lon": "-86.706758"}, {"parcel_id": "17767", "address": "1412 GALLATIN PIKE", "lat": "36.282307", "lon": "-86.707065"}, {"parcel_id": "190801", "address": "724 THOMPSON LN", "lat": "36.112574", "lon": "-86.766555"}, {"parcel_id": "191311", "address": "648 THOMPSON LN", "lat": "36.111764", "lon": "-86.757875", "sale_price": -1.0, "sale_date": "", "market_value": 2352240.0, "beds": 0.0, "bath": 0.0, "sqft": 0.0, "year_built": "2005", "acres": 0.6}, {"parcel_id": "19219", "address": "501 HICKORY HILLS BLVD", "lat": "36.27801", "lon": "-86.796916", "sale_price": 900000.0, "sale_date": "23 Dec 2013", "market_value": 2872700.0, "beds": 0.0, "bath": 0.0, "sqft": 3260.0, "year_built": "2000", "acres": 1.72}, {"parcel_id": "198830", "address": "1343 MURFREESBORO PIKE", "lat": "36.114586", "lon": "-86.694127"}, {"parcel_id": "211061", "address": "4040 HILLSBORO PIKE", "lat": "36.102932", "lon": "-86.815937", "sale_price": -1.0, "sale_date": "", "market_value": 6800000.0, "beds": 0.0, "bath": 0.0, "sqft": 0.0, "year_built": "2008", "acres": 0.57}, {"parcel_id": "21857", "address": "3863 DICKERSON PIKE", "lat": "36.268761", "lon": "-86.755254", "sale_price": -1.0, "sale_date": "", "market_value": 3330000.0, "beds": 0.0, "bath": 0.0, "sqft": 0.0, "year_built": "2010", "acres": 1.36}, {"parcel_id": "220982", "address": "1277 ANTIOCH PIKE", "lat": "36.087635", "lon": "-86.692964", "sale_price": -1.0, "sale_date": "", "market_value": 3245700.0, "beds": null, "bath": 0.0, "sqft": 4034.0, "year_built": "2020", "acres": 1.04}, {"parcel_id": "227661", "address": "8020 MCCRORY LN", "lat": "36.078481", "lon": "-87.021141", "sale_price": -1.0, "sale_date": "", "market_value": 3954300.0, "beds": null, "bath": 0.0, "sqft": 4881.0, "year_built": "2015", "acres": null}, {"parcel_id": "228004", "address": "7691 HIGHWAY 70 S", "lat": "36.079541", "lon": "-86.954284", "sale_price": -1.0, "sale_date": "", "market_value": 2600000.0, "beds": 0.0, "bath": 0.0, "sqft": 0.0, "year_built": "1991", "acres": 0.98}, {"parcel_id": "269426", "address": "5644 FRANKLIN PIKE CIR", "lat": "36.03793", "lon": "-86.787003", "sale_price": -1.0, "sale_date": "", "market_value": null, "beds": null, "bath": 0.0, "sqft": 0.0, "year_built": "2000", "acres": null}, {"parcel_id": "283237", "address": "8000 BROOKS CHAPEL RD", "lat": "36.036616", "lon": "-86.785543", "sale_price": -1.0, "sale_date": "", "market_value": 1728500.0, "beds": 0.0, "bath": 0.0, "sqft": 6904.0, "year_built": "1987", "acres": 0.53}, {"parcel_id": "289583", "address": "6029 NOLENSVILLE PIKE", "lat": "36.024998", "lon": "-86.713466", "sale_price": 1100000.0, "sale_date": "26 Mar 2010", "market_value": 3191000.0, "beds": 0.0, "bath": 0.0, "sqft": 0.0, "year_built": "2020", "acres": 1.06}, {"parcel_id": "300788", "address": "", "lat": "", "lon": ""}, {"parcel_id": "300789", "address": "", "lat": "", "lon": ""}, {"parcel_id": "30144", "address": "", "lat": "", "lon": ""}, {"parcel_id": "30146", "address": "", "lat": "", "lon": ""}, {"parcel_id": "30648", "address": "", "lat": "", "lon": ""}, {"parcel_id": "30650", "address": "", "lat": "", "lon": ""}, {"parcel_id": "30861", "address": "", "lat": "", "lon": ""}, {"parcel_id": "418631", "address": "5012 OLD HICKORY BLVD", "lat": "36.193132", "lon": "-86.615628", "sale_price": -1.0, "sale_date": "", "market_value": 2560000.0, "beds": null, "bath": 0.0, "sqft": 0.0, "year_built": "2015", "acres": null}, {"parcel_id": "448954", "address": "3341 WHITES CREEK PIKE", "lat": "36.235965", "lon": "-86.815812", "sale_price": -1.0, "sale_date": "", "market_value": 3644300.0, "beds": null, "bath": 0.0, "sqft": 4997.0, "year_built": "2022", "acres": null}, {"parcel_id": "448955", "address": "0 WHITES CREEK PIKE", "lat": "36.235443", "lon": "-86.815418"}, {"parcel_id": "48488", "address": "", "lat": "", "lon": ""}, {"parcel_id": "48491", "address": "", "lat": "", "lon": ""}, {"parcel_id": "54873", "address": "4800 GALLATIN PIKE", "lat": "36.231561", "lon": "-86.7245", "sale_price": -1.0, "sale_date": "", "market_value": 2460000.0, "beds": 0.0, "bath": 0.0, "sqft": 0.0, "year_built": "1983", "acres": 0.69}, {"parcel_id": "5887", "address": "211 E CEDAR ST", "lat": "36.324145", "lon": "-86.708508"}, {"parcel_id": "5897", "address": "0 E CEDAR ST", "lat": "36.323994", "lon": "-86.708729"}, {"parcel_id": "65934", "address": "5106 OLD HICKORY BLVD", "lat": "36.212078", "lon": "-86.919435", "sale_price": -1.0, "sale_date": "", "market_value": 4500000.0, "beds": null, "bath": 0.0, "sqft": 0.0, "year_built": "2004", "acres": null}, {"parcel_id": "68590", "address": "2312 BRICK CHURCH PIKE", "lat": "36.208662", "lon": "-86.778152"}]}