{"cluster_id": 1913, "name": "800 MAIN DEVELOPMENT PARTNERS LLC", "entity_count": 3, "parcel_count": 6, "total_market_value": 22783100, "total_acres": 4.8, "owner_names": ["800 MAIN DEVELOPMENT PARTNERS LLC", "ALTA CONSTRUCTORS LLC", "RAGGEDY INC"], "registered_agents": [], "principal_offices": [], "primary_sos_status": "", "primary_foreign_state": "", "brand": "", "opencorporates": "https://opencorporates.com/companies?q=800+MAIN+DEVELOPMENT+PARTNERS+LLC&utf8=%E2%9C%93", "primary_type": "", "portfolio": {"n_parcels_with_acs": 4, "median_income": 108606, "median_home_value": 604475, "pct_renter": 32, "pct_poverty": null, "pct_vacant": 12, "pct_black": 24, "pct_white": 61, "pct_hispanic": 10, "pct_asian": 3}, "related": [{"owner": "ALTA CONSTRUCTORS LLC", "parcels": 2, "via": "mailing address"}, {"owner": "RAGGEDY INC", "parcels": 1, "via": "mailing address"}], "parcels": [{"parcel_id": "193398", "address": "2515 NOLENSVILLE PIKE", "lat": "36.117822", "lon": "-86.749066", "sale_price": -1.0, "sale_date": "", "market_value": 405300.0, "beds": 0.0, "bath": 0.0, "sqft": 3744.0, "year_built": "1960", "acres": 0.17}, {"parcel_id": "68623", "address": "2602 FLAMINGO DR", "lat": "36.212246", "lon": "-86.755513", "sale_price": -1.0, "sale_date": "", "market_value": 251100.0, "beds": 3.0, "bath": 1.0, "sqft": 1444.0, "year_built": "1949", "acres": 0.29}, {"parcel_id": "78673", "address": "", "lat": "", "lon": ""}, {"parcel_id": "99459", "address": "800 MAIN ST", "lat": "36.174937", "lon": "-86.758186", "sale_price": -1.0, "sale_date": "", "market_value": 17718500.0, "beds": 0.0, "bath": 0.0, "sqft": 79470.0, "year_built": "1975", "acres": 3.72}, {"parcel_id": "99589", "address": "819 WOODLAND ST", "lat": "36.175031", "lon": "-86.757255", "sale_price": -1.0, "sale_date": "", "market_value": 1419500.0, "beds": 0.0, "bath": 0.0, "sqft": 3156.0, "year_built": "1990", "acres": 0.19}, {"parcel_id": "99590", "address": "823 WOODLAND ST", "lat": "36.175121", "lon": "-86.757027", "sale_price": 2850000.0, "sale_date": "19 Sep 2024", "market_value": 2988700.0, "beds": 0.0, "bath": 0.0, "sqft": 7500.0, "year_built": "1990", "acres": 0.38}]}