{"cluster_id": 1926, "name": "AMERICAN TOWER MANAGEMENT INC", "entity_count": 1, "parcel_count": 6, "total_market_value": 0, "total_acres": 0.0, "owner_names": ["AMERICAN TOWER MANAGEMENT INC"], "registered_agents": ["(none)"], "principal_offices": ["116 HUNTINGTON AVE, BOSTON, MA 02116"], "primary_sos_status": "", "primary_foreign_state": "", "brand": "", "opencorporates": "https://opencorporates.com/companies?q=AMERICAN+TOWER+MANAGEMENT+INC&utf8=%E2%9C%93", "primary_type": "", "portfolio": {"n_parcels_with_acs": 6, "median_income": 108377, "median_home_value": 468367, "pct_renter": 19, "pct_poverty": null, "pct_vacant": 8, "pct_black": 9, "pct_white": 80, "pct_hispanic": 6, "pct_asian": 2}, "related": [], "parcels": [{"parcel_id": "124598", "address": "607 33RD AVE N", "lat": "36.154782", "lon": "-86.824207"}, {"parcel_id": "124599", "address": "605 33RD AVE N", "lat": "36.154646", "lon": "-86.824162"}, {"parcel_id": "124692", "address": "603 33RD AVE N", "lat": "36.154479", "lon": "-86.824078"}, {"parcel_id": "174870", "address": "8129 DUFFIELD RD", "lat": "36.119881", "lon": "-86.984034"}, {"parcel_id": "2666", "address": "2797 GREER RD", "lat": "36.351469", "lon": "-86.784156"}, {"parcel_id": "298597", "address": "5991 CANE RIDGE RD", "lat": "36.004687", "lon": "-86.639911"}]}