{"cluster_id": 1936, "name": "PRINE FIONA WHELAN FAMILY TRUST", "entity_count": 4, "parcel_count": 6, "total_market_value": 3425600, "total_acres": 1.2, "owner_names": ["BEHOLD HOW GOOD FAMILY TRUST THE", "HUNTER S REST TRUST", "ORION TRUST", "PRINE FIONA WHELAN FAMILY TRUST"], "registered_agents": [], "principal_offices": [], "primary_sos_status": "", "primary_foreign_state": "", "brand": "", "opencorporates": "https://opencorporates.com/companies?q=PRINE+FIONA+WHELAN+FAMILY+TRUST&utf8=%E2%9C%93", "primary_type": "", "portfolio": {"n_parcels_with_acs": 6, "median_income": 130518, "median_home_value": 675833, "pct_renter": 40, "pct_poverty": null, "pct_vacant": 7, "pct_black": 9, "pct_white": 76, "pct_hispanic": 12, "pct_asian": 5}, "related": [{"owner": "HUNTER S REST TRUST", "parcels": 1, "via": "mailing address"}, {"owner": "ORION TRUST", "parcels": 1, "via": "mailing address"}, {"owner": "BEHOLD HOW GOOD FAMILY TRUST THE", "parcels": 1, "via": "mailing address"}], "parcels": [{"parcel_id": "149518", "address": "194 FORESTWOOD DR", "lat": "36.136355", "lon": "-86.869671", "sale_price": 1750000.0, "sale_date": "27 Feb 2025", "market_value": 1261600.0, "beds": 4.0, "bath": 3.5, "sqft": 3863.5, "year_built": "2015", "acres": 1.03}, {"parcel_id": "193652", "address": "327 ELBERTA ST", "lat": "36.11876", "lon": "-86.74852", "sale_price": 840000.0, "sale_date": "16 Sep 2022", "market_value": 908200.0, "beds": 9.0, "bath": 4.0, "sqft": 3889.0, "year_built": "1990", "acres": 0.22}, {"parcel_id": "210193", "address": "522 BELAIR WAY", "lat": "36.094502", "lon": "-86.815677", "sale_price": 565000.0, "sale_date": "25 Aug 2025", "market_value": 524000.0, "beds": 3.0, "bath": 2.5, "sqft": 1330.0, "year_built": "2000", "acres": 0.0}, {"parcel_id": "287621", "address": "227 HOLT HILLS RD", "lat": "36.023059", "lon": "-86.72678"}, {"parcel_id": "477286", "address": "0 HOLT HILLS RD", "lat": "36.025123", "lon": "-86.724757"}, {"parcel_id": "95166", "address": "1400 ROSA L PARKS BLVD APT 111", "lat": "36.178811", "lon": "-86.793995", "sale_price": 950000.0, "sale_date": "10 Jan 2022", "market_value": 731800.0, "beds": 1.0, "bath": 2.0, "sqft": 1134.0, "year_built": "2015", "acres": null}]}