{"cluster_id": 1948, "name": "O I C HOMES AT 6344 COLUMBIA AVENUE", "entity_count": 6, "parcel_count": 6, "total_market_value": 0, "total_acres": 0.0, "owner_names": ["BRADFORD REALTY PARTNERS", "O I C HOMES AT 1100 1102 LIPSCOMB DR", "O I C HOMES AT 1529 ARTHUR AVENUE", "O I C HOMES AT 2713 TORBETT ST TOWNHOME", "O I C HOMES AT 4115 ALBERT DRIVE", "O I C HOMES AT 6344 COLUMBIA AVENUE"], "registered_agents": [], "principal_offices": [], "primary_sos_status": "", "primary_foreign_state": "", "brand": "", "opencorporates": "https://opencorporates.com/companies?q=O+I+C+HOMES+AT+6344+COLUMBIA+AVENUE&utf8=%E2%9C%93", "primary_type": "", "portfolio": {"n_parcels_with_acs": 6, "median_income": 100899, "median_home_value": 762633, "pct_renter": 43, "pct_poverty": null, "pct_vacant": 10, "pct_black": 30, "pct_white": 63, "pct_hispanic": 2, "pct_asian": 3}, "related": [{"owner": "BRADFORD REALTY PARTNERS", "parcels": 1, "via": "mailing address"}, {"owner": "O I C HOMES AT 4115 ALBERT DRIVE", "parcels": 1, "via": "mailing address"}, {"owner": "O I C HOMES AT 1100 1102 LIPSCOMB DR", "parcels": 1, "via": "mailing address"}, {"owner": "O I C HOMES AT 1529 ARTHUR AVENUE", "parcels": 1, "via": "mailing address"}, {"owner": "O I C HOMES AT 2713 TORBETT ST TOWNHOME", "parcels": 1, "via": "mailing address"}], "parcels": [{"parcel_id": "447659", "address": "1102B LIPSCOMB DR", "lat": "36.092092", "lon": "-86.796639"}, {"parcel_id": "447662", "address": "4115B ALBERT DR", "lat": "36.099284", "lon": "-86.789482"}, {"parcel_id": "447676", "address": "6344 COLUMBIA AVE", "lat": "36.152242", "lon": "-86.871676"}, {"parcel_id": "447945", "address": "2713 TORBETT ST", "lat": "36.157134", "lon": "-86.818024"}, {"parcel_id": "450294", "address": "1939 WARFIELD DR", "lat": "36.102542", "lon": "-86.815259"}, {"parcel_id": "450526", "address": "1527C ARTHUR AVE", "lat": "36.176076", "lon": "-86.799995"}]}