{"cluster_id": 1954, "name": "BROADBAND NASHVILLE I LLC", "entity_count": 2, "parcel_count": 6, "total_market_value": 15928500, "total_acres": 6.5, "owner_names": ["BROADBAND NASHVILLE I LLC", "COMCAST OF NASHVILLE I LLC"], "registered_agents": [], "principal_offices": [], "primary_sos_status": "", "primary_foreign_state": "", "brand": "", "opencorporates": "https://opencorporates.com/companies?q=BROADBAND+NASHVILLE+I+LLC&utf8=%E2%9C%93", "primary_type": "", "portfolio": {"n_parcels_with_acs": 4, "median_income": 75242, "median_home_value": 411240, "pct_renter": 41, "pct_poverty": null, "pct_vacant": 7, "pct_black": 32, "pct_white": 50, "pct_hispanic": 12, "pct_asian": 3}, "related": [{"owner": "COMCAST OF NASHVILLE I LLC", "parcels": 1, "via": "mailing address"}], "parcels": [{"parcel_id": "14220", "address": "1262 OLD DICKERSON PIKE", "lat": "36.289082", "lon": "-86.743536"}, {"parcel_id": "203099", "address": "592 HICKS RD", "lat": "36.086378", "lon": "-86.93557"}, {"parcel_id": "249602", "address": "328 RURAL HILL RD", "lat": "36.074817", "lon": "-86.637735", "sale_price": -1.0, "sale_date": "", "market_value": 50900.0, "beds": 0.0, "bath": 0.0, "sqft": 300.0, "year_built": "1996", "acres": 0.07}, {"parcel_id": "68428", "address": "", "lat": "", "lon": ""}, {"parcel_id": "68436", "address": "660 MAINSTREAM DR", "lat": "36.196118", "lon": "-86.817015", "sale_price": -1.0, "sale_date": "", "market_value": 15877600.0, "beds": 0.0, "bath": 0.0, "sqft": 56866.0, "year_built": "1980", "acres": 6.4}, {"parcel_id": "88446", "address": "505 TULIP GROVE RD", "lat": "36.213863", "lon": "-86.588211"}]}