{"cluster_id": 1962, "name": "BUILD NASHVILLE HOLDINGS LLC", "entity_count": 6, "parcel_count": 6, "total_market_value": 1671400, "total_acres": 0.2, "owner_names": ["BUILD NASHVILLE HOLDINGS LLC", "O I C HOMES AT 1221 LONE OAK ROAD", "O I C HOMES AT 16 18 WILLIS STREET AM", "O I C HOMES AT 420 WEST BEND DRIVE", "O I C HOMES AT 4405 HUNT PLACE", "O I C HOMES AT 820 KIRKWOOD AVENUE"], "registered_agents": [], "principal_offices": [], "primary_sos_status": "", "primary_foreign_state": "", "brand": "", "opencorporates": "https://opencorporates.com/companies?q=BUILD+NASHVILLE+HOLDINGS+LLC&utf8=%E2%9C%93", "primary_type": "", "portfolio": {"n_parcels_with_acs": 6, "median_income": 93523, "median_home_value": 711150, "pct_renter": 42, "pct_poverty": null, "pct_vacant": 14, "pct_black": 19, "pct_white": 65, "pct_hispanic": 9, "pct_asian": 2}, "related": [{"owner": "O I C HOMES AT 4405 HUNT PLACE", "parcels": 1, "via": "mailing address"}, {"owner": "O I C HOMES AT 1221 LONE OAK ROAD", "parcels": 1, "via": "mailing address"}, {"owner": "O I C HOMES AT 16 18 WILLIS STREET AM", "parcels": 1, "via": "mailing address"}, {"owner": "O I C HOMES AT 820 KIRKWOOD AVENUE", "parcels": 1, "via": "mailing address"}, {"owner": "O I C HOMES AT 420 WEST BEND DRIVE", "parcels": 1, "via": "mailing address"}], "parcels": [{"parcel_id": "148030", "address": "214 54TH AVE N", "lat": "36.14629", "lon": "-86.851663", "sale_price": 1940000.0, "sale_date": "7 Apr 2026", "market_value": 1671400.0, "beds": 4.0, "bath": 4.0, "sqft": 3601.0, "year_built": "2025", "acres": 0.18}, {"parcel_id": "455106", "address": "420C W BEND DR", "lat": "36.14833", "lon": "-86.870609"}, {"parcel_id": "457747", "address": "1223B LONE OAK RD", "lat": "36.093645", "lon": "-86.805582"}, {"parcel_id": "462121", "address": "4405C HUNT PL", "lat": "36.096275", "lon": "-86.807926"}, {"parcel_id": "466026", "address": "16 WILLIS ST", "lat": "36.194792", "lon": "-86.777908"}, {"parcel_id": "467299", "address": "820C KIRKWOOD AVE", "lat": "36.121321", "lon": "-86.778131"}]}