{"cluster_id": 1979, "name": "MORIOKA JOHN K LIVING TRUST THE", "entity_count": 4, "parcel_count": 6, "total_market_value": 2015900, "total_acres": 1.7, "owner_names": ["CHELSEA HALE LLC", "HOMELAND INVESTMENTS LLC", "MORIOKA JOHN K LIVING TRUST THE", "MORIOKA JOHN LIVING TRUST"], "registered_agents": [], "principal_offices": [], "primary_sos_status": "", "primary_foreign_state": "", "brand": "", "opencorporates": "https://opencorporates.com/companies?q=MORIOKA+JOHN+K+LIVING+TRUST+THE&utf8=%E2%9C%93", "primary_type": "", "portfolio": {"n_parcels_with_acs": 6, "median_income": 83933, "median_home_value": 333333, "pct_renter": 32, "pct_poverty": null, "pct_vacant": 6, "pct_black": 34, "pct_white": 53, "pct_hispanic": 6, "pct_asian": 1}, "related": [{"owner": "HOMELAND INVESTMENTS LLC", "parcels": 2, "via": "mailing address"}, {"owner": "CHELSEA HALE LLC", "parcels": 1, "via": "mailing address"}, {"owner": "MORIOKA JOHN LIVING TRUST", "parcels": 1, "via": "mailing address"}], "parcels": [{"parcel_id": "256083", "address": "2967 ANDERSON RD", "lat": "36.073702", "lon": "-86.624285", "sale_price": 128000.0, "sale_date": "30 Dec 2015", "market_value": 291600.0, "beds": 4.0, "bath": 2.0, "sqft": 1841.0, "year_built": "1975", "acres": 0.39}, {"parcel_id": "256547", "address": "3025 CHELSEA WAY", "lat": "36.081867", "lon": "-86.601589", "sale_price": 65000.0, "sale_date": "30 Dec 2011", "market_value": 230000.0, "beds": 3.0, "bath": 1.5, "sqft": 1066.0, "year_built": "1985", "acres": 0.22}, {"parcel_id": "259406", "address": "1004 WESLEYVILLE ST", "lat": "36.080905", "lon": "-86.613572", "sale_price": -1.0, "sale_date": "", "market_value": 369000.0, "beds": 4.0, "bath": 4.0, "sqft": 2048.0, "year_built": "1984", "acres": 0.26}, {"parcel_id": "259408", "address": "1008 WESLEYVILLE ST", "lat": "36.081116", "lon": "-86.613417", "sale_price": -1.0, "sale_date": "", "market_value": 369000.0, "beds": 4.0, "bath": 4.0, "sqft": 2048.0, "year_built": "1984", "acres": 0.27}, {"parcel_id": "270768", "address": "5173 HILSON RD", "lat": "36.050411", "lon": "-86.725906", "sale_price": 172500.0, "sale_date": "8 Jan 2016", "market_value": 387000.0, "beds": 4.0, "bath": 3.0, "sqft": 2138.0, "year_built": "1975", "acres": 0.26}, {"parcel_id": "82839", "address": "500 TRENTON CT", "lat": "36.213333", "lon": "-86.592334", "sale_price": 164900.0, "sale_date": "19 Jan 2016", "market_value": 369300.0, "beds": 4.0, "bath": 4.0, "sqft": 1945.0, "year_built": "1974", "acres": 0.3}]}