{"cluster_id": 1988, "name": "PORTICO 3 LLC", "entity_count": 2, "parcel_count": 6, "total_market_value": 2093100, "total_acres": 0.9, "owner_names": ["CORBEL HOMES 31A LLC", "PORTICO 3 LLC"], "registered_agents": ["CORPORATION SERVICE COMPANY"], "principal_offices": ["205 DATURA ST SUITE 200, WEST PALM BEACH, FL 33401"], "primary_sos_status": "", "primary_foreign_state": "", "brand": "", "opencorporates": "https://opencorporates.com/companies?q=PORTICO+3+LLC&utf8=%E2%9C%93", "primary_type": "", "portfolio": {"n_parcels_with_acs": 5, "median_income": 83674, "median_home_value": 418533, "pct_renter": 40, "pct_poverty": null, "pct_vacant": 8, "pct_black": 35, "pct_white": 37, "pct_hispanic": 24, "pct_asian": 3}, "related": [{"owner": "CORBEL HOMES 31A LLC", "parcels": 1, "via": "mailing address"}], "parcels": [{"parcel_id": "111441", "address": "4228 VALLEY GROVE DR", "lat": "36.173627", "lon": "-86.590963", "sale_price": 282500.0, "sale_date": "2 May 2022", "market_value": 291900.0, "beds": 3.0, "bath": 2.0, "sqft": 1159.0, "year_built": "1982", "acres": 0.31}, {"parcel_id": "219305", "address": "294 CATHY JO DR", "lat": "36.090746", "lon": "-86.722505", "sale_price": 377400.0, "sale_date": "12 Aug 2022", "market_value": 344400.0, "beds": 3.0, "bath": 1.5, "sqft": 1250.0, "year_built": "1966", "acres": 0.29}, {"parcel_id": "26686", "address": "1040 MALLOW DR", "lat": "36.258368", "lon": "-86.679942", "sale_price": 329500.0, "sale_date": "21 Jul 2022", "market_value": 346000.0, "beds": 3.0, "bath": 2.0, "sqft": 1402.0, "year_built": "2010", "acres": 0.23}, {"parcel_id": "296318", "address": "7016 HICKORY PASS LN", "lat": "36.0361", "lon": "-86.58456", "sale_price": 355000.0, "sale_date": "17 Oct 2022", "market_value": 423500.0, "beds": 3.0, "bath": 2.5, "sqft": 2044.0, "year_built": "2010", "acres": null}, {"parcel_id": "306737", "address": "1815 LIBERIA ST", "lat": "36.203744", "lon": "-86.782984", "sale_price": 370000.0, "sale_date": "4 Aug 2022", "market_value": 294000.0, "beds": 3.0, "bath": 2.0, "sqft": 1115.0, "year_built": "2006", "acres": null}, {"parcel_id": "45151", "address": "2608 ELLIOTT DR", "lat": "36.247079", "lon": "-86.638976", "sale_price": 300476.0, "sale_date": "25 Aug 2021", "market_value": 393300.0, "beds": 3.0, "bath": 3.0, "sqft": 1570.0, "year_built": "2021", "acres": 0.11}]}