{"cluster_id": 2037, "name": "GOLDBERG FAMILY TRUST", "entity_count": 1, "parcel_count": 6, "total_market_value": 3249300, "total_acres": 0.5, "owner_names": ["GOLDBERG FAMILY TRUST"], "registered_agents": [], "principal_offices": [], "primary_sos_status": "", "primary_foreign_state": "", "brand": "", "opencorporates": "https://opencorporates.com/companies?q=GOLDBERG+FAMILY+TRUST&utf8=%E2%9C%93", "primary_type": "", "portfolio": {"n_parcels_with_acs": 6, "median_income": 69817, "median_home_value": 352650, "pct_renter": 49, "pct_poverty": null, "pct_vacant": 19, "pct_black": 64, "pct_white": 31, "pct_hispanic": 2, "pct_asian": 1}, "related": [], "parcels": [{"parcel_id": "123086", "address": "2517 BATAVIA ST", "lat": "36.16134", "lon": "-86.815485", "sale_price": 399900.0, "sale_date": "27 Oct 2020", "market_value": 502200.0, "beds": 4.0, "bath": 3.5, "sqft": 2262.0, "year_built": "2020", "acres": 0.09}, {"parcel_id": "447831", "address": "2411A BOOKER ST", "lat": "36.160482", "lon": "-86.812789", "sale_price": 413000.0, "sale_date": "16 Oct 2020", "market_value": 542600.0, "beds": 3.0, "bath": 2.5, "sqft": 1848.0, "year_built": "2020", "acres": null}, {"parcel_id": "447832", "address": "2411 BOOKER ST", "lat": "36.160245", "lon": "-86.812828", "sale_price": 413000.0, "sale_date": "16 Oct 2020", "market_value": 542600.0, "beds": 3.0, "bath": 2.5, "sqft": 1848.0, "year_built": "2020", "acres": null}, {"parcel_id": "447834", "address": "2411C BOOKER ST", "lat": "36.160495", "lon": "-86.812904", "sale_price": 413000.0, "sale_date": "9 Oct 2020", "market_value": 542600.0, "beds": 3.0, "bath": 2.5, "sqft": 1848.0, "year_built": "2020", "acres": null}, {"parcel_id": "447835", "address": "2411D BOOKER ST", "lat": "36.160259", "lon": "-86.812943", "sale_price": 413000.0, "sale_date": "9 Oct 2020", "market_value": 542600.0, "beds": 3.0, "bath": 2.5, "sqft": 1848.0, "year_built": "2020", "acres": null}, {"parcel_id": "86650", "address": "613 BELGIUM DR", "lat": "36.201953", "lon": "-86.599603", "sale_price": 436000.0, "sale_date": "20 Aug 2021", "market_value": 576700.0, "beds": 4.0, "bath": 4.5, "sqft": 3669.8, "year_built": "2005", "acres": 0.37}]}