{"cluster_id": 2103, "name": "MMP GULCH HOLDINGS LLC", "entity_count": 3, "parcel_count": 6, "total_market_value": 18109800, "total_acres": 0.9, "owner_names": ["MARTIN MARTIN PROPERTIES LLC", "MARTIN MARTIN PROPERTIES LLC GULCH 123 HOLDINGS LLC", "MMP GULCH HOLDINGS LLC"], "registered_agents": ["INCORPORATING SERVICES, LTD., INC."], "principal_offices": ["208 W Main St Ste 4, Visalia, CA 93291"], "primary_sos_status": "", "primary_foreign_state": "", "brand": "", "opencorporates": "https://opencorporates.com/companies?q=MMP+GULCH+HOLDINGS+LLC&utf8=%E2%9C%93", "primary_type": "", "portfolio": {"n_parcels_with_acs": 5, "median_income": 85435, "median_home_value": 594160, "pct_renter": 60, "pct_poverty": null, "pct_vacant": 16, "pct_black": 35, "pct_white": 55, "pct_hispanic": 8, "pct_asian": 2}, "related": [{"owner": "MARTIN MARTIN PROPERTIES LLC", "parcels": 1, "via": "principal office"}, {"owner": "MARTIN MARTIN PROPERTIES LLC GULCH 123 HOLDINGS LLC", "parcels": 1, "via": "mailing address"}], "parcels": [{"parcel_id": "130610", "address": "123 12TH AVE N", "lat": "36.157584", "lon": "-86.788489", "sale_price": -1.0, "sale_date": "", "market_value": 15818100.0, "beds": null, "bath": 0.0, "sqft": 20220.0, "year_built": "2010", "acres": 0.5}, {"parcel_id": "130611", "address": "", "lat": "", "lon": ""}, {"parcel_id": "192274", "address": "2904 MCNAIRY LN", "lat": "36.113274", "lon": "-86.779826", "sale_price": 814000.0, "sale_date": "23 Apr 2025", "market_value": 717700.0, "beds": 4.0, "bath": 2.0, "sqft": 1746.0, "year_built": "1985", "acres": 0.22}, {"parcel_id": "424942", "address": "717 STOCKELL ST", "lat": "36.183933", "lon": "-86.769525", "sale_price": 620000.0, "sale_date": "13 Mar 2025", "market_value": 723400.0, "beds": 3.0, "bath": 3.0, "sqft": 2339.0, "year_built": "2018", "acres": null}, {"parcel_id": "439977", "address": "1225 4TH AVE S APT 204", "lat": "36.143356", "lon": "-86.765853", "sale_price": 450000.0, "sale_date": "23 Apr 2025", "market_value": 471600.0, "beds": 1.0, "bath": 2.5, "sqft": 1318.0, "year_built": "2016", "acres": null}, {"parcel_id": "98182", "address": "705 N 5TH CT", "lat": "36.183472", "lon": "-86.76338", "sale_price": 440000.0, "sale_date": "23 Apr 2025", "market_value": 379000.0, "beds": 2.0, "bath": 2.0, "sqft": 925.0, "year_built": "2005", "acres": 0.18}]}