{"cluster_id": 2132, "name": "O I C HOMES AT 1610 MARSDEN II", "entity_count": 6, "parcel_count": 6, "total_market_value": 0, "total_acres": 0.0, "owner_names": ["NORTH BY NORTHWEST DEVELOPMENT LLC", "O I C HOMES AT 1430 BENJAMIN", "O I C HOMES AT 1610 MARSDEN II", "O I C HOMES AT 1614 MARSDEN I 1ST AMEND", "O I C HOMES AT 2034 STRAIGHTWAY AVENUE", "O I C HOMES AT 927 BOSCOBEL STREET"], "registered_agents": [], "principal_offices": [], "primary_sos_status": "", "primary_foreign_state": "", "brand": "", "opencorporates": "https://opencorporates.com/companies?q=O+I+C+HOMES+AT+1610+MARSDEN+II&utf8=%E2%9C%93", "primary_type": "", "portfolio": {"n_parcels_with_acs": 4, "median_income": 111154, "median_home_value": 548560, "pct_renter": 40, "pct_poverty": null, "pct_vacant": 2, "pct_black": 27, "pct_white": 58, "pct_hispanic": 3, "pct_asian": 3}, "related": [{"owner": "O I C HOMES AT 1430 BENJAMIN", "parcels": 1, "via": "mailing address"}, {"owner": "O I C HOMES AT 1614 MARSDEN I 1ST AMEND", "parcels": 1, "via": "mailing address"}, {"owner": "O I C HOMES AT 2034 STRAIGHTWAY AVENUE", "parcels": 1, "via": "mailing address"}, {"owner": "NORTH BY NORTHWEST DEVELOPMENT LLC", "parcels": 1, "via": "mailing address"}, {"owner": "O I C HOMES AT 927 BOSCOBEL STREET", "parcels": 1, "via": "mailing address"}], "parcels": [{"parcel_id": "100549", "address": "", "lat": "", "lon": ""}, {"parcel_id": "406711", "address": "1432 BENJAMIN ST", "lat": "36.186445", "lon": "-86.740619"}, {"parcel_id": "408557", "address": "927C BOSCOBEL ST", "lat": "36.172915", "lon": "-86.752792"}, {"parcel_id": "409390", "address": "1614F MARSDEN AVE", "lat": "36.201007", "lon": "-86.723952"}, {"parcel_id": "409394", "address": "1614 MARSDEN AVE", "lat": "36.20102", "lon": "-86.724111"}, {"parcel_id": "411701", "address": "2036B STRAIGHTWAY AVE", "lat": "36.191685", "lon": "-86.729261"}]}