{"cluster_id": 2145, "name": "O I C HOMES AT 565 CROLEY DRIVE", "entity_count": 5, "parcel_count": 6, "total_market_value": 0, "total_acres": 0.0, "owner_names": ["O I C HOMES AT 565 CROLEY DRIVE", "O I C HOMES AT 6006 LOUISIANA AVENUE", "O I C HOMES AT 6204 NEW YORK AVENUE", "O I C HOMES AT 6360 COLUMBIA AVENUE", "O I C THE HOMES AT 510 CROLEY DRIVE"], "registered_agents": [], "principal_offices": [], "primary_sos_status": "", "primary_foreign_state": "", "brand": "", "opencorporates": "https://opencorporates.com/companies?q=O+I+C+HOMES+AT+565+CROLEY+DRIVE&utf8=%E2%9C%93", "primary_type": "", "portfolio": {"n_parcels_with_acs": 5, "median_income": 108536, "median_home_value": 586280, "pct_renter": 28, "pct_poverty": null, "pct_vacant": 3, "pct_black": 11, "pct_white": 79, "pct_hispanic": 5, "pct_asian": 1}, "related": [{"owner": "O I C HOMES AT 6006 LOUISIANA AVENUE", "parcels": 1, "via": "mailing address"}, {"owner": "O I C HOMES AT 6360 COLUMBIA AVENUE", "parcels": 1, "via": "mailing address"}, {"owner": "O I C HOMES AT 6204 NEW YORK AVENUE", "parcels": 1, "via": "mailing address"}, {"owner": "O I C THE HOMES AT 510 CROLEY DRIVE", "parcels": 1, "via": "mailing address"}], "parcels": [{"parcel_id": "430579", "address": "6204C NEW YORK AVE", "lat": "36.168018", "lon": "-86.861507"}, {"parcel_id": "430754", "address": "", "lat": "", "lon": ""}, {"parcel_id": "430861", "address": "6006C LOUISIANA AVE", "lat": "36.163808", "lon": "-86.860827"}, {"parcel_id": "430957", "address": "510 CROLEY DR", "lat": "36.151054", "lon": "-86.871541"}, {"parcel_id": "431828", "address": "6360 COLUMBIA AVE", "lat": "36.152426", "lon": "-86.873311"}, {"parcel_id": "477972", "address": "565 CROLEY DR", "lat": "36.153416", "lon": "-86.875571"}]}