{"cluster_id": 2148, "name": "OAK HOME OFFERS LLC", "entity_count": 1, "parcel_count": 6, "total_market_value": 1370500, "total_acres": 1.7, "owner_names": ["OAK HOME OFFERS LLC"], "registered_agents": [], "principal_offices": [], "primary_sos_status": "", "primary_foreign_state": "", "brand": "", "opencorporates": "https://opencorporates.com/companies?q=OAK+HOME+OFFERS+LLC&utf8=%E2%9C%93", "primary_type": "", "portfolio": {"n_parcels_with_acs": 5, "median_income": 74006, "median_home_value": 462600, "pct_renter": 46, "pct_poverty": null, "pct_vacant": 8, "pct_black": 21, "pct_white": 66, "pct_hispanic": 7, "pct_asian": 5}, "related": [], "parcels": [{"parcel_id": "102149", "address": "", "lat": "", "lon": ""}, {"parcel_id": "107121", "address": "215 COTTAGE LN", "lat": "36.172534", "lon": "-86.691893", "sale_price": 285000.0, "sale_date": "19 Mar 2026", "market_value": 326800.0, "beds": 3.0, "bath": 1.5, "sqft": 1262.0, "year_built": "1955", "acres": 0.34}, {"parcel_id": "117465", "address": "1036 43RD AVE N", "lat": "36.16322", "lon": "-86.838439", "sale_price": 215000.0, "sale_date": "6 Mar 2026", "market_value": 273800.0, "beds": 2.0, "bath": 1.0, "sqft": 672.0, "year_built": "1957", "acres": 0.17}, {"parcel_id": "141284", "address": "2881 LYNCREST DR", "lat": "36.150969", "lon": "-86.660788", "sale_price": 330000.0, "sale_date": "30 Oct 2024", "market_value": 332600.0, "beds": 3.0, "bath": 2.0, "sqft": 1186.0, "year_built": "1959", "acres": 0.48}, {"parcel_id": "474821", "address": "2129 ACKLEN AVE APT 6", "lat": "36.135539", "lon": "-86.803832"}, {"parcel_id": "81621", "address": "2408 RIDGELAND DR", "lat": "36.201486", "lon": "-86.679927", "sale_price": 700000.0, "sale_date": "17 Apr 2026", "market_value": 437300.0, "beds": 3.0, "bath": 2.0, "sqft": 1207.0, "year_built": "1955", "acres": 0.73}]}