{"cluster_id": 2152, "name": "PARRIS FAMILY TRUST THE", "entity_count": 1, "parcel_count": 6, "total_market_value": 1648600, "total_acres": 1.6, "owner_names": ["PARRIS FAMILY TRUST THE"], "registered_agents": [], "principal_offices": [], "primary_sos_status": "", "primary_foreign_state": "", "brand": "", "opencorporates": "https://opencorporates.com/companies?q=PARRIS+FAMILY+TRUST+THE&utf8=%E2%9C%93", "primary_type": "", "portfolio": {"n_parcels_with_acs": 6, "median_income": 75092, "median_home_value": 330467, "pct_renter": 43, "pct_poverty": null, "pct_vacant": 9, "pct_black": 15, "pct_white": 64, "pct_hispanic": 18, "pct_asian": 1}, "related": [], "parcels": [{"parcel_id": "63388", "address": "4905 KILIMANJARO DR", "lat": "36.21886", "lon": "-86.585499", "sale_price": 140000.0, "sale_date": "28 Nov 2017", "market_value": 273400.0, "beds": 3.0, "bath": 1.5, "sqft": 1185.0, "year_built": "1977", "acres": 0.23}, {"parcel_id": "85238", "address": "137 BROOKE CASTLE DR", "lat": "36.208041", "lon": "-86.590693", "sale_price": 165000.0, "sale_date": "26 May 2026", "market_value": 186000.0, "beds": 2.0, "bath": 1.0, "sqft": 862.0, "year_built": "1985", "acres": 0.0}, {"parcel_id": "88680", "address": "833 OAK LEAF DR", "lat": "36.213315", "lon": "-86.583953", "sale_price": 112500.0, "sale_date": "6 Oct 2016", "market_value": 320500.0, "beds": 4.0, "bath": 4.0, "sqft": 1345.0, "year_built": "1982", "acres": 0.34}, {"parcel_id": "88795", "address": "109 ROWENA CT", "lat": "36.209639", "lon": "-86.584703", "sale_price": -1.0, "sale_date": "", "market_value": 265600.0, "beds": 3.0, "bath": 2.0, "sqft": 1271.0, "year_built": "1978", "acres": 0.41}, {"parcel_id": "88796", "address": "104 ROWENA CT", "lat": "36.209341", "lon": "-86.584819", "sale_price": -1.0, "sale_date": "", "market_value": 251400.0, "beds": 3.0, "bath": 1.5, "sqft": 1044.0, "year_built": "1979", "acres": 0.27}, {"parcel_id": "88800", "address": "605 DEBBIE DR", "lat": "36.209403", "lon": "-86.586011", "sale_price": -1.0, "sale_date": "", "market_value": 351700.0, "beds": 4.0, "bath": 2.0, "sqft": 1032.0, "year_built": "1980", "acres": 0.35}]}