{"cluster_id": 2167, "name": "REALMAC PROPERTIES LLC", "entity_count": 1, "parcel_count": 6, "total_market_value": 3038000, "total_acres": 0.0, "owner_names": ["REALMAC PROPERTIES LLC"], "registered_agents": [], "principal_offices": [], "primary_sos_status": "", "primary_foreign_state": "", "brand": "", "opencorporates": "https://opencorporates.com/companies?q=REALMAC+PROPERTIES+LLC&utf8=%E2%9C%93", "primary_type": "", "portfolio": {"n_parcels_with_acs": 6, "median_income": 64170, "median_home_value": 767983, "pct_renter": 79, "pct_poverty": null, "pct_vacant": 18, "pct_black": 15, "pct_white": 69, "pct_hispanic": 7, "pct_asian": 7}, "related": [], "parcels": [{"parcel_id": "155167", "address": "310 ROSE HALL", "lat": "36.14043", "lon": "-86.816176", "sale_price": 276000.0, "sale_date": "13 Feb 2015", "market_value": 385500.0, "beds": 2.0, "bath": 2.5, "sqft": 1350.0, "year_built": "1986", "acres": 0.0}, {"parcel_id": "157643", "address": "2110 PORTLAND AVE APT 301", "lat": "36.133553", "lon": "-86.802109", "sale_price": 300000.0, "sale_date": "9 Nov 2018", "market_value": 437900.0, "beds": 2.0, "bath": 2.0, "sqft": 1136.0, "year_built": "1986", "acres": 0.0}, {"parcel_id": "373273", "address": "3000 VANDERBILT PL APT 209", "lat": "36.142066", "lon": "-86.813118", "sale_price": 346000.0, "sale_date": "28 Feb 2013", "market_value": 618400.0, "beds": 3.0, "bath": 2.0, "sqft": 1326.0, "year_built": "2007", "acres": null}, {"parcel_id": "373358", "address": "3000 VANDERBILT PL APT 414", "lat": "36.142456", "lon": "-86.813064", "sale_price": 205000.0, "sale_date": "14 Mar 2013", "market_value": 383400.0, "beds": 1.0, "bath": 1.0, "sqft": 704.0, "year_built": "2007", "acres": null}, {"parcel_id": "375960", "address": "600 12TH AVE S APT 613", "lat": "36.151233", "lon": "-86.783442", "sale_price": 289000.0, "sale_date": "29 Feb 2012", "market_value": 648400.0, "beds": 2.0, "bath": 2.0, "sqft": 1108.0, "year_built": "2008", "acres": null}, {"parcel_id": "376051", "address": "600 12TH AVE S APT 826", "lat": "36.151284", "lon": "-86.784044", "sale_price": 257000.0, "sale_date": "30 Mar 2012", "market_value": 564400.0, "beds": 1.0, "bath": 1.0, "sqft": 816.0, "year_built": "2008", "acres": null}]}