{"cluster_id": 2188, "name": "STEVENS FAMILY REVOCABLE LIVING TRUST", "entity_count": 2, "parcel_count": 6, "total_market_value": 1282300, "total_acres": 3.1, "owner_names": ["STEVENS FAMILY REVOCABLE LIVING TRUST", "STEVENS FAMILY REVOCABLE LIVING TRUST AGREEMENT"], "registered_agents": [], "principal_offices": [], "primary_sos_status": "", "primary_foreign_state": "", "brand": "", "opencorporates": "https://opencorporates.com/companies?q=STEVENS+FAMILY+REVOCABLE+LIVING+TRUST&utf8=%E2%9C%93", "primary_type": "", "portfolio": {"n_parcels_with_acs": 6, "median_income": 42187, "median_home_value": 324800, "pct_renter": 59, "pct_poverty": null, "pct_vacant": 7, "pct_black": 72, "pct_white": 13, "pct_hispanic": 4, "pct_asian": 2}, "related": [{"owner": "STEVENS FAMILY REVOCABLE LIVING TRUST AGREEMENT", "parcels": 3, "via": "mailing address"}], "parcels": [{"parcel_id": "47468", "address": "3033 KINGS LN", "lat": "36.22003", "lon": "-86.823608", "sale_price": -1.0, "sale_date": "", "market_value": 301200.0, "beds": 3.0, "bath": 1.5, "sqft": 1534.0, "year_built": "1967", "acres": 0.53}, {"parcel_id": "48176", "address": "3121 KINGS LN", "lat": "36.219325", "lon": "-86.825731", "sale_price": -1.0, "sale_date": "", "market_value": 234400.0, "beds": 3.0, "bath": 1.0, "sqft": 1008.0, "year_built": "1952", "acres": 1.0}, {"parcel_id": "48781", "address": "4912 BOYD DR", "lat": "36.228834", "lon": "-86.827353", "sale_price": -1.0, "sale_date": "", "market_value": 216900.0, "beds": 3.0, "bath": 1.0, "sqft": 1100.0, "year_built": "1972", "acres": 0.22}, {"parcel_id": "49360", "address": "373 EWING DR", "lat": "36.232268", "lon": "-86.779632", "sale_price": -1.0, "sale_date": "", "market_value": 529800.0, "beds": 0.0, "bath": 0.0, "sqft": 4200.0, "year_built": "1986", "acres": 1.32}, {"parcel_id": "49983", "address": "0 HUMMINGBIRD DR", "lat": "36.218496", "lon": "-86.82546", "sale_price": null, "sale_date": "", "market_value": null, "beds": null, "bath": 0.0, "sqft": null, "year_built": "", "acres": null}, {"parcel_id": "51055", "address": "0 EWING LN", "lat": "36.233263", "lon": "-86.77958", "sale_price": null, "sale_date": "", "market_value": null, "beds": null, "bath": 0.0, "sqft": null, "year_built": "", "acres": null}]}