{"cluster_id": 220, "name": "GOSCO PROPERTIES LLC", "entity_count": 2, "parcel_count": 40, "total_market_value": 6297600, "total_acres": 1.2, "owner_names": ["BUD PROPERTIES LLC", "GOSCO PROPERTIES LLC"], "registered_agents": [], "principal_offices": [], "primary_sos_status": "", "primary_foreign_state": "", "brand": "", "opencorporates": "https://opencorporates.com/companies?q=GOSCO+PROPERTIES+LLC&utf8=%E2%9C%93", "primary_type": "", "portfolio": {"n_parcels_with_acs": 40, "median_income": 65123, "median_home_value": 282018, "pct_renter": 60, "pct_poverty": null, "pct_vacant": 3, "pct_black": 48, "pct_white": 37, "pct_hispanic": 14, "pct_asian": 0}, "related": [{"owner": "BUD PROPERTIES LLC", "parcels": 7, "via": "mailing address"}], "parcels": [{"parcel_id": "122856", "address": "814 LENA ST", "lat": "36.16128", "lon": "-86.817884", "sale_price": -1.0, "sale_date": "", "market_value": 278000.0, "beds": 3.0, "bath": 1.0, "sqft": 1187.0, "year_built": "1930", "acres": 0.11}, {"parcel_id": "135598", "address": "2 DECATUR ST", "lat": "36.149923", "lon": "-86.754353", "sale_price": -1.0, "sale_date": "", "market_value": 556600.0, "beds": 6.0, "bath": 3.0, "sqft": 4240.0, "year_built": "1966", "acres": 0.34}, {"parcel_id": "161647", "address": "20 SHEPARD ST", "lat": "36.144512", "lon": "-86.761175", "sale_price": -1.0, "sale_date": "", "market_value": 276800.0, "beds": 3.0, "bath": 1.0, "sqft": 1026.0, "year_built": "1930", "acres": 0.07}, {"parcel_id": "162096", "address": "31 WHARF AVE", "lat": "36.147087", "lon": "-86.762395", "sale_price": -1.0, "sale_date": "", "market_value": 374000.0, "beds": 4.0, "bath": 2.0, "sqft": 818.0, "year_built": "1930", "acres": 0.13}, {"parcel_id": "195158", "address": "2524 GLENROSE AVE", "lat": "36.118298", "lon": "-86.728064", "sale_price": -1.0, "sale_date": "", "market_value": 285200.0, "beds": 4.0, "bath": 4.0, "sqft": 1518.0, "year_built": "1970", "acres": 0.14}, {"parcel_id": "195159", "address": "2526 GLENROSE AVE", "lat": "36.11821", "lon": "-86.727933", "sale_price": -1.0, "sale_date": "", "market_value": 285200.0, "beds": 4.0, "bath": 4.0, "sqft": 1518.0, "year_built": "1970", "acres": 0.16}, {"parcel_id": "26041", "address": "714 MAYLENE DR APT A1", "lat": "36.279584", "lon": "-86.696367", "sale_price": -1.0, "sale_date": "", "market_value": 118500.0, "beds": 2.0, "bath": 1.0, "sqft": 780.0, "year_built": "1968", "acres": 0.0}, {"parcel_id": "26042", "address": "714 MAYLENE DR APT A2", "lat": "36.279543", "lon": "-86.696298", "sale_price": -1.0, "sale_date": "", "market_value": 118500.0, "beds": 2.0, "bath": 1.0, "sqft": 780.0, "year_built": "1968", "acres": 0.0}, {"parcel_id": "26043", "address": "714 MAYLENE DR APT A3", "lat": "36.279467", "lon": "-86.696365", "sale_price": -1.0, "sale_date": "", "market_value": 118500.0, "beds": 2.0, "bath": 1.0, "sqft": 780.0, "year_built": "1968", "acres": 0.0}, {"parcel_id": "26044", "address": "714 MAYLENE DR APT A4", "lat": "36.279507", "lon": "-86.696436", "sale_price": -1.0, "sale_date": "", "market_value": 118500.0, "beds": 2.0, "bath": 1.0, "sqft": 780.0, "year_built": "1968", "acres": 0.0}, {"parcel_id": "26045", "address": "714 MAYLENE DR APT A5", "lat": "36.279584", "lon": "-86.696367", "sale_price": -1.0, "sale_date": "", "market_value": 118500.0, "beds": 2.0, "bath": 1.0, "sqft": 780.0, "year_built": "1968", "acres": 0.0}, {"parcel_id": "26046", "address": "714 MAYLENE DR APT A6", "lat": "36.279543", "lon": "-86.696298", "sale_price": -1.0, "sale_date": "", "market_value": 118500.0, "beds": 2.0, "bath": 1.0, "sqft": 780.0, "year_built": "1968", "acres": 0.0}, {"parcel_id": "26047", "address": "714 MAYLENE DR APT A7", "lat": "36.279467", "lon": "-86.696365", "sale_price": -1.0, "sale_date": "", "market_value": 118500.0, "beds": 2.0, "bath": 1.0, "sqft": 780.0, "year_built": "1968", "acres": 0.0}, {"parcel_id": "26048", "address": "714 MAYLENE DR APT A8", "lat": "36.279507", "lon": "-86.696436", "sale_price": -1.0, "sale_date": "", "market_value": 118500.0, "beds": 2.0, "bath": 1.0, "sqft": 780.0, "year_built": "1968", "acres": 0.0}, {"parcel_id": "26049", "address": "714 MAYLENE DR APT B1", "lat": "36.279351", "lon": "-86.696255", "sale_price": -1.0, "sale_date": "", "market_value": 118500.0, "beds": 2.0, "bath": 1.0, "sqft": 780.0, "year_built": "1968", "acres": 0.0}, {"parcel_id": "26050", "address": "714 MAYLENE DR APT B2", "lat": "36.279362", "lon": "-86.696177", "sale_price": -1.0, "sale_date": "", "market_value": 118500.0, "beds": 2.0, "bath": 1.0, "sqft": 780.0, "year_built": "1968", "acres": 0.0}, {"parcel_id": "26051", "address": "714 MAYLENE DR APT B3", "lat": "36.279262", "lon": "-86.696155", "sale_price": -1.0, "sale_date": "", "market_value": 118500.0, "beds": 2.0, "bath": 1.0, "sqft": 780.0, "year_built": "1968", "acres": 0.0}, {"parcel_id": "26052", "address": "714 MAYLENE DR APT B4", "lat": "36.279251", "lon": "-86.696234", "sale_price": -1.0, "sale_date": "", "market_value": 118500.0, "beds": 2.0, "bath": 1.0, "sqft": 780.0, "year_built": "1968", "acres": 0.0}, {"parcel_id": "26053", "address": "714 MAYLENE DR APT B5", "lat": "36.279351", "lon": "-86.696255", "sale_price": -1.0, "sale_date": "", "market_value": 118500.0, "beds": 2.0, "bath": 1.0, "sqft": 780.0, "year_built": "1968", "acres": 0.0}, {"parcel_id": "26054", "address": "714 MAYLENE DR APT B6", "lat": "36.279362", "lon": "-86.696177", "sale_price": -1.0, "sale_date": "", "market_value": 118500.0, "beds": 2.0, "bath": 1.0, "sqft": 780.0, "year_built": "1968", "acres": 0.0}, {"parcel_id": "26055", "address": "714 MAYLENE DR APT B7", "lat": "36.279262", "lon": "-86.696155", "sale_price": -1.0, "sale_date": "", "market_value": 118500.0, "beds": 2.0, "bath": 1.0, "sqft": 780.0, "year_built": "1968", "acres": 0.0}, {"parcel_id": "26056", "address": "714 MAYLENE DR APT B8", "lat": "36.279251", "lon": "-86.696234", "sale_price": -1.0, "sale_date": "", "market_value": 118500.0, "beds": 2.0, "bath": 1.0, "sqft": 780.0, "year_built": "1968", "acres": 0.0}, {"parcel_id": "26057", "address": "714 MAYLENE DR APT C1", "lat": "36.278969", "lon": "-86.696122", "sale_price": -1.0, "sale_date": "", "market_value": 118500.0, "beds": 2.0, "bath": 1.0, "sqft": 780.0, "year_built": "1968", "acres": 0.0}, {"parcel_id": "26058", "address": "714 MAYLENE DR APT C2", "lat": "36.278994", "lon": "-86.696041", "sale_price": -1.0, "sale_date": "", "market_value": 118500.0, "beds": 2.0, "bath": 1.0, "sqft": 780.0, "year_built": "1968", "acres": 0.0}, {"parcel_id": "26059", "address": "714 MAYLENE DR APT C3", "lat": "36.278903", "lon": "-86.696002", "sale_price": -1.0, "sale_date": "", "market_value": 118500.0, "beds": 2.0, "bath": 1.0, "sqft": 780.0, "year_built": "1968", "acres": 0.0}, {"parcel_id": "26060", "address": "714 MAYLENE DR APT C4", "lat": "36.27888", "lon": "-86.696083", "sale_price": -1.0, "sale_date": "", "market_value": 118500.0, "beds": 2.0, "bath": 1.0, "sqft": 780.0, "year_built": "1968", "acres": 0.0}, {"parcel_id": "26061", "address": "714 MAYLENE DR APT C5", "lat": "36.278969", "lon": "-86.696122", "sale_price": -1.0, "sale_date": "", "market_value": 118500.0, "beds": 2.0, "bath": 1.0, "sqft": 780.0, "year_built": "1968", "acres": 0.0}, {"parcel_id": "26062", "address": "714 MAYLENE DR APT C6", "lat": "36.278994", "lon": "-86.696041", "sale_price": -1.0, "sale_date": "", "market_value": 118500.0, "beds": 2.0, "bath": 1.0, "sqft": 780.0, "year_built": "1968", "acres": 0.0}, {"parcel_id": "26063", "address": "714 MAYLENE DR APT C7", "lat": "36.278903", "lon": "-86.696002", "sale_price": -1.0, "sale_date": "", "market_value": 118500.0, "beds": 2.0, "bath": 1.0, "sqft": 780.0, "year_built": "1968", "acres": 0.0}, {"parcel_id": "26064", "address": "714 MAYLENE DR APT C8", "lat": "36.27888", "lon": "-86.696083", "sale_price": -1.0, "sale_date": "", "market_value": 118500.0, "beds": 2.0, "bath": 1.0, "sqft": 780.0, "year_built": "1968", "acres": 0.0}, {"parcel_id": "26065", "address": "714 MAYLENE DR APT D1", "lat": "36.278644", "lon": "-86.696037", "sale_price": -1.0, "sale_date": "", "market_value": 110500.0, "beds": 1.0, "bath": 1.0, "sqft": 650.0, "year_built": "1968", "acres": 0.0}, {"parcel_id": "26066", "address": "714 MAYLENE DR APT D2", "lat": "36.278668", "lon": "-86.695962", "sale_price": -1.0, "sale_date": "", "market_value": 110500.0, "beds": 1.0, "bath": 1.0, "sqft": 650.0, "year_built": "1968", "acres": 0.0}, {"parcel_id": "26067", "address": "714 MAYLENE DR APT D3", "lat": "36.278586", "lon": "-86.695924", "sale_price": -1.0, "sale_date": "", "market_value": 110500.0, "beds": 1.0, "bath": 1.0, "sqft": 650.0, "year_built": "1968", "acres": 0.0}, {"parcel_id": "26163", "address": "714 MAYLENE DR APT D4", "lat": "36.278563", "lon": "-86.695997", "sale_price": -1.0, "sale_date": "", "market_value": 110500.0, "beds": 1.0, "bath": 1.0, "sqft": 650.0, "year_built": "1968", "acres": 0.0}, {"parcel_id": "26164", "address": "714 MAYLENE DR APT D5", "lat": "36.278644", "lon": "-86.696037", "sale_price": -1.0, "sale_date": "", "market_value": 110500.0, "beds": 1.0, "bath": 1.0, "sqft": 650.0, "year_built": "1968", "acres": 0.0}, {"parcel_id": "26165", "address": "714 MAYLENE DR APT D6", "lat": "36.278668", "lon": "-86.695962", "sale_price": -1.0, "sale_date": "", "market_value": 110500.0, "beds": 1.0, "bath": 1.0, "sqft": 650.0, "year_built": "1968", "acres": 0.0}, {"parcel_id": "26166", "address": "714 MAYLENE DR APT D7", "lat": "36.278586", "lon": "-86.695924", "sale_price": -1.0, "sale_date": "", "market_value": 110500.0, "beds": 1.0, "bath": 1.0, "sqft": 650.0, "year_built": "1968", "acres": 0.0}, {"parcel_id": "26167", "address": "714 MAYLENE DR APT D8", "lat": "36.278563", "lon": "-86.695997", "sale_price": -1.0, "sale_date": "", "market_value": 110500.0, "beds": 1.0, "bath": 1.0, "sqft": 650.0, "year_built": "1968", "acres": 0.0}, {"parcel_id": "92797", "address": "1615 22ND AVE N", "lat": "36.175809", "lon": "-86.812594", "sale_price": -1.0, "sale_date": "", "market_value": 313100.0, "beds": 7.0, "bath": 3.0, "sqft": 2095.0, "year_built": "1967", "acres": 0.17}, {"parcel_id": "93358", "address": "1728 24TH AVE N", "lat": "36.17849", "lon": "-86.815178", "sale_price": -1.0, "sale_date": "", "market_value": 200700.0, "beds": 1.0, "bath": 1.0, "sqft": 610.0, "year_built": "1924", "acres": 0.09}]}