{"cluster_id": 2209, "name": "VALVOLINE LLC", "entity_count": 1, "parcel_count": 6, "total_market_value": 6744100, "total_acres": 2.2, "owner_names": ["VALVOLINE LLC"], "registered_agents": [], "principal_offices": [], "primary_sos_status": "", "primary_foreign_state": "", "brand": "", "opencorporates": "https://opencorporates.com/companies?q=VALVOLINE+LLC&utf8=%E2%9C%93", "primary_type": "", "portfolio": {"n_parcels_with_acs": 5, "median_income": 75152, "median_home_value": 381050, "pct_renter": 65, "pct_poverty": null, "pct_vacant": 5, "pct_black": 23, "pct_white": 50, "pct_hispanic": 13, "pct_asian": 6}, "related": [], "parcels": [{"parcel_id": "18172", "address": "723 MYATT DR", "lat": "36.295401", "lon": "-86.6974", "sale_price": -1.0, "sale_date": "", "market_value": 1298400.0, "beds": 0.0, "bath": 0.0, "sqft": 3828.0, "year_built": "1990", "acres": 0.62}, {"parcel_id": "195320", "address": "406 COLLIER AVE", "lat": "36.11018", "lon": "-86.745815", "sale_price": -1.0, "sale_date": "", "market_value": 860000.0, "beds": 0.0, "bath": 0.0, "sqft": 2472.0, "year_built": "1988", "acres": 0.2}, {"parcel_id": "230545", "address": "7124 HIGHWAY 70 S", "lat": "36.074492", "lon": "-86.923383", "sale_price": -1.0, "sale_date": "", "market_value": 1495600.0, "beds": 0.0, "bath": 0.0, "sqft": 2550.0, "year_built": "1990", "acres": 0.33}, {"parcel_id": "253362", "address": "2577 MURFREESBORO PIKE", "lat": "36.075794", "lon": "-86.640391", "sale_price": -1.0, "sale_date": "", "market_value": 878700.0, "beds": 0.0, "bath": 0.0, "sqft": 2436.0, "year_built": "1991", "acres": 0.49}, {"parcel_id": "277566", "address": "5512 NOLENSVILLE PIKE", "lat": "36.048897", "lon": "-86.713242", "sale_price": -1.0, "sale_date": "", "market_value": 910700.0, "beds": 0.0, "bath": 0.0, "sqft": 3172.0, "year_built": "1989", "acres": 0.19}, {"parcel_id": "279636", "address": "1109 BELL RD", "lat": "36.045207", "lon": "-86.662683", "sale_price": -1.0, "sale_date": "", "market_value": 1300700.0, "beds": 0.0, "bath": 0.0, "sqft": 3648.0, "year_built": "1990", "acres": 0.39}]}