{"cluster_id": 2213, "name": "WARREN B PROPERTIES LLC", "entity_count": 1, "parcel_count": 6, "total_market_value": 4445600, "total_acres": 5.7, "owner_names": ["WARREN B PROPERTIES LLC"], "registered_agents": [], "principal_offices": [], "primary_sos_status": "", "primary_foreign_state": "", "brand": "", "opencorporates": "https://opencorporates.com/companies?q=WARREN+B+PROPERTIES+LLC&utf8=%E2%9C%93", "primary_type": "", "portfolio": {"n_parcels_with_acs": 6, "median_income": 70276, "median_home_value": 411780, "pct_renter": 46, "pct_poverty": null, "pct_vacant": 11, "pct_black": 26, "pct_white": 50, "pct_hispanic": 22, "pct_asian": 2}, "related": [], "parcels": [{"parcel_id": "13292", "address": "0 DRY CREEK RD", "lat": "36.29848", "lon": "-86.720195"}, {"parcel_id": "18495", "address": "926 OLD DRY CREEK RD", "lat": "36.284446", "lon": "-86.708148", "sale_price": -1.0, "sale_date": "", "market_value": 797700.0, "beds": 0.0, "bath": 0.0, "sqft": 0.0, "year_built": "1999", "acres": 4.1}, {"parcel_id": "22091", "address": "3870 DICKERSON PIKE", "lat": "36.26827", "lon": "-86.756805", "sale_price": -1.0, "sale_date": "", "market_value": 855000.0, "beds": 0.0, "bath": 0.0, "sqft": 0.0, "year_built": "1965", "acres": 0.61}, {"parcel_id": "22209", "address": "1107 DARBYTOWN DR", "lat": "36.26656", "lon": "-86.757772", "sale_price": -1.0, "sale_date": "", "market_value": 1044000.0, "beds": 0.0, "bath": 0.0, "sqft": 6500.0, "year_built": "1993", "acres": null}, {"parcel_id": "70410", "address": "321 E TRINITY LN", "lat": "36.205797", "lon": "-86.763132", "sale_price": -1.0, "sale_date": "", "market_value": 494100.0, "beds": 0.0, "bath": 0.0, "sqft": 3200.0, "year_built": "1983", "acres": 0.21}, {"parcel_id": "71406", "address": "331 E TRINITY LN", "lat": "36.205764", "lon": "-86.762465", "sale_price": -1.0, "sale_date": "", "market_value": 1254800.0, "beds": null, "bath": 0.0, "sqft": 5800.0, "year_built": "1985", "acres": 0.77}]}