{"cluster_id": 2226, "name": "ODYSSEY NASHVILLE LLC", "entity_count": 5, "parcel_count": 5, "total_market_value": 3132900, "total_acres": 0.0, "owner_names": ["1015C NASHVILLE LLC", "37203 405 AVOCA 2 LLC", "410 NASHVILLE LLC", "MUSIC ROW NASHVILLE LLC", "ODYSSEY NASHVILLE LLC"], "registered_agents": [], "principal_offices": [], "primary_sos_status": "", "primary_foreign_state": "", "brand": "", "opencorporates": "https://opencorporates.com/companies?q=ODYSSEY+NASHVILLE+LLC&utf8=%E2%9C%93", "primary_type": "", "portfolio": {"n_parcels_with_acs": 5, "median_income": 101867, "median_home_value": 784280, "pct_renter": 54, "pct_poverty": null, "pct_vacant": 13, "pct_black": 8, "pct_white": 79, "pct_hispanic": 5, "pct_asian": 4}, "related": [{"owner": "1015C NASHVILLE LLC", "parcels": 1, "via": "mailing address"}, {"owner": "37203 405 AVOCA 2 LLC", "parcels": 1, "via": "mailing address"}, {"owner": "MUSIC ROW NASHVILLE LLC", "parcels": 1, "via": "mailing address"}, {"owner": "410 NASHVILLE LLC", "parcels": 1, "via": "mailing address"}], "parcels": [{"parcel_id": "415174", "address": "1015C 12TH AVE S", "lat": "36.145335", "lon": "-86.786731", "sale_price": 945000.0, "sale_date": "25 Aug 2021", "market_value": 1011300.0, "beds": 3.0, "bath": 3.5, "sqft": 2100.0, "year_built": "2016", "acres": null}, {"parcel_id": "415200", "address": "405 AVOCA ST STE 2", "lat": "36.146744", "lon": "-86.818008", "sale_price": 585000.0, "sale_date": "29 Dec 2016", "market_value": 836000.0, "beds": 4.0, "bath": 2.5, "sqft": 2327.0, "year_built": "2016", "acres": null}, {"parcel_id": "428555", "address": "410 36TH AVE N", "lat": "36.153681", "lon": "-86.827575", "sale_price": 887500.0, "sale_date": "11 Aug 2021", "market_value": 753200.0, "beds": 4.0, "bath": 2.5, "sqft": 2216.0, "year_built": "2019", "acres": null}, {"parcel_id": "459091", "address": "303 31ST AVE N APT 412", "lat": "36.146784", "lon": "-86.816582", "sale_price": 572000.0, "sale_date": "28 Jul 2023", "market_value": 532400.0, "beds": 2.0, "bath": 2.0, "sqft": 862.0, "year_built": "2023", "acres": null}, {"parcel_id": "472068", "address": "1014 16TH AVE S UNIT 301", "lat": "36.145897", "lon": "-86.792188"}]}