{"cluster_id": 2233, "name": "2038 GREENWOOD LLC", "entity_count": 5, "parcel_count": 5, "total_market_value": 4375500, "total_acres": 1.1, "owner_names": ["1115 PORTER LLC", "1201 PORTER LLC", "2038 GREENWOOD LLC", "605 PARK LLC", "NP RESIDENTIAL LAND TRUST"], "registered_agents": [], "principal_offices": [], "primary_sos_status": "", "primary_foreign_state": "", "brand": "", "opencorporates": "https://opencorporates.com/companies?q=2038+GREENWOOD+LLC&utf8=%E2%9C%93", "primary_type": "", "portfolio": {"n_parcels_with_acs": 5, "median_income": 90947, "median_home_value": 759480, "pct_renter": 41, "pct_poverty": null, "pct_vacant": 2, "pct_black": 19, "pct_white": 79, "pct_hispanic": 0, "pct_asian": 2}, "related": [{"owner": "1115 PORTER LLC", "parcels": 1, "via": "mailing address"}, {"owner": "605 PARK LLC", "parcels": 1, "via": "mailing address"}, {"owner": "NP RESIDENTIAL LAND TRUST", "parcels": 1, "via": "mailing address"}, {"owner": "1201 PORTER LLC", "parcels": 1, "via": "mailing address"}], "parcels": [{"parcel_id": "101179", "address": "1201 PORTER RD", "lat": "36.188856", "lon": "-86.728823", "sale_price": -1.0, "sale_date": "", "market_value": 1034600.0, "beds": 0.0, "bath": 0.0, "sqft": 2814.0, "year_built": "2015", "acres": 0.2}, {"parcel_id": "101181", "address": "1115 PORTER RD", "lat": "36.188494", "lon": "-86.728921", "sale_price": -1.0, "sale_date": "", "market_value": 838900.0, "beds": 0.0, "bath": 0.0, "sqft": 5994.0, "year_built": "1985", "acres": 0.19}, {"parcel_id": "102780", "address": "2038 GREENWOOD AVE", "lat": "36.188509", "lon": "-86.7296", "sale_price": -1.0, "sale_date": "", "market_value": 1201000.0, "beds": 0.0, "bath": 0.0, "sqft": 4186.0, "year_built": "1995", "acres": 0.37}, {"parcel_id": "152190", "address": "605 PARK CIR", "lat": "36.143723", "lon": "-86.823435", "sale_price": -1.0, "sale_date": "", "market_value": 586400.0, "beds": 3.0, "bath": 3.0, "sqft": 1458.0, "year_built": "1951", "acres": 0.14}, {"parcel_id": "189299", "address": "3108 LEALAND LN", "lat": "36.117304", "lon": "-86.786733", "sale_price": -1.0, "sale_date": "", "market_value": 714600.0, "beds": 4.0, "bath": 2.0, "sqft": 1720.0, "year_built": "1974", "acres": 0.23}]}