{"cluster_id": 2238, "name": "2538 EDGE LLC", "entity_count": 4, "parcel_count": 5, "total_market_value": 648900, "total_acres": 0.1, "owner_names": ["1286 MASSMAN LLC", "1321 BELLSHIRE LLC", "2538 EDGE LLC", "3366 OAK TREES LLC"], "registered_agents": [], "principal_offices": [], "primary_sos_status": "", "primary_foreign_state": "", "brand": "", "opencorporates": "https://opencorporates.com/companies?q=2538+EDGE+LLC&utf8=%E2%9C%93", "primary_type": "", "portfolio": {"n_parcels_with_acs": 5, "median_income": 64907, "median_home_value": 327300, "pct_renter": 47, "pct_poverty": null, "pct_vacant": 11, "pct_black": 55, "pct_white": 31, "pct_hispanic": 11, "pct_asian": 1}, "related": [{"owner": "3366 OAK TREES LLC", "parcels": 1, "via": "mailing address"}, {"owner": "1321 BELLSHIRE LLC", "parcels": 1, "via": "mailing address"}, {"owner": "1286 MASSMAN LLC", "parcels": 1, "via": "mailing address"}], "parcels": [{"parcel_id": "170718", "address": "1286 MASSMAN DR", "lat": "36.130778", "lon": "-86.697646", "sale_price": 141500.0, "sale_date": "26 May 2020", "market_value": 224300.0, "beds": 2.0, "bath": 1.5, "sqft": 1024.0, "year_built": "1983", "acres": 0.0}, {"parcel_id": "222230", "address": "0 MURFREESBORO PIKE", "lat": "36.083031", "lon": "-86.640458"}, {"parcel_id": "247059", "address": "0 RYCHEN DR", "lat": "36.082277", "lon": "-86.640364"}, {"parcel_id": "259545", "address": "3366 OAK TREES CT", "lat": "36.075799", "lon": "-86.606136", "sale_price": 135000.0, "sale_date": "18 Sep 2017", "market_value": 223400.0, "beds": 2.0, "bath": 1.5, "sqft": 1240.0, "year_built": "1985", "acres": 0.09}, {"parcel_id": "308784", "address": "1321 BELLSHIRE TERRACE DR", "lat": "36.25789", "lon": "-86.765371", "sale_price": 119000.0, "sale_date": "1 Nov 2018", "market_value": 201200.0, "beds": 4.0, "bath": 2.0, "sqft": 1125.0, "year_built": "2005", "acres": null}]}