{"cluster_id": 2291, "name": "BFI WASTE SERVICES LLC", "entity_count": 2, "parcel_count": 5, "total_market_value": 16238500, "total_acres": 10.3, "owner_names": ["ALLIED WASTE INDUSTRIES OF TN INC", "BFI WASTE SERVICES LLC"], "registered_agents": [], "principal_offices": [], "primary_sos_status": "", "primary_foreign_state": "", "brand": "", "opencorporates": "https://opencorporates.com/companies?q=BFI+WASTE+SERVICES+LLC&utf8=%E2%9C%93", "primary_type": "", "portfolio": {"n_parcels_with_acs": 3, "median_income": 56712, "median_home_value": 369100, "pct_renter": 72, "pct_poverty": null, "pct_vacant": 9, "pct_black": 14, "pct_white": 76, "pct_hispanic": 7, "pct_asian": 2}, "related": [{"owner": "ALLIED WASTE INDUSTRIES OF TN INC", "parcels": 2, "via": "mailing address"}], "parcels": [{"parcel_id": "167964", "address": "621 HILL AVE", "lat": "36.136953", "lon": "-86.734889", "sale_price": -1.0, "sale_date": "", "market_value": 10237900.0, "beds": 0.0, "bath": 0.0, "sqft": 43988.0, "year_built": "2020", "acres": 7.55}, {"parcel_id": "168731", "address": "210 COLE AVE", "lat": "36.136171", "lon": "-86.733989", "sale_price": 700000.0, "sale_date": "28 Dec 2009", "market_value": 2907000.0, "beds": 0.0, "bath": 0.0, "sqft": 8640.0, "year_built": "1970", "acres": 2.78}, {"parcel_id": "453448", "address": "1160 FREIGHTLINER DR", "lat": "36.155796", "lon": "-86.73578", "sale_price": -1.0, "sale_date": "", "market_value": 3093600.0, "beds": null, "bath": 0.0, "sqft": 18600.0, "year_built": "1996", "acres": null}, {"parcel_id": "65031", "address": "0 CENTENNIAL BLVD", "lat": "36.194279", "lon": "-86.875919"}, {"parcel_id": "65149", "address": "0 CENTENNIAL BLVD", "lat": "36.195117", "lon": "-86.877859"}]}