{"cluster_id": 2318, "name": "BAKER JOINT REVOCABLE TRUST THE", "entity_count": 1, "parcel_count": 5, "total_market_value": 1121400, "total_acres": 0.4, "owner_names": ["BAKER JOINT REVOCABLE TRUST THE"], "registered_agents": [], "principal_offices": [], "primary_sos_status": "", "primary_foreign_state": "", "brand": "", "opencorporates": "https://opencorporates.com/companies?q=BAKER+JOINT+REVOCABLE+TRUST+THE&utf8=%E2%9C%93", "primary_type": "", "portfolio": {"n_parcels_with_acs": 5, "median_income": 108701, "median_home_value": 642420, "pct_renter": 45, "pct_poverty": null, "pct_vacant": 13, "pct_black": 5, "pct_white": 67, "pct_hispanic": 14, "pct_asian": 8}, "related": [], "parcels": [{"parcel_id": "184079", "address": "2601 HILLSBORO PIKE APT M4", "lat": "36.124519", "lon": "-86.809936", "sale_price": -1.0, "sale_date": "", "market_value": 209200.0, "beds": 1.0, "bath": 1.0, "sqft": 600.0, "year_built": "1971", "acres": 0.0}, {"parcel_id": "184183", "address": "2601 HILLSBORO PIKE APT M16", "lat": "36.12443", "lon": "-86.809697", "sale_price": -1.0, "sale_date": "", "market_value": 218000.0, "beds": 1.0, "bath": 1.0, "sqft": 600.0, "year_built": "1971", "acres": 0.0}, {"parcel_id": "217068", "address": "3385 MIMOSA DR", "lat": "36.097135", "lon": "-86.719954", "sale_price": 250000.0, "sale_date": "29 May 2019", "market_value": 474400.0, "beds": 4.0, "bath": 1.0, "sqft": 1948.0, "year_built": "1954", "acres": 0.36}, {"parcel_id": "240722", "address": "441 HARDING PL APT E14", "lat": "36.077874", "lon": "-86.729989", "sale_price": -1.0, "sale_date": "", "market_value": 91900.0, "beds": 1.0, "bath": 1.0, "sqft": 625.0, "year_built": "1969", "acres": 0.0}, {"parcel_id": "242547", "address": "441 HARDING PL APT B19", "lat": "36.077229", "lon": "-86.730263", "sale_price": -1.0, "sale_date": "", "market_value": 127900.0, "beds": 2.0, "bath": 1.0, "sqft": 875.0, "year_built": "1969", "acres": 0.0}]}