{"cluster_id": 234, "name": "MPES2 LLC", "entity_count": 13, "parcel_count": 38, "total_market_value": 10983100, "total_acres": 5.6, "owner_names": ["1125 10TH 215 TITLE HOLDING TRUST", "2211 24TH AVENUE TITLE HOLDING TRUST THE", "2717 PINE RIDGE TITLE HOLDING TRUST", "3620 VILLAGE TRAIL TITLE HOLDING TRUST THE", "550 HARDING UNIT A 103 TITLE HOLDING TRUST", "550 HARDING UNIT B 114 TITLE HOLDING TRUST", "555 N DUPONT A 11 TITLE HOLDING TRUST", "555 N DUPONT UNIT A 23 TITLE HOLDING TRUST", "555 N DUPONT UNIT A 25 TITLE HOLDING TRUST", "722 HERITAGE SQUARE DRIVE TITLE HOLDING TRUST", "8132 BONNAFAIR DRIVE TITLE HOLDING TRUST", "8300 SAWYER BROWN TITLE HOLDING TRUST", "MPES2 LLC"], "registered_agents": ["REGISTERED AGENTS INC"], "principal_offices": ["39 HALSEY DRIVE, OLD GREENWICH, CT 06870"], "primary_sos_status": "", "primary_foreign_state": "", "brand": "", "opencorporates": "https://opencorporates.com/companies?q=MPES2+LLC&utf8=%E2%9C%93", "primary_type": "", "portfolio": {"n_parcels_with_acs": 36, "median_income": 53520, "median_home_value": 291884, "pct_renter": 62, "pct_poverty": null, "pct_vacant": 5, "pct_black": 51, "pct_white": 33, "pct_hispanic": 10, "pct_asian": 1}, "related": [{"owner": "550 HARDING UNIT A 103 TITLE HOLDING TRUST", "parcels": 1, "via": "mailing address"}, {"owner": "2717 PINE RIDGE TITLE HOLDING TRUST", "parcels": 1, "via": "mailing address"}, {"owner": "1125 10TH 215 TITLE HOLDING TRUST", "parcels": 1, "via": "mailing address"}, {"owner": "3620 VILLAGE TRAIL TITLE HOLDING TRUST THE", "parcels": 1, "via": "mailing address"}, {"owner": "8132 BONNAFAIR DRIVE TITLE HOLDING TRUST", "parcels": 1, "via": "mailing address"}, {"owner": "2211 24TH AVENUE TITLE HOLDING TRUST THE", "parcels": 1, "via": "mailing address"}, {"owner": "722 HERITAGE SQUARE DRIVE TITLE HOLDING TRUST", "parcels": 1, "via": "mailing address"}, {"owner": "8300 SAWYER BROWN TITLE HOLDING TRUST", "parcels": 1, "via": "mailing address"}, {"owner": "555 N DUPONT UNIT A 25 TITLE HOLDING TRUST", "parcels": 1, "via": "mailing address"}, {"owner": "550 HARDING UNIT B 114 TITLE HOLDING TRUST", "parcels": 1, "via": "mailing address"}, {"owner": "555 N DUPONT UNIT A 23 TITLE HOLDING TRUST", "parcels": 1, "via": "mailing address"}, {"owner": "555 N DUPONT A 11 TITLE HOLDING TRUST", "parcels": 1, "via": "mailing address"}], "parcels": [{"parcel_id": "111390", "address": "4116 HUNTING DR", "lat": "36.180257", "lon": "-86.611818", "sale_price": 186000.0, "sale_date": "30 Mar 2021", "market_value": 357400.0, "beds": 4.0, "bath": 2.0, "sqft": 1508.0, "year_built": "2015", "acres": 0.2}, {"parcel_id": "113609", "address": "4672 FOREST RIDGE DR", "lat": "36.178564", "lon": "-86.586804", "sale_price": -1.0, "sale_date": "", "market_value": 337300.0, "beds": 2.0, "bath": 2.0, "sqft": 1537.0, "year_built": "1984", "acres": 0.34}, {"parcel_id": "136752", "address": "248 MCGAVOCK PIKE", "lat": "36.164956", "lon": "-86.68125", "sale_price": 200000.0, "sale_date": "30 Jun 2016", "market_value": 582700.0, "beds": 6.0, "bath": 4.0, "sqft": 1352.0, "year_built": "2015", "acres": 0.61}, {"parcel_id": "21671", "address": "722 HERITAGE SQUARE DR", "lat": "36.271802", "lon": "-86.722239", "sale_price": 225000.0, "sale_date": "13 Aug 2020", "market_value": 324900.0, "beds": 3.0, "bath": 1.5, "sqft": 1134.0, "year_built": "2000", "acres": 0.13}, {"parcel_id": "232487", "address": "8300 SAWYER BROWN RD APT S306", "lat": "36.070003", "lon": "-86.94599", "sale_price": 352000.0, "sale_date": "29 Jul 2024", "market_value": 397800.0, "beds": 4.0, "bath": 2.5, "sqft": 1716.0, "year_built": "1995", "acres": 0.0}, {"parcel_id": "241066", "address": "550 HARDING PL APT A103", "lat": "36.077588", "lon": "-86.737463", "sale_price": 165000.0, "sale_date": "24 Oct 2025", "market_value": 155600.0, "beds": 2.0, "bath": 1.5, "sqft": 1044.0, "year_built": "2005", "acres": 0.0}, {"parcel_id": "241188", "address": "550 HARDING PL APT B114", "lat": "36.077484", "lon": "-86.738188", "sale_price": 165000.0, "sale_date": "24 Oct 2025", "market_value": 122700.0, "beds": 2.0, "bath": 1.5, "sqft": 1044.0, "year_built": "1965", "acres": 0.0}, {"parcel_id": "24451", "address": "555 N DUPONT AVE APT C59", "lat": "36.268309", "lon": "-86.70026", "sale_price": -1.0, "sale_date": "", "market_value": 140400.0, "beds": 2.0, "bath": 1.0, "sqft": 968.0, "year_built": "1968", "acres": 0.0}, {"parcel_id": "24455", "address": "555 N DUPONT AVE APT C49", "lat": "36.268499", "lon": "-86.700438", "sale_price": -1.0, "sale_date": "", "market_value": 140400.0, "beds": 2.0, "bath": 1.0, "sqft": 968.0, "year_built": "1968", "acres": 0.0}, {"parcel_id": "24459", "address": "555 N DUPONT AVE APT C70", "lat": "36.26812", "lon": "-86.700079", "sale_price": 45000.0, "sale_date": "10 Jul 2015", "market_value": 140400.0, "beds": 2.0, "bath": 1.0, "sqft": 968.0, "year_built": "1968", "acres": 0.0}, {"parcel_id": "24584", "address": "555 N DUPONT AVE APT E98", "lat": "36.268663", "lon": "-86.700094", "sale_price": -1.0, "sale_date": "", "market_value": 153000.0, "beds": 2.0, "bath": 2.0, "sqft": 1110.0, "year_built": "1968", "acres": 0.0}, {"parcel_id": "25907", "address": "415 DELAWARE AVE", "lat": "36.265911", "lon": "-86.703965", "sale_price": 212000.0, "sale_date": "14 May 2021", "market_value": 347900.0, "beds": 4.0, "bath": 2.0, "sqft": 1400.0, "year_built": "2000", "acres": 0.19}, {"parcel_id": "26142", "address": "555 N DUPONT AVE APT A18", "lat": "36.267771", "lon": "-86.700239", "sale_price": -1.0, "sale_date": "", "market_value": 123500.0, "beds": 1.0, "bath": 1.0, "sqft": 704.0, "year_built": "1968", "acres": 0.0}, {"parcel_id": "26149", "address": "555 N DUPONT AVE APT A8", "lat": "36.267897", "lon": "-86.700582", "sale_price": -1.0, "sale_date": "", "market_value": 123500.0, "beds": 1.0, "bath": 1.0, "sqft": 704.0, "year_built": "1968", "acres": 0.0}, {"parcel_id": "26152", "address": "555 N DUPONT AVE APT A23", "lat": "36.267761", "lon": "-86.700151", "sale_price": 120000.0, "sale_date": "5 Mar 2025", "market_value": 123500.0, "beds": 1.0, "bath": 1.0, "sqft": 704.0, "year_built": "1968", "acres": 0.0}, {"parcel_id": "26153", "address": "555 N DUPONT AVE APT A25", "lat": "36.26785", "lon": "-86.700137", "sale_price": 120000.0, "sale_date": "5 Mar 2025", "market_value": 123500.0, "beds": 1.0, "bath": 1.0, "sqft": 704.0, "year_built": "1968", "acres": 0.0}, {"parcel_id": "26158", "address": "555 N DUPONT AVE APT A11", "lat": "36.267793", "lon": "-86.700461", "sale_price": 120000.0, "sale_date": "7 Jun 2024", "market_value": 123500.0, "beds": 1.0, "bath": 1.0, "sqft": 704.0, "year_built": "1968", "acres": 0.0}, {"parcel_id": "26273", "address": "555 N DUPONT AVE APT B38", "lat": "36.268271", "lon": "-86.700894", "sale_price": -1.0, "sale_date": "", "market_value": 140400.0, "beds": 2.0, "bath": 1.0, "sqft": 968.0, "year_built": "1968", "acres": 0.0}, {"parcel_id": "26282", "address": "555 N DUPONT AVE APT C46", "lat": "36.268446", "lon": "-86.700524", "sale_price": 108500.0, "sale_date": "9 Nov 2020", "market_value": 139400.0, "beds": 2.0, "bath": 1.0, "sqft": 968.0, "year_built": "1968", "acres": 0.0}, {"parcel_id": "293029", "address": "5381 WINDYPINE DR", "lat": "36.035945", "lon": "-86.726749", "sale_price": 480000.0, "sale_date": "16 Oct 2023", "market_value": 467900.0, "beds": 3.0, "bath": 3.0, "sqft": 1160.0, "year_built": "1995", "acres": 0.16}, {"parcel_id": "32305", "address": "3708 BRICKMONT DR", "lat": "36.246216", "lon": "-86.772238", "sale_price": -1.0, "sale_date": "", "market_value": 319600.0, "beds": 4.0, "bath": 2.0, "sqft": 1519.0, "year_built": "2000", "acres": 0.23}, {"parcel_id": "32970", "address": "3636 VILLAGE TRL", "lat": "36.247024", "lon": "-86.774048", "sale_price": -1.0, "sale_date": "", "market_value": 298100.0, "beds": 4.0, "bath": 2.0, "sqft": 1537.0, "year_built": "1985", "acres": 0.23}, {"parcel_id": "32972", "address": "105 OLD TRAIL CT", "lat": "36.246443", "lon": "-86.776179", "sale_price": -1.0, "sale_date": "", "market_value": 296300.0, "beds": 4.0, "bath": 2.0, "sqft": 1537.0, "year_built": "1985", "acres": 0.31}, {"parcel_id": "32976", "address": "3620 VILLAGE TRL", "lat": "36.246696", "lon": "-86.775774", "sale_price": 324340.0, "sale_date": "11 Jul 2025", "market_value": 296300.0, "beds": 4.0, "bath": 2.0, "sqft": 1537.0, "year_built": "1985", "acres": 0.23}, {"parcel_id": "33434", "address": "909 TRAILWOOD CIR", "lat": "36.246947", "lon": "-86.770376", "sale_price": -1.0, "sale_date": "", "market_value": 299500.0, "beds": 4.0, "bath": 2.0, "sqft": 1537.0, "year_built": "1985", "acres": 0.32}, {"parcel_id": "443938", "address": "1125 10TH AVE N APT 215", "lat": "36.173169", "lon": "-86.795889", "sale_price": 364900.0, "sale_date": "28 Sep 2021", "market_value": 431000.0, "beds": 1.0, "bath": 1.0, "sqft": 660.0, "year_built": "2020", "acres": null}, {"parcel_id": "446923", "address": "2211A 24TH AVE N", "lat": "36.189163", "lon": "-86.815621", "sale_price": 401272.0, "sale_date": "18 Jul 2025", "market_value": 485700.0, "beds": 3.0, "bath": 2.5, "sqft": 1897.0, "year_built": "2020", "acres": null}, {"parcel_id": "47640", "address": "2556 HIGHLAND TRACE DR", "lat": "36.220502", "lon": "-86.800473", "sale_price": -1.0, "sale_date": "", "market_value": 382200.0, "beds": 4.0, "bath": 2.0, "sqft": 1566.0, "year_built": "2010", "acres": 0.25}, {"parcel_id": "47645", "address": "2536 HIGHLAND TRACE DR", "lat": "36.220286", "lon": "-86.801503", "sale_price": 260000.0, "sale_date": "17 Jun 2022", "market_value": 327200.0, "beds": 4.0, "bath": 4.0, "sqft": 1716.0, "year_built": "1985", "acres": 0.22}, {"parcel_id": "47736", "address": "100 HIGHLAND TRACE CV", "lat": "36.220607", "lon": "-86.802586", "sale_price": -1.0, "sale_date": "", "market_value": 322900.0, "beds": 4.0, "bath": 2.0, "sqft": 1566.0, "year_built": "1984", "acres": 0.3}, {"parcel_id": "47759", "address": "2505 HIGHLAND TRACE DR", "lat": "36.221761", "lon": "-86.802517", "sale_price": 225000.0, "sale_date": "31 Aug 2022", "market_value": 322900.0, "beds": 4.0, "bath": 2.0, "sqft": 1566.0, "year_built": "1984", "acres": 0.22}, {"parcel_id": "47763", "address": "2537 HIGHLAND TRACE DR", "lat": "36.220982", "lon": "-86.801144", "sale_price": -1.0, "sale_date": "", "market_value": 360300.0, "beds": 4.0, "bath": 4.0, "sqft": 1716.0, "year_built": "2000", "acres": 0.22}, {"parcel_id": "49837", "address": "2521 HIGHLAND TRACE DR", "lat": "36.220792", "lon": "-86.80194", "sale_price": -1.0, "sale_date": "", "market_value": 327200.0, "beds": 4.0, "bath": 4.0, "sqft": 1716.0, "year_built": "1985", "acres": 0.18}, {"parcel_id": "49843", "address": "2437 WOODALE LN", "lat": "36.221335", "lon": "-86.801419", "sale_price": -1.0, "sale_date": "", "market_value": 333200.0, "beds": 4.0, "bath": 4.0, "sqft": 1716.0, "year_built": "1985", "acres": 0.22}, {"parcel_id": "49845", "address": "2429 WOODALE LN", "lat": "36.221495", "lon": "-86.800987", "sale_price": -1.0, "sale_date": "", "market_value": 333200.0, "beds": 4.0, "bath": 4.0, "sqft": 1716.0, "year_built": "1985", "acres": 0.32}, {"parcel_id": "53020", "address": "2717 PINE RIDGE DR", "lat": "36.221039", "lon": "-86.768768", "sale_price": 150000.0, "sale_date": "10 Aug 2018", "market_value": 245900.0, "beds": 3.0, "bath": 2.0, "sqft": 1104.0, "year_built": "2001", "acres": 0.12}, {"parcel_id": "66762", "address": "3223 ALPINE AVE", "lat": "36.202351", "lon": "-86.828823", "sale_price": -1.0, "sale_date": "", "market_value": 600700.0, "beds": 2.0, "bath": 2.0, "sqft": 1431.0, "year_built": "2010", "acres": 0.23}, {"parcel_id": "82861", "address": "8132 BONNAFAIR DR", "lat": "36.210631", "lon": "-86.63238", "sale_price": 400000.0, "sale_date": "19 Aug 2022", "market_value": 435200.0, "beds": 4.0, "bath": 2.0, "sqft": 1825.0, "year_built": "2015", "acres": 0.34}]}