{"cluster_id": 2356, "name": "Y WORLD INVESTMENT LLC", "entity_count": 4, "parcel_count": 5, "total_market_value": 18331600, "total_acres": 5.4, "owner_names": ["BROTHERS FOREVER LLC", "SAMONE INVESTMENT LLC AMERICAN ESTATE TRUST", "Y WORLD INVESTMENT LLC", "Y WORLDL INVESTMENT LLC"], "registered_agents": [], "principal_offices": [], "primary_sos_status": "", "primary_foreign_state": "", "brand": "", "opencorporates": "https://opencorporates.com/companies?q=Y+WORLD+INVESTMENT+LLC&utf8=%E2%9C%93", "primary_type": "", "portfolio": {"n_parcels_with_acs": 4, "median_income": 55503, "median_home_value": 366350, "pct_renter": 74, "pct_poverty": null, "pct_vacant": 9, "pct_black": 21, "pct_white": 45, "pct_hispanic": 26, "pct_asian": 2}, "related": [{"owner": "BROTHERS FOREVER LLC", "parcels": 1, "via": "mailing address"}, {"owner": "Y WORLDL INVESTMENT LLC", "parcels": 1, "via": "mailing address"}, {"owner": "SAMONE INVESTMENT LLC AMERICAN ESTATE TRUST", "parcels": 1, "via": "mailing address"}], "parcels": [{"parcel_id": "195051", "address": "2855 LOGAN ST", "lat": "36.111401", "lon": "-86.742083", "sale_price": 1675000.0, "sale_date": "24 Aug 2021", "market_value": 3114700.0, "beds": null, "bath": 0.0, "sqft": 7912.0, "year_built": "2010", "acres": 0.57}, {"parcel_id": "220236", "address": "234 LARGO DR", "lat": "36.084056", "lon": "-86.705095", "sale_price": 500000.0, "sale_date": "30 Jan 2019", "market_value": 678700.0, "beds": 0.0, "bath": 0.0, "sqft": 4855.0, "year_built": "1988", "acres": 0.2}, {"parcel_id": "252858", "address": "2545 MURFREESBORO PIKE", "lat": "36.0761", "lon": "-86.641498", "sale_price": 2895000.0, "sale_date": "5 Aug 2020", "market_value": 4196800.0, "beds": 0.0, "bath": 0.0, "sqft": 28990.0, "year_built": "1990", "acres": 3.38}, {"parcel_id": "272621", "address": "5814 NOLENSVILLE PIKE", "lat": "36.043717", "lon": "-86.712396", "sale_price": 2100000.0, "sale_date": "20 Jan 2016", "market_value": 3992000.0, "beds": 0.0, "bath": 0.0, "sqft": 16035.0, "year_built": "1988", "acres": 1.25}, {"parcel_id": "368977", "address": "1309 BELL RD", "lat": "36.047404", "lon": "-86.675798", "sale_price": 3950000.0, "sale_date": "6 Jul 2018", "market_value": 6349400.0, "beds": 0.0, "bath": 0.0, "sqft": 28491.0, "year_built": "2007", "acres": null}]}