{"cluster_id": 2364, "name": "BURKITT VILLAGE HOMEOWNERS ASSSOCIATION INC", "entity_count": 3, "parcel_count": 5, "total_market_value": 0, "total_acres": 0.0, "owner_names": ["BURKITT SPRINGS HOMEOWNERS ASSSOCIATION INC", "BURKITT VILLAGE HOMEOWNERS ASSSOCIATION INC", "WEXFORD DOWNS HOMEOWNERS ASS INC"], "registered_agents": [], "principal_offices": [], "primary_sos_status": "", "primary_foreign_state": "", "brand": "", "opencorporates": "https://opencorporates.com/companies?q=BURKITT+VILLAGE+HOMEOWNERS+ASSSOCIATION+INC&utf8=%E2%9C%93", "primary_type": "", "portfolio": {"n_parcels_with_acs": 5, "median_income": 119831, "median_home_value": 532320, "pct_renter": 17, "pct_poverty": null, "pct_vacant": 10, "pct_black": 15, "pct_white": 78, "pct_hispanic": 3, "pct_asian": 3}, "related": [{"owner": "WEXFORD DOWNS HOMEOWNERS ASS INC", "parcels": 2, "via": "mailing address"}, {"owner": "BURKITT SPRINGS HOMEOWNERS ASSSOCIATION INC", "parcels": 1, "via": "mailing address"}], "parcels": [{"parcel_id": "433501", "address": "0 MT PISGAH RD", "lat": "36.020958", "lon": "-86.74003"}, {"parcel_id": "433504", "address": "0 HOLT RD", "lat": "36.017009", "lon": "-86.738703"}, {"parcel_id": "452158", "address": "4825 KINTORE DR", "lat": "35.98305", "lon": "-86.661129"}, {"parcel_id": "452159", "address": "4816 KINTORE DR", "lat": "35.983848", "lon": "-86.661513"}, {"parcel_id": "452160", "address": "0 WICK LN", "lat": "35.985338", "lon": "-86.660557"}]}