{"cluster_id": 2418, "name": "HILLSBORO PLAZA RETAIL PARTNERS I LLC", "entity_count": 4, "parcel_count": 5, "total_market_value": 25887600, "total_acres": 2.9, "owner_names": ["CRABTREE DIANE M 2012 FAMILY TRUST THE", "ENDEAVOR PARTNERS LLC 4012 GH LLC", "FARMINGTON 3 TRUST THE", "HILLSBORO PLAZA RETAIL PARTNERS I LLC"], "registered_agents": [], "principal_offices": [], "primary_sos_status": "", "primary_foreign_state": "", "brand": "", "opencorporates": "https://opencorporates.com/companies?q=HILLSBORO+PLAZA+RETAIL+PARTNERS+I+LLC&utf8=%E2%9C%93", "primary_type": "", "portfolio": {"n_parcels_with_acs": 5, "median_income": 120417, "median_home_value": 744760, "pct_renter": 36, "pct_poverty": null, "pct_vacant": 7, "pct_black": 17, "pct_white": 66, "pct_hispanic": 6, "pct_asian": 4}, "related": [{"owner": "ENDEAVOR PARTNERS LLC 4012 GH LLC", "parcels": 1, "via": "mailing address"}, {"owner": "CRABTREE DIANE M 2012 FAMILY TRUST THE", "parcels": 1, "via": "mailing address"}, {"owner": "FARMINGTON 3 TRUST THE", "parcels": 1, "via": "mailing address"}], "parcels": [{"parcel_id": "187044", "address": "4012 HILLSBORO PIKE", "lat": "36.103415", "lon": "-86.815107", "sale_price": 8500000.0, "sale_date": "25 Jan 2023", "market_value": 10113400.0, "beds": 0.0, "bath": 0.0, "sqft": 17395.0, "year_built": "1985", "acres": 1.03}, {"parcel_id": "187047", "address": "2012 RICHARD JONES RD 12", "lat": "36.105142", "lon": "-86.813078", "sale_price": -1.0, "sale_date": "", "market_value": 11719600.0, "beds": 0.0, "bath": 0.0, "sqft": 20685.0, "year_built": "1990", "acres": 1.0}, {"parcel_id": "187048", "address": "2010 RICHARD JONES RD", "lat": "36.104986", "lon": "-86.812795", "sale_price": -1.0, "sale_date": "", "market_value": 2931800.0, "beds": 0.0, "bath": 0.0, "sqft": 2640.0, "year_built": "1985", "acres": 0.3}, {"parcel_id": "54992", "address": "1008 HUNTERS MEADOW LN", "lat": "36.21893", "lon": "-86.728856", "sale_price": 250000.0, "sale_date": "13 Jun 2019", "market_value": 459900.0, "beds": 2.0, "bath": 1.0, "sqft": 1610.0, "year_built": "1926", "acres": 0.26}, {"parcel_id": "92194", "address": "1200 BUCHANAN ST", "lat": "36.1804", "lon": "-86.806953", "sale_price": -1.0, "sale_date": "", "market_value": 662900.0, "beds": 0.0, "bath": 0.0, "sqft": 2621.0, "year_built": "2010", "acres": 0.31}]}