{"cluster_id": 2424, "name": "FRIERSON FAMILY TRUST", "entity_count": 3, "parcel_count": 5, "total_market_value": 2838900, "total_acres": 1.2, "owner_names": ["CT PROPERTIES LLC", "FRIERSON FAMILY TRUST", "K S TRUST THE"], "registered_agents": [], "principal_offices": [], "primary_sos_status": "", "primary_foreign_state": "", "brand": "", "opencorporates": "https://opencorporates.com/companies?q=FRIERSON+FAMILY+TRUST&utf8=%E2%9C%93", "primary_type": "", "portfolio": {"n_parcels_with_acs": 5, "median_income": 75372, "median_home_value": 355925, "pct_renter": 43, "pct_poverty": null, "pct_vacant": 8, "pct_black": 46, "pct_white": 47, "pct_hispanic": 1, "pct_asian": 0}, "related": [{"owner": "CT PROPERTIES LLC", "parcels": 2, "via": "mailing address"}, {"owner": "K S TRUST THE", "parcels": 1, "via": "mailing address"}], "parcels": [{"parcel_id": "126157", "address": "3113 TORBETT ST", "lat": "36.158204", "lon": "-86.823452", "sale_price": 130000.0, "sale_date": "4 Aug 2015", "market_value": 326800.0, "beds": 3.0, "bath": 2.5, "sqft": 1155.0, "year_built": "2006", "acres": 0.11}, {"parcel_id": "59588", "address": "1521 MOHAWK TRL", "lat": "36.233275", "lon": "-86.655669", "sale_price": -1.0, "sale_date": "", "market_value": 339300.0, "beds": 3.0, "bath": 2.0, "sqft": 1182.0, "year_built": "1995", "acres": 0.18}, {"parcel_id": "78224", "address": "1001 W MCKENNIE AVE", "lat": "36.192343", "lon": "-86.749803", "sale_price": -1.0, "sale_date": "", "market_value": 1246400.0, "beds": 4.0, "bath": 4.5, "sqft": 4236.0, "year_built": "2000", "acres": 0.32}, {"parcel_id": "91468", "address": "3110 DOAK AVE", "lat": "36.189517", "lon": "-86.833394", "sale_price": -1.0, "sale_date": "", "market_value": 336000.0, "beds": 2.0, "bath": 1.0, "sqft": 1118.0, "year_built": "2000", "acres": 0.43}, {"parcel_id": "91925", "address": "1607 23RD AVE N", "lat": "36.175107", "lon": "-86.813781", "sale_price": -1.0, "sale_date": "", "market_value": 590400.0, "beds": 4.0, "bath": 3.0, "sqft": 2100.0, "year_built": "2023", "acres": 0.18}]}