{"cluster_id": 2443, "name": "GRIFFIN RICHARD LYNN FAMILY TRUST THE", "entity_count": 2, "parcel_count": 5, "total_market_value": 5388300, "total_acres": 3.4, "owner_names": ["DORRIS ROBERT G FAMILY TRUST THE", "GRIFFIN RICHARD LYNN FAMILY TRUST THE"], "registered_agents": [], "principal_offices": [], "primary_sos_status": "", "primary_foreign_state": "", "brand": "", "opencorporates": "https://opencorporates.com/companies?q=GRIFFIN+RICHARD+LYNN+FAMILY+TRUST+THE&utf8=%E2%9C%93", "primary_type": "", "portfolio": {"n_parcels_with_acs": 5, "median_income": 137914, "median_home_value": 718460, "pct_renter": 25, "pct_poverty": null, "pct_vacant": 8, "pct_black": 11, "pct_white": 79, "pct_hispanic": 4, "pct_asian": 3}, "related": [{"owner": "DORRIS ROBERT G FAMILY TRUST THE", "parcels": 2, "via": "mailing address"}], "parcels": [{"parcel_id": "116397", "address": "545 AMERICAN RD", "lat": "36.152151", "lon": "-86.881357", "sale_price": -1.0, "sale_date": "", "market_value": 383900.0, "beds": 3.0, "bath": 1.0, "sqft": 1224.0, "year_built": "1957", "acres": 0.25}, {"parcel_id": "131885", "address": "1017 S 6TH ST", "lat": "36.161976", "lon": "-86.756099", "sale_price": -1.0, "sale_date": "", "market_value": 2220100.0, "beds": 0.0, "bath": 0.0, "sqft": 18447.0, "year_built": "1951", "acres": 0.74}, {"parcel_id": "177330", "address": "1117 DAVIDSON RD", "lat": "36.122717", "lon": "-86.898459", "sale_price": 0.0, "sale_date": "10 Mar 2026", "market_value": 937300.0, "beds": 3.0, "bath": 2.0, "sqft": 1651.0, "year_built": "1980", "acres": 1.5}, {"parcel_id": "180573", "address": "5966 POST RD", "lat": "36.107637", "lon": "-86.868723", "sale_price": 0.0, "sale_date": "10 Mar 2026", "market_value": 1402900.0, "beds": 4.0, "bath": 4.5, "sqft": 5259.77, "year_built": "1965", "acres": 0.94}, {"parcel_id": "99332", "address": "800 WOODLAND ST APT 110", "lat": "36.173835", "lon": "-86.758199", "sale_price": -1.0, "sale_date": "", "market_value": 444100.0, "beds": 2.0, "bath": 2.0, "sqft": 1134.0, "year_built": "2003", "acres": null}]}