{"cluster_id": 2447, "name": "EDEN S PROPERTIES LLC", "entity_count": 1, "parcel_count": 5, "total_market_value": 1367400, "total_acres": 1.8, "owner_names": ["EDEN S PROPERTIES LLC"], "registered_agents": [], "principal_offices": [], "primary_sos_status": "", "primary_foreign_state": "", "brand": "", "opencorporates": "https://opencorporates.com/companies?q=EDEN+S+PROPERTIES+LLC&utf8=%E2%9C%93", "primary_type": "", "portfolio": {"n_parcels_with_acs": 5, "median_income": 78144, "median_home_value": 300140, "pct_renter": 27, "pct_poverty": null, "pct_vacant": 4, "pct_black": 25, "pct_white": 29, "pct_hispanic": 38, "pct_asian": 5}, "related": [], "parcels": [{"parcel_id": "243551", "address": "247 WILLOW LN", "lat": "36.077449", "lon": "-86.709141", "sale_price": 165000.0, "sale_date": "10 May 2019", "market_value": 479700.0, "beds": 5.0, "bath": 2.0, "sqft": 1950.0, "year_built": "2000", "acres": 0.32}, {"parcel_id": "246546", "address": "1525 GASSER DR", "lat": "36.077336", "lon": "-86.684301", "sale_price": 94500.0, "sale_date": "30 Oct 2015", "market_value": 285100.0, "beds": 3.0, "bath": 1.0, "sqft": 1000.0, "year_built": "1965", "acres": 0.32}, {"parcel_id": "247941", "address": "4141 EASTVIEW DR", "lat": "36.061811", "lon": "-86.686707", "sale_price": -1.0, "sale_date": "", "market_value": 245400.0, "beds": 3.0, "bath": 1.5, "sqft": 960.0, "year_built": "1980", "acres": 0.18}, {"parcel_id": "269953", "address": "291 TUSCULUM RD", "lat": "36.059218", "lon": "-86.704819"}, {"parcel_id": "295024", "address": "12558 OLD HICKORY BLVD", "lat": "36.035417", "lon": "-86.604721", "sale_price": 120000.0, "sale_date": "10 Feb 2017", "market_value": 357200.0, "beds": 2.0, "bath": 1.0, "sqft": 1442.0, "year_built": "1985", "acres": 1.0}]}