{"cluster_id": 2450, "name": "EFD FORREST DEVELOPMENT LLC", "entity_count": 1, "parcel_count": 5, "total_market_value": 2962500, "total_acres": 3.1, "owner_names": ["EFD FORREST DEVELOPMENT LLC"], "registered_agents": [], "principal_offices": [], "primary_sos_status": "", "primary_foreign_state": "", "brand": "", "opencorporates": "https://opencorporates.com/companies?q=EFD+FORREST+DEVELOPMENT+LLC&utf8=%E2%9C%93", "primary_type": "", "portfolio": {"n_parcels_with_acs": 5, "median_income": 73149, "median_home_value": 325960, "pct_renter": 41, "pct_poverty": null, "pct_vacant": 5, "pct_black": 28, "pct_white": 55, "pct_hispanic": 11, "pct_asian": 2}, "related": [], "parcels": [{"parcel_id": "172553", "address": "3225 CEDAR RIDGE RD", "lat": "36.139824", "lon": "-86.635301", "sale_price": 383000.0, "sale_date": "24 Oct 2025", "market_value": 292900.0, "beds": 3.0, "bath": 2.0, "sqft": 1196.0, "year_built": "1982", "acres": 0.32}, {"parcel_id": "17529", "address": "929 MYATT INDUSTRIAL DR", "lat": "36.281299", "lon": "-86.688117", "sale_price": -1.0, "sale_date": "", "market_value": 1851600.0, "beds": 0.0, "bath": 0.0, "sqft": 11565.0, "year_built": "2001", "acres": 2.29}, {"parcel_id": "17530", "address": "923 MYATT INDUSTRIAL DR", "lat": "36.280504", "lon": "-86.687812"}, {"parcel_id": "217203", "address": "231 THUSS AVE", "lat": "36.101993", "lon": "-86.73516", "sale_price": 412500.0, "sale_date": "4 Nov 2025", "market_value": 458200.0, "beds": 2.0, "bath": 2.0, "sqft": 1368.0, "year_built": "2000", "acres": 0.19}, {"parcel_id": "82402", "address": "151U JACKSONIAN DR", "lat": "36.205994", "lon": "-86.638028", "sale_price": 190000.0, "sale_date": "1 Mar 2019", "market_value": 359800.0, "beds": 3.0, "bath": 2.5, "sqft": 1520.0, "year_built": "1990", "acres": 0.32}]}