{"cluster_id": 2465, "name": "FERN BALL PROPERTIES LLC", "entity_count": 1, "parcel_count": 5, "total_market_value": 4314500, "total_acres": 0.9, "owner_names": ["FERN BALL PROPERTIES LLC"], "registered_agents": ["T CHAD WHITE"], "principal_offices": ["3304 PICO BLVD STE J, SANTA MONICA, CA 90405-2153"], "primary_sos_status": "", "primary_foreign_state": "", "brand": "", "opencorporates": "https://opencorporates.com/companies?q=FERN+BALL+PROPERTIES+LLC&utf8=%E2%9C%93", "primary_type": "", "portfolio": {"n_parcels_with_acs": 5, "median_income": 102935, "median_home_value": 616580, "pct_renter": 29, "pct_poverty": null, "pct_vacant": 7, "pct_black": 23, "pct_white": 69, "pct_hispanic": 7, "pct_asian": 0}, "related": [], "parcels": [{"parcel_id": "103707", "address": "1516 ORDWAY PL", "lat": "36.179632", "lon": "-86.74166", "sale_price": -1.0, "sale_date": "", "market_value": 2361300.0, "beds": null, "bath": 0.0, "sqft": 8298.0, "year_built": "2021", "acres": 0.1}, {"parcel_id": "106238", "address": "1619 SHELBY AVE", "lat": "36.170601", "lon": "-86.741055", "sale_price": 236437.0, "sale_date": "20 Apr 2017", "market_value": 550900.0, "beds": 2.0, "bath": 1.0, "sqft": 1060.0, "year_built": "1975", "acres": 0.17}, {"parcel_id": "134452", "address": "1009 LENORE ST", "lat": "36.165577", "lon": "-86.751973", "sale_price": 255000.0, "sale_date": "28 Jul 2017", "market_value": 481800.0, "beds": 3.0, "bath": 1.0, "sqft": 1200.0, "year_built": "1985", "acres": 0.12}, {"parcel_id": "75934", "address": "1236 KENMORE PL", "lat": "36.205439", "lon": "-86.730538", "sale_price": 241000.0, "sale_date": "23 Mar 2018", "market_value": 489100.0, "beds": 2.0, "bath": 2.0, "sqft": 1572.76, "year_built": "1975", "acres": 0.3}, {"parcel_id": "76940", "address": "2011 RIVERSIDE DR", "lat": "36.200643", "lon": "-86.722448", "sale_price": 230000.0, "sale_date": "14 Jun 2018", "market_value": 431400.0, "beds": 2.0, "bath": 1.0, "sqft": 726.0, "year_built": "1990", "acres": 0.18}]}