{"cluster_id": 2467, "name": "FIELDS OF BRICK CHURCH HOMEOWNERS ASSOCIATION INC", "entity_count": 2, "parcel_count": 5, "total_market_value": 0, "total_acres": 0.0, "owner_names": ["FIELDS OF BRICK CHURCH HOMEOWNERS ASSOCIATION INC", "WILLIAMS VALLEY HOMEOWNER S ASSN INC"], "registered_agents": [], "principal_offices": [], "primary_sos_status": "", "primary_foreign_state": "", "brand": "", "opencorporates": "https://opencorporates.com/companies?q=FIELDS+OF+BRICK+CHURCH+HOMEOWNERS+ASSOCIATION+INC&utf8=%E2%9C%93", "primary_type": "", "portfolio": {"n_parcels_with_acs": 5, "median_income": 56812, "median_home_value": 309700, "pct_renter": 42, "pct_poverty": null, "pct_vacant": 5, "pct_black": 67, "pct_white": 14, "pct_hispanic": 14, "pct_asian": 1}, "related": [{"owner": "WILLIAMS VALLEY HOMEOWNER S ASSN INC", "parcels": 1, "via": "mailing address"}], "parcels": [{"parcel_id": "24045", "address": "0 WILLIAMS VALLEY CT", "lat": "36.269202", "lon": "-86.718347"}, {"parcel_id": "300423", "address": "1728 BRICK CT", "lat": "36.258919", "lon": "-86.772743"}, {"parcel_id": "300424", "address": "1572 BRICK DR", "lat": "36.257818", "lon": "-86.774355"}, {"parcel_id": "300425", "address": "3553 BRICK CHURCH PIKE", "lat": "36.258151", "lon": "-86.77646"}, {"parcel_id": "300426", "address": "3555 BRICK CHURCH PIKE", "lat": "36.258636", "lon": "-86.775327"}]}