{"cluster_id": 2514, "name": "TN MAPCO LLC", "entity_count": 4, "parcel_count": 5, "total_market_value": 32270000, "total_acres": 10.5, "owner_names": ["HARLAN TXRH 2019 LLC", "RESIDENCE AT MUSIC CITY FLATS LLC", "STORE MASTER FUNDING I LLC", "TN MAPCO LLC"], "registered_agents": [], "principal_offices": [], "primary_sos_status": "", "primary_foreign_state": "", "brand": "", "opencorporates": "https://opencorporates.com/companies?q=TN+MAPCO+LLC&utf8=%E2%9C%93", "primary_type": "", "portfolio": {"n_parcels_with_acs": 5, "median_income": 62760, "median_home_value": 337860, "pct_renter": 66, "pct_poverty": null, "pct_vacant": 13, "pct_black": 24, "pct_white": 47, "pct_hispanic": 27, "pct_asian": 2}, "related": [{"owner": "HARLAN TXRH 2019 LLC", "parcels": 1, "via": "mailing address"}, {"owner": "RESIDENCE AT MUSIC CITY FLATS LLC", "parcels": 1, "via": "mailing address"}, {"owner": "STORE MASTER FUNDING I LLC", "parcels": 1, "via": "mailing address"}], "parcels": [{"parcel_id": "134889", "address": "1617 LEBANON PIKE", "lat": "36.151947", "lon": "-86.71777", "sale_price": 26825000.0, "sale_date": "14 Mar 2022", "market_value": 23647000.0, "beds": 0.0, "bath": 0.0, "sqft": 0.0, "year_built": "2005", "acres": 7.4}, {"parcel_id": "219771", "address": "2101 MURFREESBORO PIKE", "lat": "36.094001", "lon": "-86.65356", "sale_price": -1.0, "sale_date": "", "market_value": 1918900.0, "beds": 0.0, "bath": 0.0, "sqft": 3136.0, "year_built": "1985", "acres": 0.64}, {"parcel_id": "241696", "address": "440 HARDING PL", "lat": "36.07858", "lon": "-86.729868", "sale_price": -1.0, "sale_date": "", "market_value": 1974100.0, "beds": 0.0, "bath": 0.0, "sqft": 2902.0, "year_built": "1990", "acres": 0.57}, {"parcel_id": "250926", "address": "2705 MURFREESBORO PIKE", "lat": "36.070933", "lon": "-86.635753", "sale_price": 644638.0, "sale_date": "8 Sep 2011", "market_value": 1013500.0, "beds": 0.0, "bath": 0.0, "sqft": 2002.0, "year_built": "1990", "acres": 0.4}, {"parcel_id": "83301", "address": "5055 OLD HICKORY BLVD", "lat": "36.192564", "lon": "-86.617263", "sale_price": 3665000.0, "sale_date": "24 Feb 2022", "market_value": 3716500.0, "beds": null, "bath": 0.0, "sqft": 3734.0, "year_built": "2021", "acres": 1.52}]}