{"cluster_id": 2541, "name": "ITSASO ALDE PROPERTIES", "entity_count": 1, "parcel_count": 5, "total_market_value": 3966600, "total_acres": 0.0, "owner_names": ["ITSASO ALDE PROPERTIES"], "registered_agents": [], "principal_offices": [], "primary_sos_status": "", "primary_foreign_state": "", "brand": "", "opencorporates": "https://opencorporates.com/companies?q=ITSASO+ALDE+PROPERTIES&utf8=%E2%9C%93", "primary_type": "", "portfolio": {"n_parcels_with_acs": 5, "median_income": 127893, "median_home_value": 970000, "pct_renter": 62, "pct_poverty": null, "pct_vacant": 18, "pct_black": 9, "pct_white": 82, "pct_hispanic": 5, "pct_asian": 3}, "related": [], "parcels": [{"parcel_id": "373327", "address": "3000 VANDERBILT PL APT 324", "lat": "36.142544", "lon": "-86.812764", "sale_price": 270000.0, "sale_date": "8 Jan 2021", "market_value": 377100.0, "beds": 1.0, "bath": 1.0, "sqft": 550.0, "year_built": "2007", "acres": null}, {"parcel_id": "396341", "address": "413 VAN BUREN ST STE 102", "lat": "36.179225", "lon": "-86.789523", "sale_price": 500000.0, "sale_date": "15 Jan 2021", "market_value": 760500.0, "beds": 2.0, "bath": 2.5, "sqft": 1530.0, "year_built": "2010", "acres": null}, {"parcel_id": "407072", "address": "531 GARFIELD ST", "lat": "36.181304", "lon": "-86.794154", "sale_price": 535000.0, "sale_date": "25 Feb 2021", "market_value": 675000.0, "beds": 3.0, "bath": 2.5, "sqft": 1566.0, "year_built": "2014", "acres": null}, {"parcel_id": "433631", "address": "515 CHURCH ST UNIT 3208", "lat": "36.162742", "lon": "-86.780305", "sale_price": 850000.0, "sale_date": "17 Apr 2026", "market_value": 969600.0, "beds": 2.0, "bath": 2.0, "sqft": 1084.0, "year_built": "2018", "acres": null}, {"parcel_id": "433942", "address": "1707 BLAIR BLVD APT 201", "lat": "36.129476", "lon": "-86.796622", "sale_price": 750000.0, "sale_date": "8 Feb 2021", "market_value": 1184400.0, "beds": 3.0, "bath": 3.5, "sqft": 1878.9975, "year_built": "2018", "acres": null}]}