{"cluster_id": 2543, "name": "J E TURNER PROPERTIES LLC", "entity_count": 3, "parcel_count": 5, "total_market_value": 2061000, "total_acres": 0.8, "owner_names": ["J E TURNER PROPERTIES", "J E TURNER PROPERTIES LLC", "TURNER LIVING TRUST"], "registered_agents": [], "principal_offices": [], "primary_sos_status": "", "primary_foreign_state": "", "brand": "", "opencorporates": "https://opencorporates.com/companies?q=J+E+TURNER+PROPERTIES+LLC&utf8=%E2%9C%93", "primary_type": "", "portfolio": {"n_parcels_with_acs": 5, "median_income": 95042, "median_home_value": 408300, "pct_renter": 27, "pct_poverty": null, "pct_vacant": 5, "pct_black": 14, "pct_white": 67, "pct_hispanic": 9, "pct_asian": 4}, "related": [{"owner": "J E TURNER PROPERTIES", "parcels": 1, "via": "mailing address"}, {"owner": "TURNER LIVING TRUST", "parcels": 1, "via": "mailing address"}], "parcels": [{"parcel_id": "137233", "address": "207 COTTAGE PL", "lat": "36.169924", "lon": "-86.690874", "sale_price": 165000.0, "sale_date": "30 Dec 2016", "market_value": 341200.0, "beds": 3.0, "bath": 2.0, "sqft": 1501.0, "year_built": "1985", "acres": 0.0}, {"parcel_id": "235281", "address": "121 HICKS RD", "lat": "36.063507", "lon": "-86.924401", "sale_price": 191500.0, "sale_date": "8 Jul 2019", "market_value": 284200.0, "beds": 3.0, "bath": 2.0, "sqft": 1366.0, "year_built": "1985", "acres": 0.0}, {"parcel_id": "267817", "address": "8017 MEADOW VIEW DR", "lat": "36.043211", "lon": "-86.946216", "sale_price": 356000.0, "sale_date": "17 Mar 2014", "market_value": 784000.0, "beds": 4.0, "bath": 2.5, "sqft": 2925.0, "year_built": "2000", "acres": 0.76}, {"parcel_id": "386814", "address": "202 SPENCE LN UNIT 104", "lat": "36.15298", "lon": "-86.721198", "sale_price": 154250.0, "sale_date": "23 Jun 2016", "market_value": 302000.0, "beds": 2.0, "bath": 2.5, "sqft": 1260.0, "year_built": "2008", "acres": null}, {"parcel_id": "387003", "address": "800 SPENCE ENCLAVE LN", "lat": "36.151471", "lon": "-86.718559", "sale_price": 232000.0, "sale_date": "1 Aug 2019", "market_value": 349600.0, "beds": 3.0, "bath": 2.5, "sqft": 1756.0, "year_built": "2008", "acres": null}]}