{"cluster_id": 2544, "name": "J J TRUST", "entity_count": 1, "parcel_count": 5, "total_market_value": 2665500, "total_acres": 0.7, "owner_names": ["J J TRUST"], "registered_agents": [], "principal_offices": [], "primary_sos_status": "", "primary_foreign_state": "", "brand": "", "opencorporates": "https://opencorporates.com/companies?q=J+J+TRUST&utf8=%E2%9C%93", "primary_type": "", "portfolio": {"n_parcels_with_acs": 4, "median_income": 62994, "median_home_value": 676825, "pct_renter": 58, "pct_poverty": null, "pct_vacant": 11, "pct_black": 23, "pct_white": 50, "pct_hispanic": 26, "pct_asian": 4}, "related": [], "parcels": [{"parcel_id": "183512", "address": "3620 BOWLINGATE LN", "lat": "36.119895", "lon": "-86.828239", "sale_price": -1.0, "sale_date": "", "market_value": 1056800.0, "beds": 3.0, "bath": 3.5, "sqft": 3966.5, "year_built": "1986", "acres": 0.22}, {"parcel_id": "185889", "address": "3600 HILLSBORO PIKE APT D7", "lat": "36.110446", "lon": "-86.81091", "sale_price": 220000.0, "sale_date": "9 Aug 2022", "market_value": 255500.0, "beds": 1.0, "bath": 1.0, "sqft": 600.0, "year_built": "2000", "acres": 0.0}, {"parcel_id": "23410", "address": "411 GALLATIN PIKE S", "lat": "36.258606", "lon": "-86.713066", "sale_price": -1.0, "sale_date": "", "market_value": 953100.0, "beds": null, "bath": 0.0, "sqft": 10220.0, "year_built": "1955", "acres": 0.45}, {"parcel_id": "23411", "address": "101 HARRIS ST", "lat": "36.258588", "lon": "-86.712717"}, {"parcel_id": "368337", "address": "2115 YEAMAN PL APT 512", "lat": "36.17312", "lon": "-86.765172", "sale_price": 335000.0, "sale_date": "10 Jan 2022", "market_value": 400100.0, "beds": 1.0, "bath": 1.5, "sqft": 967.0, "year_built": "2008", "acres": null}]}