{"cluster_id": 2564, "name": "KEYS LIVING TRUST", "entity_count": 1, "parcel_count": 5, "total_market_value": 2532600, "total_acres": 0.9, "owner_names": ["KEYS LIVING TRUST"], "registered_agents": [], "principal_offices": [], "primary_sos_status": "", "primary_foreign_state": "", "brand": "", "opencorporates": "https://opencorporates.com/companies?q=KEYS+LIVING+TRUST&utf8=%E2%9C%93", "primary_type": "", "portfolio": {"n_parcels_with_acs": 5, "median_income": 82493, "median_home_value": 564280, "pct_renter": 49, "pct_poverty": null, "pct_vacant": 6, "pct_black": 10, "pct_white": 69, "pct_hispanic": 11, "pct_asian": 9}, "related": [], "parcels": [{"parcel_id": "146955", "address": "6509 THUNDERBIRD DR", "lat": "36.143759", "lon": "-86.883478", "sale_price": -1.0, "sale_date": "", "market_value": 230600.0, "beds": 2.0, "bath": 1.0, "sqft": 780.0, "year_built": "1984", "acres": 0.13}, {"parcel_id": "146961", "address": "6509B THUNDERBIRD DR", "lat": "36.143693", "lon": "-86.883567", "sale_price": -1.0, "sale_date": "", "market_value": 230600.0, "beds": 2.0, "bath": 1.0, "sqft": 780.0, "year_built": "1984", "acres": 0.12}, {"parcel_id": "159026", "address": "2540 BLAIR BLVD", "lat": "36.131736", "lon": "-86.811275", "sale_price": -1.0, "sale_date": "", "market_value": 813500.0, "beds": 4.0, "bath": 2.0, "sqft": 2050.0, "year_built": "1980", "acres": 0.25}, {"parcel_id": "204905", "address": "301 PINNACLE PL", "lat": "36.080258", "lon": "-86.921337", "sale_price": -1.0, "sale_date": "", "market_value": 741800.0, "beds": 4.0, "bath": 3.5, "sqft": 3516.0, "year_built": "2004", "acres": null}, {"parcel_id": "205716", "address": "7316 CORONADO CT", "lat": "36.081864", "lon": "-86.935776", "sale_price": -1.0, "sale_date": "", "market_value": 516100.0, "beds": 4.0, "bath": 1.5, "sqft": 1544.0, "year_built": "1972", "acres": 0.41}]}