{"cluster_id": 260, "name": "M SQUARED LLC", "entity_count": 13, "parcel_count": 35, "total_market_value": 0, "total_acres": 0.0, "owner_names": ["M SQUARED LLC", "O I C HOMES AT 1300 MONETTA AVENUE", "O I C HOMES AT 1703 TAMMANY DRIVE", "O I C HOMES AT 1800 1802 NORTHVIEW AV", "O I C HOMES AT 1804 1806 NORTHVIEW AV", "O I C HOMES AT 1808 1810 NORTHVIEW AV", "O I C HOMES AT 1902 VALLEY PARK DRIVE", "O I C HOMES AT 2431 BRITTANY DRIVE", "O I C HOMES AT 2611 TIFFANY DRIVE", "O I C HOMES AT 329 MCKENNELL AVENUE", "O I C HOMES AT 331 MCKENNELL AVENUE LOT", "O I C HOMES AT 333 MCKENNELL AVENUE", "O I C HOMES AT 335 MCKENNELL AVENUE"], "registered_agents": [], "principal_offices": [], "primary_sos_status": "", "primary_foreign_state": "", "brand": "", "opencorporates": "https://opencorporates.com/companies?q=M+SQUARED+LLC&utf8=%E2%9C%93", "primary_type": "", "portfolio": {"n_parcels_with_acs": 10, "median_income": 101617, "median_home_value": 528037, "pct_renter": 30, "pct_poverty": null, "pct_vacant": 8, "pct_black": 15, "pct_white": 71, "pct_hispanic": 5, "pct_asian": 1}, "related": [{"owner": "O I C HOMES AT 1804 1806 NORTHVIEW AV", "parcels": 1, "via": "mailing address"}, {"owner": "O I C HOMES AT 1808 1810 NORTHVIEW AV", "parcels": 1, "via": "mailing address"}, {"owner": "O I C HOMES AT 2611 TIFFANY DRIVE", "parcels": 1, "via": "mailing address"}, {"owner": "O I C HOMES AT 333 MCKENNELL AVENUE", "parcels": 1, "via": "mailing address"}, {"owner": "O I C HOMES AT 1300 MONETTA AVENUE", "parcels": 1, "via": "mailing address"}, {"owner": "O I C HOMES AT 1902 VALLEY PARK DRIVE", "parcels": 1, "via": "mailing address"}, {"owner": "O I C HOMES AT 329 MCKENNELL AVENUE", "parcels": 1, "via": "mailing address"}, {"owner": "O I C HOMES AT 335 MCKENNELL AVENUE", "parcels": 1, "via": "mailing address"}, {"owner": "O I C HOMES AT 2431 BRITTANY DRIVE", "parcels": 1, "via": "mailing address"}, {"owner": "O I C HOMES AT 331 MCKENNELL AVENUE LOT", "parcels": 1, "via": "mailing address"}, {"owner": "O I C HOMES AT 1800 1802 NORTHVIEW AV", "parcels": 1, "via": "mailing address"}, {"owner": "O I C HOMES AT 1703 TAMMANY DRIVE", "parcels": 1, "via": "mailing address"}], "parcels": [{"parcel_id": "106813", "address": "", "lat": "", "lon": ""}, {"parcel_id": "107016", "address": "", "lat": "", "lon": ""}, {"parcel_id": "35257", "address": "371 OAKVIEW DR", "lat": "36.239036", "lon": "-86.758566"}, {"parcel_id": "421263", "address": "1300 C MONETTA AVE", "lat": "36.200278", "lon": "-86.7351"}, {"parcel_id": "427199", "address": "1902C VALLEY PARK DR", "lat": "36.196937", "lon": "-86.714024"}, {"parcel_id": "440331", "address": "", "lat": "", "lon": ""}, {"parcel_id": "440332", "address": "", "lat": "", "lon": ""}, {"parcel_id": "440333", "address": "", "lat": "", "lon": ""}, {"parcel_id": "440454", "address": "2433 BRITTANY DR", "lat": "36.17606", "lon": "-86.720247"}, {"parcel_id": "441905", "address": "1810B NORTHVIEW AVE", "lat": "36.200938", "lon": "-86.73539"}, {"parcel_id": "443158", "address": "1802B NORTHVIEW AVE", "lat": "36.200667", "lon": "-86.735171"}, {"parcel_id": "443161", "address": "1806B NORTHVIEW AVE", "lat": "36.200805", "lon": "-86.735419"}, {"parcel_id": "452395", "address": "2611C TIFFANY DR", "lat": "36.184016", "lon": "-86.709473"}, {"parcel_id": "455901", "address": "", "lat": "", "lon": ""}, {"parcel_id": "455902", "address": "", "lat": "", "lon": ""}, {"parcel_id": "455903", "address": "", "lat": "", "lon": ""}, {"parcel_id": "455904", "address": "", "lat": "", "lon": ""}, {"parcel_id": "460520", "address": "331C MCKENNELL DR", "lat": "36.190988", "lon": "-86.720007"}, {"parcel_id": "463151", "address": "333C MCKENNELL DR", "lat": "36.190881", "lon": "-86.719943"}, {"parcel_id": "464606", "address": "1703C TAMMANY DR", "lat": "36.194912", "lon": "-86.719776"}, {"parcel_id": "472344", "address": "335A MCKENNELL DR", "lat": "36.190152", "lon": "-86.720338"}, {"parcel_id": "472345", "address": "335B MCKENNELL DR", "lat": "36.190106", "lon": "-86.720344"}, {"parcel_id": "472346", "address": "335C MCKENNELL DR", "lat": "36.190573", "lon": "-86.719912"}, {"parcel_id": "478782", "address": "329B MCKENNELL DR", "lat": "36.190643", "lon": "-86.720364"}, {"parcel_id": "478783", "address": "329A MCKENNELL DR", "lat": "36.190791", "lon": "-86.720342"}, {"parcel_id": "478784", "address": "329C MCKENNELL DR", "lat": "36.190842", "lon": "-86.720236"}, {"parcel_id": "56732", "address": "", "lat": "", "lon": ""}, {"parcel_id": "56733", "address": "", "lat": "", "lon": ""}, {"parcel_id": "70522", "address": "715 CHEROKEE AVE", "lat": "36.202479", "lon": "-86.756946"}, {"parcel_id": "70643", "address": "834 CHEROKEE AVE", "lat": "36.200978", "lon": "-86.753035"}, {"parcel_id": "76546", "address": "", "lat": "", "lon": ""}, {"parcel_id": "76675", "address": "", "lat": "", "lon": ""}, {"parcel_id": "76767", "address": "", "lat": "", "lon": ""}, {"parcel_id": "78177", "address": "", "lat": "", "lon": ""}, {"parcel_id": "78410", "address": "", "lat": "", "lon": ""}]}