{"cluster_id": 2600, "name": "MALLA LLC", "entity_count": 2, "parcel_count": 5, "total_market_value": 1449400, "total_acres": 0.0, "owner_names": ["MALLA LLC", "MALLA YOGESH B SARITA JOINT REVOCABLE TRUST THE"], "registered_agents": [], "principal_offices": [], "primary_sos_status": "", "primary_foreign_state": "", "brand": "", "opencorporates": "https://opencorporates.com/companies?q=MALLA+LLC&utf8=%E2%9C%93", "primary_type": "", "portfolio": {"n_parcels_with_acs": 5, "median_income": 120172, "median_home_value": 596100, "pct_renter": 31, "pct_poverty": null, "pct_vacant": 11, "pct_black": 11, "pct_white": 77, "pct_hispanic": 5, "pct_asian": 3}, "related": [{"owner": "MALLA YOGESH B SARITA JOINT REVOCABLE TRUST THE", "parcels": 1, "via": "mailing address"}], "parcels": [{"parcel_id": "309857", "address": "2600 HILLSBORO PIKE APT 214", "lat": "36.124516", "lon": "-86.804458", "sale_price": 381000.0, "sale_date": "10 Sep 2018", "market_value": 518300.0, "beds": 2.0, "bath": 2.0, "sqft": 1434.0, "year_built": "2006", "acres": null}, {"parcel_id": "309932", "address": "2600 HILLSBORO PIKE APT 457", "lat": "36.12502", "lon": "-86.80531", "sale_price": -1.0, "sale_date": "", "market_value": 413600.0, "beds": 1.0, "bath": 1.0, "sqft": 1196.0, "year_built": "2006", "acres": null}, {"parcel_id": "365777", "address": "3100 W END CIR APT 205", "lat": "36.144302", "lon": "-86.816795", "sale_price": 498000.0, "sale_date": "6 Jun 2024", "market_value": 517500.0, "beds": 2.0, "bath": 2.0, "sqft": 1225.0, "year_built": "2007", "acres": null}, {"parcel_id": "450435", "address": "1080 INDIGO ALY", "lat": "36.001681", "lon": "-86.685144"}, {"parcel_id": "464999", "address": "2112 ROTORUA DR E", "lat": "35.9961", "lon": "-86.664656"}]}