{"cluster_id": 2617, "name": "MILLER FAMILY TRUST", "entity_count": 1, "parcel_count": 5, "total_market_value": 4760400, "total_acres": 3.3, "owner_names": ["MILLER FAMILY TRUST"], "registered_agents": [], "principal_offices": [], "primary_sos_status": "", "primary_foreign_state": "", "brand": "", "opencorporates": "https://opencorporates.com/companies?q=MILLER+FAMILY+TRUST&utf8=%E2%9C%93", "primary_type": "", "portfolio": {"n_parcels_with_acs": 5, "median_income": 117813, "median_home_value": 637250, "pct_renter": 45, "pct_poverty": null, "pct_vacant": 10, "pct_black": 20, "pct_white": 67, "pct_hispanic": 11, "pct_asian": 2}, "related": [], "parcels": [{"parcel_id": "141439", "address": "2750 ELM HILL PIKE", "lat": "36.149301", "lon": "-86.666803", "sale_price": -1.0, "sale_date": "", "market_value": 2469800.0, "beds": null, "bath": 0.0, "sqft": 2683.0, "year_built": "2021", "acres": 0.82}, {"parcel_id": "178025", "address": "6512 JOCELYN HOLLOW RD", "lat": "36.103619", "lon": "-86.898604", "sale_price": 975000.0, "sale_date": "21 Nov 2023", "market_value": 932300.0, "beds": 5.0, "bath": 4.0, "sqft": 2919.0, "year_built": "2010", "acres": 1.1}, {"parcel_id": "224474", "address": "2630 TIMBERLAND DR", "lat": "36.085622", "lon": "-86.629793", "sale_price": -1.0, "sale_date": "", "market_value": 288300.0, "beds": 3.0, "bath": 2.0, "sqft": 1360.0, "year_built": "1970", "acres": 0.27}, {"parcel_id": "269912", "address": "904 FOREST ACRES CT", "lat": "36.058928", "lon": "-86.781054", "sale_price": -1.0, "sale_date": "", "market_value": 713000.0, "beds": 3.0, "bath": 2.0, "sqft": 1899.0, "year_built": "1975", "acres": 1.12}, {"parcel_id": "370000", "address": "3503 STEFFISBURG DR", "lat": "36.041575", "lon": "-86.721219", "sale_price": 310000.0, "sale_date": "23 Aug 2022", "market_value": 357000.0, "beds": 2.0, "bath": 2.5, "sqft": 1390.5, "year_built": "2009", "acres": null}]}