{"cluster_id": 2643, "name": "NEVAREZ SMITH INVESTMENTS LLC", "entity_count": 1, "parcel_count": 5, "total_market_value": 2948200, "total_acres": 0.0, "owner_names": ["NEVAREZ SMITH INVESTMENTS LLC"], "registered_agents": [], "principal_offices": [], "primary_sos_status": "", "primary_foreign_state": "", "brand": "", "opencorporates": "https://opencorporates.com/companies?q=NEVAREZ+SMITH+INVESTMENTS+LLC&utf8=%E2%9C%93", "primary_type": "", "portfolio": {"n_parcels_with_acs": 5, "median_income": 95860, "median_home_value": 557840, "pct_renter": 35, "pct_poverty": null, "pct_vacant": 10, "pct_black": 22, "pct_white": 62, "pct_hispanic": 6, "pct_asian": 5}, "related": [], "parcels": [{"parcel_id": "373759", "address": "512 CHESTERFIELD AVE APT C5", "lat": "36.13145", "lon": "-86.816175", "sale_price": 252750.0, "sale_date": "24 Aug 2021", "market_value": 300000.0, "beds": 2.0, "bath": 1.0, "sqft": 810.0, "year_built": "1985", "acres": null}, {"parcel_id": "412751", "address": "1531 HAYDEN DR", "lat": "36.195047", "lon": "-86.714482", "sale_price": 399000.0, "sale_date": "9 Aug 2019", "market_value": 547000.0, "beds": 3.0, "bath": 2.5, "sqft": 1672.0, "year_built": "2015", "acres": null}, {"parcel_id": "427087", "address": "751A LYNWOOD AVE", "lat": "36.137934", "lon": "-86.776806", "sale_price": 599900.0, "sale_date": "10 Sep 2019", "market_value": 885000.0, "beds": 3.0, "bath": 3.5, "sqft": 2799.0, "year_built": "2019", "acres": null}, {"parcel_id": "440202", "address": "1605B ESSEX AVE", "lat": "36.199599", "lon": "-86.724749", "sale_price": 385000.0, "sale_date": "10 Sep 2019", "market_value": 502800.0, "beds": 3.0, "bath": 3.0, "sqft": 1648.0, "year_built": "2019", "acres": null}, {"parcel_id": "447829", "address": "2604B NELDIA CT", "lat": "36.197329", "lon": "-86.737909", "sale_price": 439000.0, "sale_date": "30 Dec 2020", "market_value": 713400.0, "beds": 3.0, "bath": 2.5, "sqft": 2180.0, "year_built": "2020", "acres": null}]}