{"cluster_id": 2673, "name": "OB INVESTMENT GROUP LLC", "entity_count": 1, "parcel_count": 5, "total_market_value": 1670100, "total_acres": 2.7, "owner_names": ["OB INVESTMENT GROUP LLC"], "registered_agents": [], "principal_offices": [], "primary_sos_status": "", "primary_foreign_state": "", "brand": "", "opencorporates": "https://opencorporates.com/companies?q=OB+INVESTMENT+GROUP+LLC&utf8=%E2%9C%93", "primary_type": "", "portfolio": {"n_parcels_with_acs": 5, "median_income": 69925, "median_home_value": 333133, "pct_renter": 49, "pct_poverty": null, "pct_vacant": 5, "pct_black": 30, "pct_white": 32, "pct_hispanic": 32, "pct_asian": 0}, "related": [], "parcels": [{"parcel_id": "10633", "address": "422 ROSEHILL DR", "lat": "36.312471", "lon": "-86.727935", "sale_price": -1.0, "sale_date": "", "market_value": 472200.0, "beds": 4.0, "bath": 2.0, "sqft": 1800.0, "year_built": "2005", "acres": 1.31}, {"parcel_id": "24709", "address": "205 NIX DR", "lat": "36.267811", "lon": "-86.694101", "sale_price": 225000.0, "sale_date": "19 May 2022", "market_value": 265700.0, "beds": 3.0, "bath": 1.0, "sqft": 1014.0, "year_built": "1955", "acres": 0.49}, {"parcel_id": "24710", "address": "203 NIX DR", "lat": "36.267493", "lon": "-86.694133", "sale_price": -1.0, "sale_date": "", "market_value": 279300.0, "beds": 2.0, "bath": 1.0, "sqft": 988.0, "year_built": "1990", "acres": 0.49}, {"parcel_id": "25178", "address": "118 CUMBERLAND AVE", "lat": "36.267482", "lon": "-86.709124", "sale_price": 240000.0, "sale_date": "25 Oct 2024", "market_value": 352100.0, "beds": 3.0, "bath": 2.0, "sqft": 1514.0, "year_built": "1965", "acres": 0.23}, {"parcel_id": "89109", "address": "3208 HOLLAND LN", "lat": "36.180418", "lon": "-86.842048", "sale_price": -1.0, "sale_date": "", "market_value": 300800.0, "beds": 3.0, "bath": 2.0, "sqft": 1546.0, "year_built": "1995", "acres": 0.16}]}