{"cluster_id": 2677, "name": "ORION INTERNATIONAL LLC", "entity_count": 1, "parcel_count": 5, "total_market_value": 6445700, "total_acres": 0.0, "owner_names": ["ORION INTERNATIONAL LLC"], "registered_agents": [], "principal_offices": [], "primary_sos_status": "", "primary_foreign_state": "", "brand": "", "opencorporates": "https://opencorporates.com/companies?q=ORION+INTERNATIONAL+LLC&utf8=%E2%9C%93", "primary_type": "", "portfolio": {"n_parcels_with_acs": 5, "median_income": 134055, "median_home_value": 1230760, "pct_renter": 36, "pct_poverty": null, "pct_vacant": 7, "pct_black": 6, "pct_white": 84, "pct_hispanic": 4, "pct_asian": 4}, "related": [], "parcels": [{"parcel_id": "410349", "address": "2206B 11TH AVE S", "lat": "36.128451", "lon": "-86.787291", "sale_price": 1250000.0, "sale_date": "17 May 2022", "market_value": 1158900.0, "beds": 4.0, "bath": 3.0, "sqft": 2448.0, "year_built": "2015", "acres": null}, {"parcel_id": "418328", "address": "3444 WOODMONT BLVD", "lat": "36.11587", "lon": "-86.823654", "sale_price": 2775000.0, "sale_date": "14 Aug 2020", "market_value": 3912600.0, "beds": 6.0, "bath": 6.0, "sqft": 6522.0, "year_built": "2016", "acres": null}, {"parcel_id": "428839", "address": "922B GALE LN", "lat": "36.117808", "lon": "-86.782317", "sale_price": 1450000.0, "sale_date": "5 May 2023", "market_value": 1374200.0, "beds": 4.0, "bath": 3.0, "sqft": 2874.0, "year_built": "2018", "acres": null}, {"parcel_id": "467297", "address": "820A KIRKWOOD AVE", "lat": "36.121321", "lon": "-86.778076"}, {"parcel_id": "467298", "address": "820B KIRKWOOD AVE", "lat": "36.121306", "lon": "-86.778192"}]}