{"cluster_id": 2682, "name": "PACIFIC PREMIER TRUST CUSTODIAN FBO STEVEN F PETERSEN", "entity_count": 4, "parcel_count": 5, "total_market_value": 1964800, "total_acres": 0.2, "owner_names": ["PACIFIC PREMIER TRUST CUST FBO ZAMPINO", "PACIFIC PREMIER TRUST CUSTODIAN FBO STEVEN F PETERSEN", "PENSCO TRUST CO LLC CUST FBO EVAN R GREENE IRA", "PENSCO TRUST CO LLC CUST FBO PETERSEN"], "registered_agents": [], "principal_offices": [], "primary_sos_status": "", "primary_foreign_state": "", "brand": "", "opencorporates": "https://opencorporates.com/companies?q=PACIFIC+PREMIER+TRUST+CUSTODIAN+FBO+STEVEN+F+PETERSEN&utf8=%E2%9C%93", "primary_type": "", "portfolio": {"n_parcels_with_acs": 4, "median_income": 92294, "median_home_value": 617940, "pct_renter": 46, "pct_poverty": null, "pct_vacant": 5, "pct_black": 30, "pct_white": 56, "pct_hispanic": 3, "pct_asian": 5}, "related": [{"owner": "PENSCO TRUST CO LLC CUST FBO EVAN R GREENE IRA", "parcels": 1, "via": "mailing address"}, {"owner": "PACIFIC PREMIER TRUST CUST FBO ZAMPINO", "parcels": 1, "via": "mailing address"}, {"owner": "PENSCO TRUST CO LLC CUST FBO PETERSEN", "parcels": 1, "via": "mailing address"}], "parcels": [{"parcel_id": "156884", "address": "1227 VILLA PL", "lat": "36.141263", "lon": "-86.792624", "sale_price": 490000.0, "sale_date": "22 Aug 2019", "market_value": 873000.0, "beds": 2.0, "bath": 2.0, "sqft": 1575.0, "year_built": "1947", "acres": 0.17}, {"parcel_id": "415050", "address": "944 RIVERSIDE DR", "lat": "36.185988", "lon": "-86.725917", "sale_price": 440000.0, "sale_date": "10 Feb 2021", "market_value": 623700.0, "beds": 3.0, "bath": 3.5, "sqft": 2000.0, "year_built": "2018", "acres": null}, {"parcel_id": "435750", "address": "2224 24TH AVE N", "lat": "36.189496", "lon": "-86.815088", "sale_price": 379000.0, "sale_date": "3 Feb 2020", "market_value": 468100.0, "beds": 3.0, "bath": 3.0, "sqft": 1774.0, "year_built": "2019", "acres": null}, {"parcel_id": "465399", "address": "2174A ROCK CITY ST", "lat": "36.200501", "lon": "-86.728011"}, {"parcel_id": "465400", "address": "2174B ROCK CITY ST", "lat": "36.200507", "lon": "-86.728102"}]}