{"cluster_id": 2723, "name": "SHARIFI AMROLLAH HAYDEH GHANEI REV TRUST", "entity_count": 1, "parcel_count": 5, "total_market_value": 2473800, "total_acres": 2.4, "owner_names": ["SHARIFI AMROLLAH HAYDEH GHANEI REV TRUST"], "registered_agents": [], "principal_offices": [], "primary_sos_status": "", "primary_foreign_state": "", "brand": "", "opencorporates": "https://opencorporates.com/companies?q=SHARIFI+AMROLLAH+HAYDEH+GHANEI+REV+TRUST&utf8=%E2%9C%93", "primary_type": "", "portfolio": {"n_parcels_with_acs": 5, "median_income": 116659, "median_home_value": 748733, "pct_renter": 50, "pct_poverty": null, "pct_vacant": 9, "pct_black": 16, "pct_white": 69, "pct_hispanic": 10, "pct_asian": 1}, "related": [], "parcels": [{"parcel_id": "157409", "address": "1901 18TH AVE S APT 103", "lat": "36.135073", "lon": "-86.797626", "sale_price": -1.0, "sale_date": "", "market_value": 253100.0, "beds": 1.0, "bath": 1.0, "sqft": 605.0, "year_built": "1979", "acres": 0.0}, {"parcel_id": "200213", "address": "0 HIGHWAY 70", "lat": "36.094556", "lon": "-87.007592"}, {"parcel_id": "212950", "address": "4605 TODDINGTON DR", "lat": "36.089423", "lon": "-86.823183", "sale_price": -1.0, "sale_date": "", "market_value": 1688700.0, "beds": 5.0, "bath": 4.5, "sqft": 4177.0, "year_built": "2000", "acres": 2.07}, {"parcel_id": "281486", "address": "1428 BELL TRACE DR", "lat": "36.039664", "lon": "-86.670606", "sale_price": -1.0, "sale_date": "", "market_value": 234300.0, "beds": 2.0, "bath": 2.0, "sqft": 1438.375, "year_built": "1985", "acres": 0.13}, {"parcel_id": "70664", "address": "308B E TRINITY LN", "lat": "36.20527", "lon": "-86.764395", "sale_price": -1.0, "sale_date": "", "market_value": 297700.0, "beds": 2.0, "bath": 1.0, "sqft": 858.0, "year_built": "1950", "acres": 0.18}]}