{"cluster_id": 2735, "name": "STONE OAK BUILDERS LLC", "entity_count": 1, "parcel_count": 5, "total_market_value": 5971200, "total_acres": 4.2, "owner_names": ["STONE OAK BUILDERS LLC"], "registered_agents": [], "principal_offices": [], "primary_sos_status": "", "primary_foreign_state": "", "brand": "", "opencorporates": "https://opencorporates.com/companies?q=STONE+OAK+BUILDERS+LLC&utf8=%E2%9C%93", "primary_type": "", "portfolio": {"n_parcels_with_acs": 5, "median_income": 197710, "median_home_value": 1106620, "pct_renter": 18, "pct_poverty": null, "pct_vacant": 6, "pct_black": 3, "pct_white": 88, "pct_hispanic": 3, "pct_asian": 3}, "related": [], "parcels": [{"parcel_id": "165470", "address": "1006 S DOUGLAS AVE", "lat": "36.130841", "lon": "-86.786519", "sale_price": 525000.0, "sale_date": "20 May 2021", "market_value": 730100.0, "beds": 2.0, "bath": 2.0, "sqft": 1270.0, "year_built": "1970", "acres": 0.17}, {"parcel_id": "181687", "address": "4004 WALLACE LN", "lat": "36.106489", "lon": "-86.833669", "sale_price": null, "sale_date": "", "market_value": null, "beds": null, "bath": 0.0, "sqft": null, "year_built": "", "acres": null}, {"parcel_id": "187885", "address": "4123 SKYLINE DR", "lat": "36.10399", "lon": "-86.832591", "sale_price": -1.0, "sale_date": "", "market_value": 1886100.0, "beds": 6.0, "bath": 7.5, "sqft": 5794.0, "year_built": "2026", "acres": 0.58}, {"parcel_id": "211915", "address": "1023 STONEWALL DR", "lat": "36.085758", "lon": "-86.795484", "sale_price": 2000000.0, "sale_date": "25 Aug 2023", "market_value": 1219100.0, "beds": 8.0, "bath": 8.5, "sqft": 8595.4, "year_built": "2026", "acres": 1.25}, {"parcel_id": "236863", "address": "1114 TYNE BLVD", "lat": "36.08138", "lon": "-86.801543", "sale_price": -1.0, "sale_date": "", "market_value": 2135900.0, "beds": 6.0, "bath": 7.0, "sqft": 7881.55, "year_built": "2026", "acres": 2.23}]}