{"cluster_id": 2741, "name": "STUART TENNESSEE COMMUNITY PROPERTY TRUST", "entity_count": 1, "parcel_count": 5, "total_market_value": 2270300, "total_acres": 0.1, "owner_names": ["STUART TENNESSEE COMMUNITY PROPERTY TRUST"], "registered_agents": [], "principal_offices": [], "primary_sos_status": "", "primary_foreign_state": "", "brand": "", "opencorporates": "https://opencorporates.com/companies?q=STUART+TENNESSEE+COMMUNITY+PROPERTY+TRUST&utf8=%E2%9C%93", "primary_type": "", "portfolio": {"n_parcels_with_acs": 5, "median_income": 99431, "median_home_value": 833200, "pct_renter": 37, "pct_poverty": null, "pct_vacant": 10, "pct_black": 6, "pct_white": 76, "pct_hispanic": 4, "pct_asian": 5}, "related": [], "parcels": [{"parcel_id": "154902", "address": "3210 ORLEANS DR APT 2", "lat": "36.140227", "lon": "-86.815966", "sale_price": -1.0, "sale_date": "", "market_value": 274900.0, "beds": 2.0, "bath": 1.0, "sqft": 836.0, "year_built": "1969", "acres": 0.0}, {"parcel_id": "183673", "address": "2601 HILLSBORO PIKE APT F6", "lat": "36.12529", "lon": "-86.808304", "sale_price": -1.0, "sale_date": "", "market_value": 209200.0, "beds": 1.0, "bath": 1.0, "sqft": 600.0, "year_built": "1971", "acres": 0.0}, {"parcel_id": "211693", "address": "617 CHERRY GLEN CIR", "lat": "36.093939", "lon": "-86.815752", "sale_price": -1.0, "sale_date": "", "market_value": 924500.0, "beds": 4.0, "bath": 3.0, "sqft": 2798.0, "year_built": "1999", "acres": 0.15}, {"parcel_id": "212398", "address": "218 BOXMERE PL", "lat": "36.094776", "lon": "-86.817916", "sale_price": 198000.0, "sale_date": "22 Jan 2009", "market_value": 468500.0, "beds": 2.0, "bath": 2.0, "sqft": 1326.0, "year_built": "1985", "acres": 0.0}, {"parcel_id": "234572", "address": "929 GENERAL GEORGE PATTON RD", "lat": "36.066783", "lon": "-86.947388", "sale_price": 174600.0, "sale_date": "3 May 2015", "market_value": 393200.0, "beds": 3.0, "bath": 2.0, "sqft": 1744.0, "year_built": "1990", "acres": 0.0}]}