{"cluster_id": 2744, "name": "TEAM 7 ASSET MANAGEMENT LLC", "entity_count": 1, "parcel_count": 5, "total_market_value": 1867700, "total_acres": 1.0, "owner_names": ["TEAM 7 ASSET MANAGEMENT LLC"], "registered_agents": [], "principal_offices": [], "primary_sos_status": "", "primary_foreign_state": "", "brand": "", "opencorporates": "https://opencorporates.com/companies?q=TEAM+7+ASSET+MANAGEMENT+LLC&utf8=%E2%9C%93", "primary_type": "", "portfolio": {"n_parcels_with_acs": 5, "median_income": 60134, "median_home_value": 319720, "pct_renter": 69, "pct_poverty": null, "pct_vacant": 8, "pct_black": 56, "pct_white": 20, "pct_hispanic": 14, "pct_asian": 1}, "related": [], "parcels": [{"parcel_id": "111374", "address": "3524 MAGNUM DR", "lat": "36.178919", "lon": "-86.611797", "sale_price": -1.0, "sale_date": "", "market_value": 248200.0, "beds": 4.0, "bath": 2.0, "sqft": 1560.0, "year_built": "1979", "acres": 0.2}, {"parcel_id": "111375", "address": "3557 ALBEE DR", "lat": "36.178758", "lon": "-86.611526", "sale_price": -1.0, "sale_date": "", "market_value": 346700.0, "beds": 4.0, "bath": 2.0, "sqft": 1560.0, "year_built": "2015", "acres": 0.27}, {"parcel_id": "51617", "address": "2685 OLD MATTHEWS RD", "lat": "36.217692", "lon": "-86.790354", "sale_price": -1.0, "sale_date": "", "market_value": 342700.0, "beds": 4.0, "bath": 4.0, "sqft": 1749.0, "year_built": "1986", "acres": 0.19}, {"parcel_id": "92077", "address": "1623 14TH AVE N", "lat": "36.176917", "lon": "-86.805701", "sale_price": -1.0, "sale_date": "", "market_value": 501500.0, "beds": 8.0, "bath": 4.0, "sqft": 2795.0, "year_built": "1966", "acres": 0.2}, {"parcel_id": "95024", "address": "1717 12TH AVE N", "lat": "36.179253", "lon": "-86.805948", "sale_price": -1.0, "sale_date": "", "market_value": 428600.0, "beds": 6.0, "bath": 3.0, "sqft": 2075.0, "year_built": "1969", "acres": 0.17}]}