{"cluster_id": 280, "name": "MURPHY ROAD PARTNERS LLC", "entity_count": 22, "parcel_count": 32, "total_market_value": 4202100, "total_acres": 0.9, "owner_names": ["1004 RODNEY LLC", "404 ACHIEVEMENT TRUST", "608 FORDOMATIC DRIVE TRUST", "6114 PENN LLC", "KAG LLC", "LEIPERS STATION LLC HARPETH TRACE LLC", "MURPHY ROAD PARTNERS LLC", "O I C 1817 HILLSIDE HOMES AMENDED", "O I C HOMES AT 1004 AND 1006 RODNEY", "O I C HOMES AT 1126 1128 BILTMORE DRIVE", "O I C HOMES AT 3604 WOODMONT", "O I C HOMES AT 3710 3712 BENHAM AVENUE", "O I C HOMES AT 4001 MURPHY ROAD", "O I C HOMES AT 404 ACHIEVEMENT", "O I C HOMES AT 4805 ILLINOIS AVENUE", "O I C HOMES AT 5299 5301 INDIANA AVE", "O I C HOMES AT 608 FORDOMATIC DRIVE", "O I C HOMES AT 6114 PENNSYLVANIA AVENUE", "O I C HOMES AT 6206 LAMAMIE AVENUE", "O I C HOMES AT 6349 ALAMO PLACE", "O I C HOMES AT RIVER ROAD AND GOWER", "SMKM LLC"], "registered_agents": [], "principal_offices": [], "primary_sos_status": "", "primary_foreign_state": "", "brand": "", "opencorporates": "https://opencorporates.com/companies?q=MURPHY+ROAD+PARTNERS+LLC&utf8=%E2%9C%93", "primary_type": "", "portfolio": {"n_parcels_with_acs": 16, "median_income": 121228, "median_home_value": 639411, "pct_renter": 36, "pct_poverty": null, "pct_vacant": 8, "pct_black": 10, "pct_white": 79, "pct_hispanic": 5, "pct_asian": 3}, "related": [{"owner": "SMKM LLC", "parcels": 4, "via": "mailing address"}, {"owner": "1004 RODNEY LLC", "parcels": 3, "via": "mailing address"}, {"owner": "LEIPERS STATION LLC HARPETH TRACE LLC", "parcels": 3, "via": "mailing address"}, {"owner": "O I C HOMES AT 6349 ALAMO PLACE", "parcels": 1, "via": "mailing address"}, {"owner": "O I C HOMES AT 4001 MURPHY ROAD", "parcels": 1, "via": "mailing address"}, {"owner": "O I C HOMES AT 1004 AND 1006 RODNEY", "parcels": 1, "via": "mailing address"}, {"owner": "O I C HOMES AT 6114 PENNSYLVANIA AVENUE", "parcels": 1, "via": "mailing address"}, {"owner": "O I C HOMES AT 404 ACHIEVEMENT", "parcels": 1, "via": "mailing address"}, {"owner": "O I C HOMES AT 5299 5301 INDIANA AVE", "parcels": 1, "via": "mailing address"}, {"owner": "O I C 1817 HILLSIDE HOMES AMENDED", "parcels": 1, "via": "mailing address"}, {"owner": "O I C HOMES AT 3710 3712 BENHAM AVENUE", "parcels": 1, "via": "mailing address"}, {"owner": "O I C HOMES AT 608 FORDOMATIC DRIVE", "parcels": 1, "via": "mailing address"}, {"owner": "O I C HOMES AT 6206 LAMAMIE AVENUE", "parcels": 1, "via": "mailing address"}, {"owner": "KAG LLC", "parcels": 1, "via": "mailing address"}, {"owner": "6114 PENN LLC", "parcels": 1, "via": "mailing address"}, {"owner": "O I C HOMES AT RIVER ROAD AND GOWER", "parcels": 1, "via": "mailing address"}, {"owner": "O I C HOMES AT 4805 ILLINOIS AVENUE", "parcels": 1, "via": "mailing address"}, {"owner": "608 FORDOMATIC DRIVE TRUST", "parcels": 1, "via": "mailing address"}, {"owner": "404 ACHIEVEMENT TRUST", "parcels": 1, "via": "mailing address"}, {"owner": "O I C HOMES AT 1126 1128 BILTMORE DRIVE", "parcels": 1, "via": "mailing address"}, {"owner": "O I C HOMES AT 3604 WOODMONT", "parcels": 1, "via": "mailing address"}], "parcels": [{"parcel_id": "115110", "address": "", "lat": "", "lon": ""}, {"parcel_id": "115329", "address": "", "lat": "", "lon": ""}, {"parcel_id": "115534", "address": "", "lat": "", "lon": ""}, {"parcel_id": "116298", "address": "", "lat": "", "lon": ""}, {"parcel_id": "119740", "address": "", "lat": "", "lon": ""}, {"parcel_id": "150250", "address": "819 KENDALL DR", "lat": "36.133714", "lon": "-86.865332", "sale_price": 830000.0, "sale_date": "30 Jan 2025", "market_value": 569400.0, "beds": 4.0, "bath": 2.0, "sqft": 2099.0, "year_built": "1956", "acres": 0.3}, {"parcel_id": "150955", "address": "", "lat": "", "lon": ""}, {"parcel_id": "159340", "address": "", "lat": "", "lon": ""}, {"parcel_id": "176721", "address": "", "lat": "", "lon": ""}, {"parcel_id": "187728", "address": "3712 BENHAM AVE", "lat": "36.109061", "lon": "-86.808385", "sale_price": 1350000.0, "sale_date": "7 Nov 2025", "market_value": 977700.0, "beds": 3.0, "bath": 2.0, "sqft": 1734.0, "year_built": "1975", "acres": 0.62}, {"parcel_id": "411899", "address": "1816B 10TH AVE S", "lat": "36.135583", "lon": "-86.784304"}, {"parcel_id": "423202", "address": "", "lat": "", "lon": ""}, {"parcel_id": "423203", "address": "", "lat": "", "lon": ""}, {"parcel_id": "448436", "address": "6114C PENNSYLVANIA AVE", "lat": "36.165827", "lon": "-86.862171"}, {"parcel_id": "449881", "address": "5301C INDIANA AVE", "lat": "36.156039", "lon": "-86.851721"}, {"parcel_id": "455128", "address": "610B FORDOMATIC DR", "lat": "36.153562", "lon": "-86.885026"}, {"parcel_id": "455676", "address": "406B ACHIEVEMENT DR", "lat": "36.147384", "lon": "-86.87933"}, {"parcel_id": "459034", "address": "4001B MURPHY RD", "lat": "36.14047", "lon": "-86.833388", "sale_price": 1180000.0, "sale_date": "28 Apr 2026", "market_value": 1266400.0, "beds": 4.0, "bath": 3.5, "sqft": 2430.0, "year_built": "2024", "acres": null}, {"parcel_id": "459035", "address": "4001A MURPHY RD", "lat": "36.140457", "lon": "-86.833254", "sale_price": -1.0, "sale_date": "", "market_value": 1388600.0, "beds": 5.0, "bath": 3.5, "sqft": 2983.0, "year_built": "2024", "acres": null}, {"parcel_id": "459036", "address": "4001C MURPHY RD", "lat": "36.140437", "lon": "-86.833316"}, {"parcel_id": "466144", "address": "6206C LARAMIE AVE", "lat": "36.161176", "lon": "-86.871929"}, {"parcel_id": "472147", "address": "4805C ILLINOIS AVE", "lat": "36.157463", "lon": "-86.845406"}, {"parcel_id": "473215", "address": "6704C GOWER RD", "lat": "36.132531", "lon": "-86.926779"}, {"parcel_id": "475818", "address": "6349C ALAMO PL", "lat": "36.152684", "lon": "-86.871959"}, {"parcel_id": "477293", "address": "1004 RODNEY DR", "lat": "36.123476", "lon": "-86.90522"}, {"parcel_id": "477294", "address": "1006 RODNEY DR", "lat": "36.123659", "lon": "-86.905214"}, {"parcel_id": "477295", "address": "1004C RODNEY DR", "lat": "36.123556", "lon": "-86.905005"}, {"parcel_id": "478775", "address": "1134C BILTMORE DR", "lat": "36.090988", "lon": "-86.801439"}, {"parcel_id": "481738", "address": "", "lat": "", "lon": ""}, {"parcel_id": "481739", "address": "", "lat": "", "lon": ""}, {"parcel_id": "481740", "address": "", "lat": "", "lon": ""}, {"parcel_id": "481779", "address": "", "lat": "", "lon": ""}]}