{"cluster_id": 282, "name": "CLS RENTAL PROPERTIES LLC", "entity_count": 2, "parcel_count": 32, "total_market_value": 10068500, "total_acres": 12.2, "owner_names": ["CLS INVESTMENT PROPERTIES INC", "CLS RENTAL PROPERTIES LLC"], "registered_agents": [], "principal_offices": [], "primary_sos_status": "", "primary_foreign_state": "", "brand": "", "opencorporates": "https://opencorporates.com/companies?q=CLS+RENTAL+PROPERTIES+LLC&utf8=%E2%9C%93", "primary_type": "", "portfolio": {"n_parcels_with_acs": 28, "median_income": 61377, "median_home_value": 376085, "pct_renter": 53, "pct_poverty": null, "pct_vacant": 12, "pct_black": 75, "pct_white": 18, "pct_hispanic": 2, "pct_asian": 1}, "related": [{"owner": "CLS INVESTMENT PROPERTIES INC", "parcels": 1, "via": "mailing address"}], "parcels": [{"parcel_id": "120723", "address": "2230 MORENA ST", "lat": "36.164563", "lon": "-86.811799", "sale_price": 500000.0, "sale_date": "15 Jan 2024", "market_value": 497400.0, "beds": 5.0, "bath": 4.0, "sqft": 2894.0, "year_built": "1962", "acres": 0.25}, {"parcel_id": "120736", "address": "2223 MORENA ST", "lat": "36.164001", "lon": "-86.811645", "sale_price": -1.0, "sale_date": "", "market_value": 707400.0, "beds": 5.0, "bath": 2.0, "sqft": 2349.5, "year_built": "1958", "acres": 0.36}, {"parcel_id": "120737", "address": "2341 MORENA ST", "lat": "36.164036", "lon": "-86.811396"}, {"parcel_id": "121526", "address": "2502 MEHARRY BLVD", "lat": "36.167403", "lon": "-86.814984", "sale_price": -1.0, "sale_date": "", "market_value": 317300.0, "beds": 6.0, "bath": 2.0, "sqft": 1946.0, "year_built": "1940", "acres": 0.14}, {"parcel_id": "121527", "address": "2506 MEHARRY BLVD", "lat": "36.167337", "lon": "-86.815238"}, {"parcel_id": "122458", "address": "3202 BATAVIA ST", "lat": "36.160654", "lon": "-86.824597", "sale_price": -1.0, "sale_date": "", "market_value": 379400.0, "beds": 4.0, "bath": 3.0, "sqft": 1920.0, "year_built": "1964", "acres": 0.17}, {"parcel_id": "122459", "address": "3200 BATAVIA ST", "lat": "36.160695", "lon": "-86.824348", "sale_price": -1.0, "sale_date": "", "market_value": 390400.0, "beds": 4.0, "bath": 2.0, "sqft": 2025.0, "year_built": "1966", "acres": 0.17}, {"parcel_id": "122854", "address": "813 LENA ST", "lat": "36.161083", "lon": "-86.818439", "sale_price": -1.0, "sale_date": "", "market_value": 424500.0, "beds": 3.0, "bath": 2.0, "sqft": 1188.0, "year_built": "1970", "acres": 0.12}, {"parcel_id": "124011", "address": "927 33RD AVE N", "lat": "36.162031", "lon": "-86.826079", "sale_price": 107500.0, "sale_date": "28 Jan 2019", "market_value": 263700.0, "beds": 3.0, "bath": 1.0, "sqft": 1341.18, "year_built": "1940", "acres": 0.17}, {"parcel_id": "124290", "address": "901 19TH AVE N", "lat": "36.163244", "lon": "-86.805042", "sale_price": -1.0, "sale_date": "", "market_value": 757000.0, "beds": 0.0, "bath": 2.0, "sqft": 3442.0, "year_built": "1970", "acres": 0.09}, {"parcel_id": "32295", "address": "3303 EAGLEWOOD LN", "lat": "36.24164", "lon": "-86.768319", "sale_price": 125000.0, "sale_date": "26 May 2021", "market_value": 229400.0, "beds": 4.0, "bath": 2.0, "sqft": 1274.0, "year_built": "1978", "acres": 0.32}, {"parcel_id": "391196", "address": "1719 10TH AVE N", "lat": "36.179995", "lon": "-86.803039", "sale_price": 187500.0, "sale_date": "24 Dec 2019", "market_value": 350600.0, "beds": 3.0, "bath": 1.0, "sqft": 1920.0, "year_built": "1990", "acres": null}, {"parcel_id": "395418", "address": "4222 ASHLAND CITY HWY", "lat": "36.204419", "lon": "-86.851472", "sale_price": 90000.0, "sale_date": "20 Apr 2016", "market_value": 232300.0, "beds": 3.0, "bath": 1.0, "sqft": 1073.0, "year_built": "1950", "acres": null}, {"parcel_id": "47874", "address": "300 KINGVIEW DR", "lat": "36.216996", "lon": "-86.834349", "sale_price": -1.0, "sale_date": "", "market_value": 194100.0, "beds": 3.0, "bath": 1.5, "sqft": 1107.0, "year_built": "1975", "acres": 0.22}, {"parcel_id": "48560", "address": "4005 BOYD DR", "lat": "36.219973", "lon": "-86.829435", "sale_price": -1.0, "sale_date": "", "market_value": 502500.0, "beds": 3.0, "bath": 4.0, "sqft": 3545.0, "year_built": "1975", "acres": 0.4}, {"parcel_id": "48561", "address": "4009 BOYD DR", "lat": "36.220188", "lon": "-86.829461"}, {"parcel_id": "49218", "address": "3108 VAILVIEW DR", "lat": "36.233071", "lon": "-86.775544", "sale_price": 64000.0, "sale_date": "30 Sep 2015", "market_value": 238900.0, "beds": 3.0, "bath": 1.5, "sqft": 1125.0, "year_built": "1960", "acres": 0.28}, {"parcel_id": "50934", "address": "3002 CREEKWOOD DR", "lat": "36.233083", "lon": "-86.777248", "sale_price": -1.0, "sale_date": "", "market_value": 260100.0, "beds": 2.0, "bath": 1.0, "sqft": 1034.0, "year_built": "1971", "acres": 0.3}, {"parcel_id": "64860", "address": "4220 ASHLAND CITY HWY", "lat": "36.204281", "lon": "-86.851322", "sale_price": 103000.0, "sale_date": "20 Apr 2016", "market_value": 235900.0, "beds": 2.0, "bath": 1.0, "sqft": 936.0, "year_built": "1965", "acres": 0.25}, {"parcel_id": "65023", "address": "4748 ASHLAND CITY HWY", "lat": "36.214776", "lon": "-86.895173", "sale_price": 580000.0, "sale_date": "20 Apr 2022", "market_value": 636100.0, "beds": 3.0, "bath": 5.0, "sqft": 2884.0, "year_built": "1985", "acres": 6.2}, {"parcel_id": "65885", "address": "3903 MEADOW RD", "lat": "36.20917", "lon": "-86.841654", "sale_price": 175000.0, "sale_date": "17 Jul 2020", "market_value": 274400.0, "beds": 3.0, "bath": 1.0, "sqft": 2004.0, "year_built": "1956", "acres": 0.87}, {"parcel_id": "87903", "address": "1708 COUNTY HOSPITAL RD", "lat": "36.189731", "lon": "-86.836854", "sale_price": 120000.0, "sale_date": "5 Jul 2017", "market_value": 384800.0, "beds": 2.0, "bath": 2.0, "sqft": 1845.0, "year_built": "1948", "acres": 0.27}, {"parcel_id": "89620", "address": "3294 HINKLE DR", "lat": "36.184383", "lon": "-86.841889", "sale_price": 110000.0, "sale_date": "13 Sep 2018", "market_value": 253400.0, "beds": 3.0, "bath": 1.0, "sqft": 1218.0, "year_built": "1966", "acres": 0.23}, {"parcel_id": "89923", "address": "2600 JENKINS ST", "lat": "36.181598", "lon": "-86.819637", "sale_price": 276000.0, "sale_date": "26 Jan 2022", "market_value": 293000.0, "beds": 3.0, "bath": 1.0, "sqft": 1475.0, "year_built": "1950", "acres": 0.13}, {"parcel_id": "90558", "address": "2504 BUCHANAN ST", "lat": "36.180592", "lon": "-86.818512", "sale_price": -1.0, "sale_date": "", "market_value": 266700.0, "beds": 2.0, "bath": 1.0, "sqft": 899.0, "year_built": "1954", "acres": 0.12}, {"parcel_id": "90866", "address": "1709 NUBELL ST", "lat": "36.188331", "lon": "-86.812912"}, {"parcel_id": "91447", "address": "1703 SIMPKINS ST", "lat": "36.185342", "lon": "-86.812655", "sale_price": -1.0, "sale_date": "", "market_value": 332500.0, "beds": 4.0, "bath": 2.0, "sqft": 2378.0, "year_built": "1960", "acres": 0.16}, {"parcel_id": "91493", "address": "2122 14TH AVE N", "lat": "36.186956", "lon": "-86.809531", "sale_price": 82000.0, "sale_date": "4 Dec 2015", "market_value": 456500.0, "beds": 4.0, "bath": 2.0, "sqft": 1420.0, "year_built": "1965", "acres": 0.15}, {"parcel_id": "91529", "address": "2708 VANCE AVE", "lat": "36.185058", "lon": "-86.821559", "sale_price": 180000.0, "sale_date": "31 Mar 2021", "market_value": 248900.0, "beds": 2.0, "bath": 1.0, "sqft": 872.0, "year_built": "1950", "acres": 0.16}, {"parcel_id": "93690", "address": "1522 17TH AVE N", "lat": "36.174636", "lon": "-86.80623", "sale_price": 90000.0, "sale_date": "7 Jul 2015", "market_value": 233100.0, "beds": 3.0, "bath": 2.0, "sqft": 1705.0, "year_built": "1940", "acres": 0.2}, {"parcel_id": "94862", "address": "1407 21ST AVE N", "lat": "36.171621", "lon": "-86.810401", "sale_price": 40000.0, "sale_date": "31 Dec 2013", "market_value": 225400.0, "beds": 2.0, "bath": 1.0, "sqft": 1210.0, "year_built": "1930", "acres": 0.25}, {"parcel_id": "97070", "address": "1214 PHILLIPS ST", "lat": "36.169649", "lon": "-86.799342", "sale_price": -1.0, "sale_date": "", "market_value": 482800.0, "beds": 4.0, "bath": 2.0, "sqft": 1737.0, "year_built": "1968", "acres": 0.17}]}