{"cluster_id": 287, "name": "NASHVILLE RENTALS II LLC", "entity_count": 1, "parcel_count": 32, "total_market_value": 9537700, "total_acres": 6.4, "owner_names": ["NASHVILLE RENTALS II LLC"], "registered_agents": [], "principal_offices": [], "primary_sos_status": "", "primary_foreign_state": "", "brand": "", "opencorporates": "https://opencorporates.com/companies?q=NASHVILLE+RENTALS+II+LLC&utf8=%E2%9C%93", "primary_type": "", "portfolio": {"n_parcels_with_acs": 29, "median_income": 82512, "median_home_value": 418190, "pct_renter": 43, "pct_poverty": null, "pct_vacant": 9, "pct_black": 41, "pct_white": 43, "pct_hispanic": 9, "pct_asian": 1}, "related": [], "parcels": [{"parcel_id": "120283", "address": "5707 MAXON AVE", "lat": "36.15248", "lon": "-86.860859", "sale_price": -1.0, "sale_date": "", "market_value": 355200.0, "beds": 3.0, "bath": 1.0, "sqft": 1120.0, "year_built": "1940", "acres": 0.12}, {"parcel_id": "122863", "address": "800 LENA ST", "lat": "36.160501", "lon": "-86.817686", "sale_price": -1.0, "sale_date": "", "market_value": 257000.0, "beds": 2.0, "bath": 2.0, "sqft": 0.0, "year_built": "1945", "acres": 0.1}, {"parcel_id": "124246", "address": "3019 ALBION ST", "lat": "36.16345", "lon": "-86.823351", "sale_price": -1.0, "sale_date": "", "market_value": 325500.0, "beds": 3.0, "bath": 1.0, "sqft": 994.0, "year_built": "1980", "acres": 0.14}, {"parcel_id": "170224", "address": "1207 AINLAY DR", "lat": "36.1281", "lon": "-86.703826", "sale_price": -1.0, "sale_date": "", "market_value": 335000.0, "beds": 2.0, "bath": 2.0, "sqft": 0.0, "year_built": "1970", "acres": 0.36}, {"parcel_id": "247809", "address": "104 CHEROKEE PL", "lat": "36.072878", "lon": "-86.68392", "sale_price": -1.0, "sale_date": "", "market_value": 266000.0, "beds": 3.0, "bath": 1.0, "sqft": 1000.0, "year_built": "1972", "acres": 0.23}, {"parcel_id": "270009", "address": "280 OCALA DR", "lat": "36.051725", "lon": "-86.701037", "sale_price": -1.0, "sale_date": "", "market_value": 289000.0, "beds": 3.0, "bath": 1.5, "sqft": 0.0, "year_built": "1971", "acres": 0.29}, {"parcel_id": "270033", "address": "186 TOWNES DR", "lat": "36.051165", "lon": "-86.694848", "sale_price": -1.0, "sale_date": "", "market_value": 290000.0, "beds": 3.0, "bath": 1.0, "sqft": 1250.0, "year_built": "1973", "acres": 0.23}, {"parcel_id": "277020", "address": "605 AMELIA DR", "lat": "36.049038", "lon": "-86.696187", "sale_price": -1.0, "sale_date": "", "market_value": 276500.0, "beds": 4.0, "bath": 2.0, "sqft": 1512.0, "year_built": "1976", "acres": 0.2}, {"parcel_id": "47346", "address": "729 ROWAN DR", "lat": "36.219311", "lon": "-86.814247", "sale_price": -1.0, "sale_date": "", "market_value": 266300.0, "beds": 3.0, "bath": 2.0, "sqft": 1610.0, "year_built": "1967", "acres": 0.23}, {"parcel_id": "50846", "address": "757 RINGGOLD DR", "lat": "36.216037", "lon": "-86.815647", "sale_price": -1.0, "sale_date": "", "market_value": 203300.0, "beds": 3.0, "bath": 1.0, "sqft": 870.0, "year_built": "1966", "acres": 0.2}, {"parcel_id": "51391", "address": "2820 JONES AVE", "lat": "36.218398", "lon": "-86.755753", "sale_price": 45000.0, "sale_date": "19 Aug 2013", "market_value": 226900.0, "beds": 3.0, "bath": 1.5, "sqft": 1056.0, "year_built": "1955", "acres": 0.22}, {"parcel_id": "51934", "address": "109 ALHAMBRA CIR", "lat": "36.220036", "lon": "-86.760838", "sale_price": -1.0, "sale_date": "", "market_value": 246200.0, "beds": 2.0, "bath": 1.0, "sqft": 1090.0, "year_built": "1960", "acres": 0.34}, {"parcel_id": "52814", "address": "2827 BRUNSWICK DR", "lat": "36.216807", "lon": "-86.759603", "sale_price": -1.0, "sale_date": "", "market_value": 248100.0, "beds": 4.0, "bath": 2.0, "sqft": 1138.0, "year_built": "1952", "acres": 0.3}, {"parcel_id": "55466", "address": "2581 BETHWOOD DR", "lat": "36.214437", "lon": "-86.749792", "sale_price": -1.0, "sale_date": "", "market_value": 259500.0, "beds": 3.0, "bath": 1.0, "sqft": 0.0, "year_built": "1972", "acres": 0.18}, {"parcel_id": "55580", "address": "2610 BETHWOOD DR", "lat": "36.216876", "lon": "-86.750043", "sale_price": -1.0, "sale_date": "", "market_value": 301400.0, "beds": 3.0, "bath": 1.0, "sqft": 1025.0, "year_built": "1973", "acres": 0.18}, {"parcel_id": "67315", "address": "1806 ASHTON AVE", "lat": "36.192327", "lon": "-86.838931", "sale_price": -1.0, "sale_date": "", "market_value": 247800.0, "beds": 2.0, "bath": 1.0, "sqft": 825.0, "year_built": "1947", "acres": 0.18}, {"parcel_id": "70818", "address": "517 EDWIN ST", "lat": "36.204171", "lon": "-86.755743", "sale_price": -1.0, "sale_date": "", "market_value": 350000.0, "beds": 2.0, "bath": 1.0, "sqft": 0.0, "year_built": "1980", "acres": 0.21}, {"parcel_id": "71164", "address": "307 DUKE ST", "lat": "36.207416", "lon": "-86.762412", "sale_price": -1.0, "sale_date": "", "market_value": 230400.0, "beds": 3.0, "bath": 1.0, "sqft": 1400.0, "year_built": "1950", "acres": 0.16}, {"parcel_id": "71285", "address": "305 PRINCE AVE", "lat": "36.206629", "lon": "-86.762343", "sale_price": -1.0, "sale_date": "", "market_value": 324900.0, "beds": 3.0, "bath": 1.0, "sqft": 1436.0, "year_built": "1975", "acres": 0.13}, {"parcel_id": "71521", "address": "2015 OVERBY RD", "lat": "36.206935", "lon": "-86.75936", "sale_price": -1.0, "sale_date": "", "market_value": 262800.0, "beds": 2.0, "bath": 1.0, "sqft": 816.0, "year_built": "1950", "acres": 0.13}, {"parcel_id": "71916", "address": "505 WEAKLEY AVE", "lat": "36.198519", "lon": "-86.781151", "sale_price": -1.0, "sale_date": "", "market_value": 247700.0, "beds": 2.0, "bath": 1.0, "sqft": 1056.0, "year_built": "1981", "acres": 0.19}, {"parcel_id": "72300", "address": "101 EASTMORELAND ST", "lat": "36.195745", "lon": "-86.7714", "sale_price": -1.0, "sale_date": "", "market_value": 201900.0, "beds": 3.0, "bath": 1.5, "sqft": 815.0, "year_built": "1980", "acres": 0.09}, {"parcel_id": "72529", "address": "1325 MERIDIAN ST", "lat": "36.195767", "lon": "-86.766819", "sale_price": -1.0, "sale_date": "", "market_value": 312200.0, "beds": 2.0, "bath": 1.0, "sqft": 792.0, "year_built": "1950", "acres": 0.2}, {"parcel_id": "72532", "address": "1331 MERIDIAN ST", "lat": "36.196178", "lon": "-86.766761", "sale_price": -1.0, "sale_date": "", "market_value": 443300.0, "beds": 5.0, "bath": 2.0, "sqft": 1558.3075, "year_built": "1928", "acres": 0.2}, {"parcel_id": "72645", "address": "1318 PENNOCK AVE", "lat": "36.195161", "lon": "-86.766242", "sale_price": -1.0, "sale_date": "", "market_value": 351200.0, "beds": 4.0, "bath": 2.0, "sqft": 1612.0, "year_built": "1935", "acres": 0.2}, {"parcel_id": "73881", "address": "1216 STAINBACK AVE", "lat": "36.193123", "lon": "-86.765031", "sale_price": -1.0, "sale_date": "", "market_value": 350100.0, "beds": 2.0, "bath": 1.0, "sqft": 0.0, "year_built": "1960", "acres": 0.18}, {"parcel_id": "88748", "address": "3239 CROWE DR", "lat": "36.182002", "lon": "-86.84308", "sale_price": -1.0, "sale_date": "", "market_value": 225300.0, "beds": 2.0, "bath": 1.0, "sqft": 975.0, "year_built": "1964", "acres": 0.2}, {"parcel_id": "89003", "address": "3242 PANORAMA DR", "lat": "36.182819", "lon": "-86.84134", "sale_price": -1.0, "sale_date": "", "market_value": 284000.0, "beds": 3.0, "bath": 1.0, "sqft": 975.0, "year_built": "1964", "acres": 0.17}, {"parcel_id": "95688", "address": "1113 N 2ND ST", "lat": "36.191039", "lon": "-86.770013", "sale_price": -1.0, "sale_date": "", "market_value": 385000.0, "beds": 2.0, "bath": 1.0, "sqft": 0.0, "year_built": "1970", "acres": 0.19}, {"parcel_id": "95706", "address": "1001 N 2ND ST", "lat": "36.188744", "lon": "-86.770288", "sale_price": -1.0, "sale_date": "", "market_value": 375100.0, "beds": 2.0, "bath": 1.0, "sqft": 0.0, "year_built": "1920", "acres": 0.21}, {"parcel_id": "95707", "address": "913 N 2ND ST", "lat": "36.188468", "lon": "-86.770321", "sale_price": -1.0, "sale_date": "", "market_value": 375100.0, "beds": 2.0, "bath": 1.0, "sqft": 0.0, "year_built": "1930", "acres": 0.21}, {"parcel_id": "97033", "address": "1009 LISCHEY AVE", "lat": "36.189184", "lon": "-86.76364", "sale_price": -1.0, "sale_date": "", "market_value": 425000.0, "beds": 3.0, "bath": 1.0, "sqft": 0.0, "year_built": "1975", "acres": 0.18}]}