{"cluster_id": 29, "name": "KUDZU REAL ESTATE INC", "entity_count": 11, "parcel_count": 162, "total_market_value": 19341000, "total_acres": 30.6, "owner_names": ["CAPITAL HOMES LP", "KUDUZ REAL ESTATE INC", "KUDZU REAL ESTATE INC", "KUDZU REAL ESTATES INC", "LIBERTY CAPITAL DEVELOPMENT LLC", "MYRTLE PARTNERS LLC", "PLUM OPERATIONS LLC", "ROSEMARY PARTNERS LLC", "URBAN DWELL HOMES G P", "URBAN DWELL HOMES GP", "URBAN DWELL HOMES LP"], "registered_agents": [], "principal_offices": [], "primary_sos_status": "", "primary_foreign_state": "", "brand": "", "opencorporates": "https://opencorporates.com/companies?q=KUDZU+REAL+ESTATE+INC&utf8=%E2%9C%93", "primary_type": "", "portfolio": {"n_parcels_with_acs": 67, "median_income": 70156, "median_home_value": 388257, "pct_renter": 53, "pct_poverty": null, "pct_vacant": 9, "pct_black": 32, "pct_white": 45, "pct_hispanic": 19, "pct_asian": 3}, "related": [{"owner": "URBAN DWELL HOMES LP", "parcels": 36, "via": "mailing address"}, {"owner": "URBAN DWELL HOMES GP", "parcels": 22, "via": "mailing address"}, {"owner": "ROSEMARY PARTNERS LLC", "parcels": 15, "via": "mailing address"}, {"owner": "CAPITAL HOMES LP", "parcels": 11, "via": "mailing address"}, {"owner": "MYRTLE PARTNERS LLC", "parcels": 7, "via": "mailing address"}, {"owner": "LIBERTY CAPITAL DEVELOPMENT LLC", "parcels": 7, "via": "mailing address"}, {"owner": "PLUM OPERATIONS LLC", "parcels": 3, "via": "mailing address"}, {"owner": "URBAN DWELL HOMES G P", "parcels": 3, "via": "mailing address"}, {"owner": "KUDUZ REAL ESTATE INC", "parcels": 1, "via": "mailing address"}, {"owner": "KUDZU REAL ESTATES INC", "parcels": 1, "via": "mailing address"}], "parcels": [{"parcel_id": "10175", "address": "203 LIBERTY LN", "lat": "36.311683", "lon": "-86.693233", "sale_price": -1.0, "sale_date": "", "market_value": 1060400.0, "beds": 3.0, "bath": 3.5, "sqft": 2203.65, "year_built": "2005", "acres": 7.03}, {"parcel_id": "10176", "address": "209 LIBERTY LN", "lat": "36.312218", "lon": "-86.691513", "sale_price": -1.0, "sale_date": "", "market_value": 1420300.0, "beds": 3.0, "bath": 2.0, "sqft": 1989.0, "year_built": "2005", "acres": 10.2}, {"parcel_id": "10179", "address": "261 LIBERTY LN", "lat": "36.313388", "lon": "-86.690531", "sale_price": -1.0, "sale_date": "", "market_value": 998000.0, "beds": 4.0, "bath": 2.5, "sqft": 4968.0, "year_built": "1968", "acres": 2.1}, {"parcel_id": "102789", "address": "", "lat": "", "lon": ""}, {"parcel_id": "102932", "address": "", "lat": "", "lon": ""}, {"parcel_id": "10551", "address": "205 LIBERTY LN", "lat": "36.31168", "lon": "-86.692333", "sale_price": -1.0, "sale_date": "", "market_value": 912100.0, "beds": 3.0, "bath": 2.0, "sqft": 1765.0, "year_built": "2005", "acres": 5.88}, {"parcel_id": "105594", "address": "", "lat": "", "lon": ""}, {"parcel_id": "105788", "address": "", "lat": "", "lon": ""}, {"parcel_id": "106670", "address": "", "lat": "", "lon": ""}, {"parcel_id": "111856", "address": "214 RAINTREE DR", "lat": "36.17836", "lon": "-86.60343", "sale_price": -1.0, "sale_date": "", "market_value": 230100.0, "beds": 3.0, "bath": 2.5, "sqft": 1696.0, "year_built": "1974", "acres": 0.0}, {"parcel_id": "111874", "address": "619 ROCKWOOD DR", "lat": "36.179607", "lon": "-86.602744", "sale_price": -1.0, "sale_date": "", "market_value": 175700.0, "beds": 2.0, "bath": 1.0, "sqft": 1042.0, "year_built": "1974", "acres": 0.0}, {"parcel_id": "117463", "address": "1040 43RD AVE N", "lat": "36.163494", "lon": "-86.838402", "sale_price": -1.0, "sale_date": "", "market_value": 290000.0, "beds": 4.0, "bath": 1.0, "sqft": 1092.0, "year_built": "1957", "acres": 0.17}, {"parcel_id": "122370", "address": "2402 ALBION ST", "lat": "36.165854", "lon": "-86.812561", "sale_price": -1.0, "sale_date": "", "market_value": 219500.0, "beds": 3.0, "bath": 1.0, "sqft": 1490.0, "year_built": "1930", "acres": 0.16}, {"parcel_id": "124213", "address": "", "lat": "", "lon": ""}, {"parcel_id": "140888", "address": "705 BRAIDWOOD DR", "lat": "36.156058", "lon": "-86.6541", "sale_price": -1.0, "sale_date": "", "market_value": 277700.0, "beds": 3.0, "bath": 2.0, "sqft": 816.0, "year_built": "1955", "acres": 0.38}, {"parcel_id": "161958", "address": "", "lat": "", "lon": ""}, {"parcel_id": "164250", "address": "", "lat": "", "lon": ""}, {"parcel_id": "165294", "address": "", "lat": "", "lon": ""}, {"parcel_id": "167624", "address": "", "lat": "", "lon": ""}, {"parcel_id": "16895", "address": "1324 PLUM ST", "lat": "36.290063", "lon": "-86.692826"}, {"parcel_id": "17060", "address": "", "lat": "", "lon": ""}, {"parcel_id": "170821", "address": "1029 HAROLD DR", "lat": "36.134062", "lon": "-86.709901", "sale_price": -1.0, "sale_date": "", "market_value": 172700.0, "beds": 2.0, "bath": 1.5, "sqft": 992.0, "year_built": "2000", "acres": 0.0}, {"parcel_id": "193021", "address": "320 ELBERTA ST", "lat": "36.119312", "lon": "-86.747862", "sale_price": -1.0, "sale_date": "", "market_value": 441600.0, "beds": 4.0, "bath": 2.0, "sqft": 3233.5, "year_built": "1970", "acres": 0.43}, {"parcel_id": "193750", "address": "317 ELBERTA ST", "lat": "36.118523", "lon": "-86.746937", "sale_price": -1.0, "sale_date": "", "market_value": 446200.0, "beds": 3.0, "bath": 3.0, "sqft": 2734.0, "year_built": "1920", "acres": 0.2}, {"parcel_id": "194018", "address": "110 LUTIE ST", "lat": "36.117406", "lon": "-86.742127", "sale_price": -1.0, "sale_date": "", "market_value": 241300.0, "beds": 2.0, "bath": 1.0, "sqft": 1190.0, "year_built": "1950", "acres": 0.17}, {"parcel_id": "202244", "address": "", "lat": "", "lon": ""}, {"parcel_id": "21462", "address": "10 HERITAGE GLEN CT", "lat": "36.271051", "lon": "-86.71644", "sale_price": -1.0, "sale_date": "", "market_value": 298700.0, "beds": 2.0, "bath": 1.5, "sqft": 1196.0, "year_built": "1990", "acres": 0.19}, {"parcel_id": "217612", "address": "270 TAMPA DR APT D20", "lat": "36.08354", "lon": "-86.709593", "sale_price": -1.0, "sale_date": "", "market_value": 95600.0, "beds": 1.0, "bath": 1.0, "sqft": 728.0, "year_built": "1971", "acres": 0.0}, {"parcel_id": "217615", "address": "270 TAMPA DR APT D8", "lat": "36.083627", "lon": "-86.70938", "sale_price": -1.0, "sale_date": "", "market_value": 94600.0, "beds": 1.0, "bath": 1.0, "sqft": 728.0, "year_built": "1971", "acres": 0.0}, {"parcel_id": "217751", "address": "270 TAMPA DR APT G13", "lat": "36.083277", "lon": "-86.71143", "sale_price": 12000.0, "sale_date": "6 Feb 2015", "market_value": 126100.0, "beds": 2.0, "bath": 2.0, "sqft": 1096.0, "year_built": "1971", "acres": 0.0}, {"parcel_id": "217868", "address": "270 TAMPA DR APT H12", "lat": "36.083815", "lon": "-86.711691", "sale_price": 21000.0, "sale_date": "1 Apr 2010", "market_value": 95600.0, "beds": 1.0, "bath": 1.0, "sqft": 728.0, "year_built": "1971", "acres": 0.0}, {"parcel_id": "217877", "address": "270 TAMPA DR APT H9", "lat": "36.083749", "lon": "-86.711685", "sale_price": 11000.0, "sale_date": "13 Dec 2013", "market_value": 95600.0, "beds": 1.0, "bath": 1.0, "sqft": 728.0, "year_built": "1971", "acres": 0.0}, {"parcel_id": "218132", "address": "270 TAMPA DR APT M2", "lat": "36.084034", "lon": "-86.713156", "sale_price": -1.0, "sale_date": "", "market_value": 125200.0, "beds": 2.0, "bath": 2.0, "sqft": 1096.0, "year_built": "1971", "acres": 0.0}, {"parcel_id": "218133", "address": "270 TAMPA DR APT M3", "lat": "36.083976", "lon": "-86.713218", "sale_price": -1.0, "sale_date": "", "market_value": 126100.0, "beds": 2.0, "bath": 2.0, "sqft": 1096.0, "year_built": "1971", "acres": 0.0}, {"parcel_id": "218135", "address": "270 TAMPA DR APT M10", "lat": "36.083907", "lon": "-86.713116", "sale_price": -1.0, "sale_date": "", "market_value": 126100.0, "beds": 2.0, "bath": 2.0, "sqft": 1096.0, "year_built": "1971", "acres": 0.0}, {"parcel_id": "218137", "address": "270 TAMPA DR APT M9", "lat": "36.083812", "lon": "-86.712983", "sale_price": -1.0, "sale_date": "", "market_value": 126100.0, "beds": 2.0, "bath": 2.0, "sqft": 1096.0, "year_built": "1971", "acres": 0.0}, {"parcel_id": "218806", "address": "500 PARAGON MILLS RD APT N8", "lat": "36.088529", "lon": "-86.725426", "sale_price": -1.0, "sale_date": "", "market_value": 153600.0, "beds": 1.0, "bath": 1.0, "sqft": 648.0, "year_built": "1969", "acres": 0.0}, {"parcel_id": "241296", "address": "550 HARDING PL APT C112", "lat": "36.078063", "lon": "-86.738866", "sale_price": 14500.0, "sale_date": "20 Feb 2014", "market_value": 96200.0, "beds": 1.0, "bath": 1.0, "sqft": 612.0, "year_built": "1965", "acres": 0.0}, {"parcel_id": "241314", "address": "550 HARDING PL APT D106", "lat": "36.078416", "lon": "-86.73908", "sale_price": -1.0, "sale_date": "", "market_value": 96700.0, "beds": 1.0, "bath": 1.0, "sqft": 700.0, "year_built": "1965", "acres": 0.0}, {"parcel_id": "244338", "address": "", "lat": "", "lon": ""}, {"parcel_id": "24662", "address": "", "lat": "", "lon": ""}, {"parcel_id": "24663", "address": "", "lat": "", "lon": ""}, {"parcel_id": "25062", "address": "600 BIXLER AVE", "lat": "36.267631", "lon": "-86.70475", "sale_price": -1.0, "sale_date": "", "market_value": 162700.0, "beds": 1.0, "bath": 1.0, "sqft": 640.0, "year_built": "1953", "acres": 0.28}, {"parcel_id": "25069", "address": "", "lat": "", "lon": ""}, {"parcel_id": "25783", "address": "", "lat": "", "lon": ""}, {"parcel_id": "26446", "address": "323 FOREST PARK RD APT 1-1", "lat": "36.259294", "lon": "-86.702485", "sale_price": -1.0, "sale_date": "", "market_value": 87900.0, "beds": 1.0, "bath": 1.0, "sqft": 621.0, "year_built": "1969", "acres": 0.0}, {"parcel_id": "26448", "address": "323 FOREST PARK RD APT 1-3", "lat": "36.259294", "lon": "-86.702485", "sale_price": -1.0, "sale_date": "", "market_value": 87900.0, "beds": 1.0, "bath": 1.0, "sqft": 621.0, "year_built": "1969", "acres": 0.0}, {"parcel_id": "26459", "address": "323 FOREST PARK RD APT 1-14", "lat": "36.259319", "lon": "-86.70213", "sale_price": -1.0, "sale_date": "", "market_value": 87900.0, "beds": 1.0, "bath": 1.0, "sqft": 621.0, "year_built": "1969", "acres": 0.0}, {"parcel_id": "26463", "address": "323 FOREST PARK RD APT 1-18", "lat": "36.259307", "lon": "-86.702028", "sale_price": -1.0, "sale_date": "", "market_value": 87900.0, "beds": 1.0, "bath": 1.0, "sqft": 621.0, "year_built": "1969", "acres": 0.0}, {"parcel_id": "26704", "address": "323 FOREST PARK RD APT 6-9", "lat": "36.25915", "lon": "-86.701097", "sale_price": 50000.0, "sale_date": "12 Dec 2017", "market_value": 133900.0, "beds": 2.0, "bath": 1.5, "sqft": 1050.0, "year_built": "1969", "acres": 0.0}, {"parcel_id": "26983", "address": "234 ELM ST", "lat": "36.260312", "lon": "-86.708902", "sale_price": -1.0, "sale_date": "", "market_value": 167500.0, "beds": 2.0, "bath": 2.0, "sqft": 1080.0, "year_built": "1998", "acres": 0.17}, {"parcel_id": "26996", "address": "", "lat": "", "lon": ""}, {"parcel_id": "27721", "address": "107 WYCHEWOOD CV", "lat": "36.261455", "lon": "-86.68231", "sale_price": null, "sale_date": "", "market_value": null, "beds": null, "bath": 0.0, "sqft": null, "year_built": "", "acres": null}, {"parcel_id": "284960", "address": "3515 PIN HOOK RD", "lat": "36.050144", "lon": "-86.613165"}, {"parcel_id": "30155", "address": "", "lat": "", "lon": ""}, {"parcel_id": "30159", "address": "", "lat": "", "lon": ""}, {"parcel_id": "30161", "address": "", "lat": "", "lon": ""}, {"parcel_id": "30163", "address": "", "lat": "", "lon": ""}, {"parcel_id": "31433", "address": "", "lat": "", "lon": ""}, {"parcel_id": "32847", "address": "3404 MOONLIGHT DR", "lat": "36.247469", "lon": "-86.776438", "sale_price": -1.0, "sale_date": "", "market_value": 298100.0, "beds": 4.0, "bath": 2.0, "sqft": 1537.0, "year_built": "1985", "acres": 0.23}, {"parcel_id": "402228", "address": "", "lat": "", "lon": ""}, {"parcel_id": "402229", "address": "", "lat": "", "lon": ""}, {"parcel_id": "410330", "address": "", "lat": "", "lon": ""}, {"parcel_id": "410331", "address": "", "lat": "", "lon": ""}, {"parcel_id": "412999", "address": "", "lat": "", "lon": ""}, {"parcel_id": "413000", "address": "", "lat": "", "lon": ""}, {"parcel_id": "413001", "address": "", "lat": "", "lon": ""}, {"parcel_id": "414066", "address": "1067A 2ND AVE S", "lat": "36.147652", "lon": "-86.76623", "sale_price": -1.0, "sale_date": "", "market_value": 622300.0, "beds": 3.0, "bath": 2.5, "sqft": 1697.0, "year_built": "2016", "acres": null}, {"parcel_id": "414067", "address": "1067B 2ND AVE S", "lat": "36.147601", "lon": "-86.766218", "sale_price": -1.0, "sale_date": "", "market_value": 622300.0, "beds": 3.0, "bath": 2.5, "sqft": 1697.0, "year_built": "2016", "acres": null}, {"parcel_id": "418285", "address": "411B MOORE AVE", "lat": "36.13634", "lon": "-86.762363", "sale_price": -1.0, "sale_date": "", "market_value": 619400.0, "beds": 3.0, "bath": 2.5, "sqft": 1910.0, "year_built": "2016", "acres": null}, {"parcel_id": "421638", "address": "", "lat": "", "lon": ""}, {"parcel_id": "421639", "address": "", "lat": "", "lon": ""}, {"parcel_id": "422560", "address": "", "lat": "", "lon": ""}, {"parcel_id": "422561", "address": "", "lat": "", "lon": ""}, {"parcel_id": "424156", "address": "", "lat": "", "lon": ""}, {"parcel_id": "424157", "address": "", "lat": "", "lon": ""}, {"parcel_id": "428516", "address": "1122 CHESTER AVE", "lat": "36.194538", "lon": "-86.740904"}, {"parcel_id": "430056", "address": "", "lat": "", "lon": ""}, {"parcel_id": "432276", "address": "", "lat": "", "lon": ""}, {"parcel_id": "435085", "address": "", "lat": "", "lon": ""}, {"parcel_id": "436094", "address": "1023 11TH AVE N", "lat": "36.170966", "lon": "-86.796735", "sale_price": -1.0, "sale_date": "", "market_value": 831700.0, "beds": 4.0, "bath": 3.5, "sqft": 2324.555, "year_built": "2019", "acres": null}, {"parcel_id": "436095", "address": "1103 MEHARRY BLVD", "lat": "36.170884", "lon": "-86.796926", "sale_price": -1.0, "sale_date": "", "market_value": 831700.0, "beds": 4.0, "bath": 3.5, "sqft": 2324.555, "year_built": "2019", "acres": null}, {"parcel_id": "439190", "address": "", "lat": "", "lon": ""}, {"parcel_id": "446968", "address": "2505B EMMETT AVE", "lat": "36.197097", "lon": "-86.746573"}, {"parcel_id": "452251", "address": "", "lat": "", "lon": ""}, {"parcel_id": "452252", "address": "", "lat": "", "lon": ""}, {"parcel_id": "452659", "address": "428 HADLEYS BEND BLVD", "lat": "36.229952", "lon": "-86.634296", "sale_price": -1.0, "sale_date": "", "market_value": 247700.0, "beds": 4.0, "bath": 2.0, "sqft": 1176.0, "year_built": "1979", "acres": null}, {"parcel_id": "453848", "address": "100 FARRIS AVE", "lat": "36.262672", "lon": "-86.68826", "sale_price": -1.0, "sale_date": "", "market_value": 261400.0, "beds": 3.0, "bath": 2.0, "sqft": 1437.0, "year_built": "1960", "acres": null}, {"parcel_id": "453849", "address": "926 E OLD HICKORY BLVD", "lat": "36.262686", "lon": "-86.688371", "sale_price": -1.0, "sale_date": "", "market_value": 375800.0, "beds": 3.0, "bath": 2.0, "sqft": 1803.0, "year_built": "2022", "acres": null}, {"parcel_id": "453945", "address": "", "lat": "", "lon": ""}, {"parcel_id": "453946", "address": "", "lat": "", "lon": ""}, {"parcel_id": "454769", "address": "125A KINGSTON ST", "lat": "36.2093", "lon": "-86.764043"}, {"parcel_id": "454770", "address": "125B KINGSTON ST", "lat": "36.20929", "lon": "-86.763968"}, {"parcel_id": "45765", "address": "4015 MEADOW RD", "lat": "36.213383", "lon": "-86.840414", "sale_price": -1.0, "sale_date": "", "market_value": 179000.0, "beds": 1.0, "bath": 1.0, "sqft": 712.0, "year_built": "1980", "acres": 0.39}, {"parcel_id": "460188", "address": "257 LIBERTY LN", "lat": "36.312554", "lon": "-86.690389", "sale_price": -1.0, "sale_date": "", "market_value": 574800.0, "beds": 3.0, "bath": 3.0, "sqft": 1793.0, "year_built": "2023", "acres": null}, {"parcel_id": "460189", "address": "259 LIBERTY LN", "lat": "36.312636", "lon": "-86.690387", "sale_price": -1.0, "sale_date": "", "market_value": 574800.0, "beds": 3.0, "bath": 3.0, "sqft": 1793.0, "year_built": "2023", "acres": null}, {"parcel_id": "460191", "address": "253 LIBERTY LN", "lat": "36.31239", "lon": "-86.690375"}, {"parcel_id": "460192", "address": "255 LIBERTY LN", "lat": "36.312466", "lon": "-86.690379"}, {"parcel_id": "462692", "address": "3518B WHITES CREEK PIKE", "lat": "36.238411", "lon": "-86.819044"}, {"parcel_id": "51593", "address": "2674 OLD MATTHEWS RD", "lat": "36.217333", "lon": "-86.790798", "sale_price": -1.0, "sale_date": "", "market_value": 282200.0, "beds": 3.0, "bath": 1.5, "sqft": 1000.0, "year_built": "2000", "acres": 0.18}, {"parcel_id": "52850", "address": "122 MAPLEWOOD TRCE", "lat": "36.232468", "lon": "-86.756121", "sale_price": -1.0, "sale_date": "", "market_value": 231200.0, "beds": 2.0, "bath": 1.0, "sqft": 793.0, "year_built": "1946", "acres": 0.36}, {"parcel_id": "54244", "address": "203 POINT EAST DR", "lat": "36.232763", "lon": "-86.724382", "sale_price": 75000.0, "sale_date": "4 Jun 2013", "market_value": 281400.0, "beds": 0.0, "bath": 0.0, "sqft": 1147.0, "year_built": "1987", "acres": 0.0812}, {"parcel_id": "65760", "address": "4013 MEADOW RD", "lat": "36.213151", "lon": "-86.84048", "sale_price": -1.0, "sale_date": "", "market_value": 151800.0, "beds": 1.0, "bath": 1.0, "sqft": 675.0, "year_built": "1951", "acres": 0.52}, {"parcel_id": "67268", "address": "2615 OLD BUENA VISTA RD", "lat": "36.207305", "lon": "-86.812314", "sale_price": -1.0, "sale_date": "", "market_value": 221900.0, "beds": 3.0, "bath": 1.0, "sqft": 894.0, "year_built": "1956", "acres": 0.43}, {"parcel_id": "68008", "address": "", "lat": "", "lon": ""}, {"parcel_id": "69802", "address": "", "lat": "", "lon": ""}, {"parcel_id": "70692", "address": "", "lat": "", "lon": ""}, {"parcel_id": "71113", "address": "311 EDITH AVE", "lat": "36.202659", "lon": "-86.764638", "sale_price": 45000.0, "sale_date": "8 Nov 2013", "market_value": 320300.0, "beds": 2.0, "bath": 2.0, "sqft": 960.0, "year_built": "1950", "acres": 0.16}, {"parcel_id": "72076", "address": "1517 LUTON ST", "lat": "36.200788", "lon": "-86.76764", "sale_price": -1.0, "sale_date": "", "market_value": 495900.0, "beds": 3.0, "bath": 2.0, "sqft": 1032.0, "year_built": "2006", "acres": null}, {"parcel_id": "72092", "address": "", "lat": "", "lon": ""}, {"parcel_id": "73490", "address": "", "lat": "", "lon": ""}, {"parcel_id": "74223", "address": "", "lat": "", "lon": ""}, {"parcel_id": "74250", "address": "", "lat": "", "lon": ""}, {"parcel_id": "75040", "address": "", "lat": "", "lon": ""}, {"parcel_id": "75041", "address": "", "lat": "", "lon": ""}, {"parcel_id": "75062", "address": "", "lat": "", "lon": ""}, {"parcel_id": "75064", "address": "", "lat": "", "lon": ""}, {"parcel_id": "75191", "address": "", "lat": "", "lon": ""}, {"parcel_id": "75912", "address": "", "lat": "", "lon": ""}, {"parcel_id": "76068", "address": "", "lat": "", "lon": ""}, {"parcel_id": "76116", "address": "", "lat": "", "lon": ""}, {"parcel_id": "76200", "address": "2130 BURNS ST", "lat": "36.197556", "lon": "-86.729666", "sale_price": -1.0, "sale_date": "", "market_value": 367700.0, "beds": 2.0, "bath": 2.0, "sqft": 957.0, "year_built": "1977", "acres": 0.16}, {"parcel_id": "76325", "address": "2303 BURNS ST", "lat": "36.1999", "lon": "-86.728737", "sale_price": -1.0, "sale_date": "", "market_value": 370800.0, "beds": 2.0, "bath": 2.0, "sqft": 986.0, "year_built": "1979", "acres": 0.17}, {"parcel_id": "76542", "address": "", "lat": "", "lon": ""}, {"parcel_id": "76570", "address": "", "lat": "", "lon": ""}, {"parcel_id": "76573", "address": "", "lat": "", "lon": ""}, {"parcel_id": "76574", "address": "", "lat": "", "lon": ""}, {"parcel_id": "76652", "address": "", "lat": "", "lon": ""}, {"parcel_id": "76653", "address": "", "lat": "", "lon": ""}, {"parcel_id": "76907", "address": "", "lat": "", "lon": ""}, {"parcel_id": "77050", "address": "", "lat": "", "lon": ""}, {"parcel_id": "77062", "address": "", "lat": "", "lon": ""}, {"parcel_id": "77069", "address": "", "lat": "", "lon": ""}, {"parcel_id": "77168", "address": "", "lat": "", "lon": ""}, {"parcel_id": "77291", "address": "", "lat": "", "lon": ""}, {"parcel_id": "77555", "address": "", "lat": "", "lon": ""}, {"parcel_id": "77683", "address": "", "lat": "", "lon": ""}, {"parcel_id": "77779", "address": "", "lat": "", "lon": ""}, {"parcel_id": "77788", "address": "", "lat": "", "lon": ""}, {"parcel_id": "77789", "address": "", "lat": "", "lon": ""}, {"parcel_id": "77790", "address": "", "lat": "", "lon": ""}, {"parcel_id": "77817", "address": "", "lat": "", "lon": ""}, {"parcel_id": "77895", "address": "", "lat": "", "lon": ""}, {"parcel_id": "77896", "address": "", "lat": "", "lon": ""}, {"parcel_id": "77897", "address": "", "lat": "", "lon": ""}, {"parcel_id": "77898", "address": "", "lat": "", "lon": ""}, {"parcel_id": "78896", "address": "", "lat": "", "lon": ""}, {"parcel_id": "78897", "address": "", "lat": "", "lon": ""}, {"parcel_id": "78974", "address": "", "lat": "", "lon": ""}, {"parcel_id": "78975", "address": "", "lat": "", "lon": ""}, {"parcel_id": "79102", "address": "", "lat": "", "lon": ""}, {"parcel_id": "79103", "address": "1124 CHESTER AVE", "lat": "36.194695", "lon": "-86.74071", "sale_price": 190000.0, "sale_date": "13 Feb 2015", "market_value": 423100.0, "beds": 3.0, "bath": 1.0, "sqft": 1120.0, "year_built": "1980", "acres": 0.14}, {"parcel_id": "79236", "address": "1200 CHESTER AVE", "lat": "36.194955", "lon": "-86.739809", "sale_price": -1.0, "sale_date": "", "market_value": 534400.0, "beds": 7.0, "bath": 3.0, "sqft": 2601.0, "year_built": "1950", "acres": 0.2}, {"parcel_id": "79440", "address": "", "lat": "", "lon": ""}, {"parcel_id": "79601", "address": "", "lat": "", "lon": ""}, {"parcel_id": "91321", "address": "1725 SAINT LOUIS ST", "lat": "36.180903", "lon": "-86.813641", "sale_price": -1.0, "sale_date": "", "market_value": 263800.0, "beds": 3.0, "bath": 2.0, "sqft": 920.0, "year_built": "1950", "acres": 0.17}, {"parcel_id": "92458", "address": "", "lat": "", "lon": ""}, {"parcel_id": "92459", "address": "", "lat": "", "lon": ""}, {"parcel_id": "92480", "address": "", "lat": "", "lon": ""}, {"parcel_id": "92634", "address": "", "lat": "", "lon": ""}, {"parcel_id": "97201", "address": "", "lat": "", "lon": ""}, {"parcel_id": "97915", "address": "", "lat": "", "lon": ""}]}