{"cluster_id": 293, "name": "CANAAN BUILDERS LLC", "entity_count": 1, "parcel_count": 31, "total_market_value": 0, "total_acres": 0.0, "owner_names": ["CANAAN BUILDERS LLC"], "registered_agents": [], "principal_offices": [], "primary_sos_status": "", "primary_foreign_state": "", "brand": "", "opencorporates": "https://opencorporates.com/companies?q=CANAAN+BUILDERS+LLC&utf8=%E2%9C%93", "primary_type": "", "portfolio": {"n_parcels_with_acs": 23, "median_income": 72623, "median_home_value": 446065, "pct_renter": 52, "pct_poverty": null, "pct_vacant": 7, "pct_black": 43, "pct_white": 39, "pct_hispanic": 12, "pct_asian": 2}, "related": [], "parcels": [{"parcel_id": "121376", "address": "1118 38TH AVE N", "lat": "36.167163", "lon": "-86.833305", "sale_price": null, "sale_date": "", "market_value": null, "beds": null, "bath": 0.0, "sqft": null, "year_built": "", "acres": null}, {"parcel_id": "211646", "address": "4608 BENTON SMITH RD", "lat": "36.088275", "lon": "-86.807611"}, {"parcel_id": "466555", "address": "3820 TIGERBELLE DR", "lat": "36.167775", "lon": "-86.834738"}, {"parcel_id": "466556", "address": "3822 TIGERBELLE DR", "lat": "36.167761", "lon": "-86.834798"}, {"parcel_id": "466558", "address": "3816 TIGERBELLE DR", "lat": "36.167816", "lon": "-86.834574"}, {"parcel_id": "467688", "address": "3824 TIGERBELLE DR", "lat": "36.167722", "lon": "-86.834881"}, {"parcel_id": "467689", "address": "3826 TIGERBELLE DR", "lat": "36.167714", "lon": "-86.834928"}, {"parcel_id": "467692", "address": "1016B W KIRKLAND AVE", "lat": "36.209272", "lon": "-86.73774"}, {"parcel_id": "467693", "address": "1016C W KIRKLAND AVE", "lat": "36.209217", "lon": "-86.737749"}, {"parcel_id": "467694", "address": "1016D W KIRKLAND AVE", "lat": "36.209162", "lon": "-86.737757"}, {"parcel_id": "467695", "address": "1016 E W KIRKLAND AVE", "lat": "36.209107", "lon": "-86.737765"}, {"parcel_id": "467696", "address": "1016F W KIRKLAND AVE", "lat": "36.209053", "lon": "-86.737774"}, {"parcel_id": "468438", "address": "1909 ASHTON AVE", "lat": "36.194068", "lon": "-86.837831"}, {"parcel_id": "468439", "address": "1911 ASHTON AVE", "lat": "36.194102", "lon": "-86.837773"}, {"parcel_id": "470675", "address": "1130A DELMAS AVE", "lat": "36.198453", "lon": "-86.738078"}, {"parcel_id": "470676", "address": "1130B DELMAS AVE", "lat": "36.198157", "lon": "-86.738243"}, {"parcel_id": "472192", "address": "", "lat": "", "lon": ""}, {"parcel_id": "472193", "address": "", "lat": "", "lon": ""}, {"parcel_id": "473884", "address": "141A HARRINGTON AVE", "lat": "36.25735", "lon": "-86.711422"}, {"parcel_id": "473885", "address": "141B HARRINGTON AVE", "lat": "36.257472", "lon": "-86.711403"}, {"parcel_id": "473886", "address": "141C HARRINGTON AVE", "lat": "36.257594", "lon": "-86.711384"}, {"parcel_id": "474759", "address": "1812D ASHTON AVE", "lat": "36.192688", "lon": "-86.838391"}, {"parcel_id": "474760", "address": "1812C ASHTON AVE", "lat": "36.192655", "lon": "-86.838447"}, {"parcel_id": "474762", "address": "1812B ASHTON AVE", "lat": "36.192583", "lon": "-86.838499"}, {"parcel_id": "474763", "address": "1812 ASHTON AVE", "lat": "36.192549", "lon": "-86.838555"}, {"parcel_id": "475652", "address": "1810 MANCHESTER AVE", "lat": "36.191574", "lon": "-86.837329"}, {"parcel_id": "475653", "address": "1808 MANCHESTER AVE", "lat": "36.191468", "lon": "-86.837439"}, {"parcel_id": "479734", "address": "", "lat": "", "lon": ""}, {"parcel_id": "479735", "address": "", "lat": "", "lon": ""}, {"parcel_id": "479741", "address": "", "lat": "", "lon": ""}, {"parcel_id": "479742", "address": "", "lat": "", "lon": ""}]}