{"cluster_id": 308, "name": "MAGNESS GROUP 747 GP", "entity_count": 25, "parcel_count": 30, "total_market_value": 0, "total_acres": 0.0, "owner_names": ["MAGNESS GROUP 747 GP", "O I C HOMES AR 1009 CALDWELL AVENUE", "O I C HOMES AT 1003 CARUTHERS", "O I C HOMES AT 1004 CALDWELL AVENUE", "O I C HOMES AT 106 MYRTLE STREET", "O I C HOMES AT 1605 MARTIN STREET", "O I C HOMES AT 1716 SIMPKINS", "O I C HOMES AT 1810 MARTIN STREET", "O I C HOMES AT 2156 BYRUM AVENUE", "O I C HOMES AT 2720 DELAWARE", "O I C HOMES AT 409 MERRITT I", "O I C HOMES AT 409 MERRITT II", "O I C HOMES AT 4210 WYOMING", "O I C HOMES AT 506 ACKLEN PARK", "O I C HOMES AT 511 MOORE AVENUE", "O I C HOMES AT 549 MOORE AVENUE", "O I C HOMES AT 556 ROSEDALE", "O I C HOMES AT 747 ALLOWAY STREET", "O I C HOMES AT 755 LYNWOOD AVENUE", "O I C HOMES AT 757 LYNWOOD AVENUE", "O I C HOMES AT 761 LYNWOOD AVENUE AMEND", "O I C HOMES AT 823 HORNER", "O I C HOMES AT ALBION ST", "WEHO DEVELOPMENT GROUP GP", "WEHO OPPORTUNITY 2021 LLC"], "registered_agents": [], "principal_offices": [], "primary_sos_status": "", "primary_foreign_state": "", "brand": "", "opencorporates": "https://opencorporates.com/companies?q=MAGNESS+GROUP+747+GP&utf8=%E2%9C%93", "primary_type": "", "portfolio": {"n_parcels_with_acs": 21, "median_income": 92248, "median_home_value": 651365, "pct_renter": 53, "pct_poverty": null, "pct_vacant": 13, "pct_black": 22, "pct_white": 66, "pct_hispanic": 8, "pct_asian": 3}, "related": [{"owner": "O I C HOMES AR 1009 CALDWELL AVENUE", "parcels": 1, "via": "mailing address"}, {"owner": "O I C HOMES AT 755 LYNWOOD AVENUE", "parcels": 1, "via": "mailing address"}, {"owner": "O I C HOMES AT 106 MYRTLE STREET", "parcels": 1, "via": "mailing address"}, {"owner": "O I C HOMES AT 747 ALLOWAY STREET", "parcels": 1, "via": "mailing address"}, {"owner": "O I C HOMES AT 1003 CARUTHERS", "parcels": 1, "via": "mailing address"}, {"owner": "O I C HOMES AT 1716 SIMPKINS", "parcels": 1, "via": "mailing address"}, {"owner": "O I C HOMES AT 409 MERRITT II", "parcels": 1, "via": "mailing address"}, {"owner": "O I C HOMES AT 761 LYNWOOD AVENUE AMEND", "parcels": 1, "via": "mailing address"}, {"owner": "O I C HOMES AT 556 ROSEDALE", "parcels": 1, "via": "mailing address"}, {"owner": "WEHO DEVELOPMENT GROUP GP", "parcels": 1, "via": "mailing address"}, {"owner": "WEHO OPPORTUNITY 2021 LLC", "parcels": 1, "via": "mailing address"}, {"owner": "O I C HOMES AT 511 MOORE AVENUE", "parcels": 1, "via": "mailing address"}, {"owner": "O I C HOMES AT 823 HORNER", "parcels": 1, "via": "mailing address"}, {"owner": "O I C HOMES AT 549 MOORE AVENUE", "parcels": 1, "via": "mailing address"}, {"owner": "O I C HOMES AT 2156 BYRUM AVENUE", "parcels": 1, "via": "mailing address"}, {"owner": "O I C HOMES AT ALBION ST", "parcels": 1, "via": "mailing address"}, {"owner": "O I C HOMES AT 506 ACKLEN PARK", "parcels": 1, "via": "mailing address"}, {"owner": "O I C HOMES AT 1810 MARTIN STREET", "parcels": 1, "via": "mailing address"}, {"owner": "O I C HOMES AT 2720 DELAWARE", "parcels": 1, "via": "mailing address"}, {"owner": "O I C HOMES AT 1605 MARTIN STREET", "parcels": 1, "via": "mailing address"}, {"owner": "O I C HOMES AT 409 MERRITT I", "parcels": 1, "via": "mailing address"}, {"owner": "O I C HOMES AT 1004 CALDWELL AVENUE", "parcels": 1, "via": "mailing address"}, {"owner": "O I C HOMES AT 757 LYNWOOD AVENUE", "parcels": 1, "via": "mailing address"}, {"owner": "O I C HOMES AT 4210 WYOMING", "parcels": 1, "via": "mailing address"}], "parcels": [{"parcel_id": "163224", "address": "", "lat": "", "lon": ""}, {"parcel_id": "165046", "address": "", "lat": "", "lon": ""}, {"parcel_id": "165435", "address": "1703 MARTIN ST", "lat": "36.135668", "lon": "-86.770494"}, {"parcel_id": "416436", "address": "1003 CARUTHERS AVE", "lat": "36.125262", "lon": "-86.786788"}, {"parcel_id": "429681", "address": "409F MERRITT AVE", "lat": "36.139126", "lon": "-86.765633"}, {"parcel_id": "429684", "address": "409 MERRITT AVE", "lat": "36.139112", "lon": "-86.765509"}, {"parcel_id": "430540", "address": "2720B DELAWARE AVE", "lat": "36.156686", "lon": "-86.818455"}, {"parcel_id": "431838", "address": "755C LYNWOOD AVE", "lat": "36.138016", "lon": "-86.77708"}, {"parcel_id": "432846", "address": "2156C BYRUM AVE", "lat": "36.134171", "lon": "-86.76304"}, {"parcel_id": "432852", "address": "1009 CALDWELL AVE", "lat": "36.132329", "lon": "-86.786592"}, {"parcel_id": "433815", "address": "1716C SIMPKINS ST", "lat": "36.185999", "lon": "-86.813762"}, {"parcel_id": "433818", "address": "508B ACKLEN PARK DR", "lat": "36.141975", "lon": "-86.826264"}, {"parcel_id": "434355", "address": "549C MOORE AVE", "lat": "36.137214", "lon": "-86.768326"}, {"parcel_id": "436728", "address": "823C HORNER AVE", "lat": "36.12179", "lon": "-86.778169"}, {"parcel_id": "437085", "address": "202B 43RD AVE N", "lat": "36.145933", "lon": "-86.837906"}, {"parcel_id": "438183", "address": "761 LYNWOOD AVE", "lat": "36.137986", "lon": "-86.777626"}, {"parcel_id": "438186", "address": "757C LYNWOOD AVE", "lat": "36.13803", "lon": "-86.777362"}, {"parcel_id": "446564", "address": "2416F ALBION ST", "lat": "36.165663", "lon": "-86.813653"}, {"parcel_id": "446567", "address": "", "lat": "", "lon": ""}, {"parcel_id": "446568", "address": "", "lat": "", "lon": ""}, {"parcel_id": "446569", "address": "", "lat": "", "lon": ""}, {"parcel_id": "446570", "address": "", "lat": "", "lon": ""}, {"parcel_id": "446571", "address": "", "lat": "", "lon": ""}, {"parcel_id": "446572", "address": "", "lat": "", "lon": ""}, {"parcel_id": "446573", "address": "", "lat": "", "lon": ""}, {"parcel_id": "446576", "address": "1004 CALDWELL AVE", "lat": "36.132901", "lon": "-86.786145"}, {"parcel_id": "446930", "address": "106 MYRTLE ST", "lat": "36.178103", "lon": "-86.756431"}, {"parcel_id": "447394", "address": "556B ROSEDALE AVE", "lat": "36.124724", "lon": "-86.763365"}, {"parcel_id": "468095", "address": "511D MOORE AVE", "lat": "36.136918", "lon": "-86.765304"}, {"parcel_id": "475152", "address": "1810C MARTIN ST", "lat": "36.134133", "lon": "-86.770193"}]}