{"cluster_id": 329, "name": "BLU TACO BELLE LLC", "entity_count": 2, "parcel_count": 28, "total_market_value": 13346100, "total_acres": 5.5, "owner_names": ["BLU TACO BELLE LLC", "COPPER INVESTMENTS LLC"], "registered_agents": [], "principal_offices": [], "primary_sos_status": "", "primary_foreign_state": "", "brand": "", "opencorporates": "https://opencorporates.com/companies?q=BLU+TACO+BELLE+LLC&utf8=%E2%9C%93", "primary_type": "", "portfolio": {"n_parcels_with_acs": 22, "median_income": 92966, "median_home_value": 591939, "pct_renter": 45, "pct_poverty": null, "pct_vacant": 9, "pct_black": 18, "pct_white": 65, "pct_hispanic": 12, "pct_asian": 2}, "related": [{"owner": "COPPER INVESTMENTS LLC", "parcels": 8, "via": "mailing address"}], "parcels": [{"parcel_id": "125022", "address": "745 22ND AVE N", "lat": "36.160712", "lon": "-86.810258", "sale_price": 45000.0, "sale_date": "24 Apr 2009", "market_value": 260700.0, "beds": 2.0, "bath": 1.0, "sqft": 624.0, "year_built": "1980", "acres": 0.11}, {"parcel_id": "138691", "address": "307 BLUE HILLS DR", "lat": "36.161119", "lon": "-86.683957", "sale_price": -1.0, "sale_date": "", "market_value": 324200.0, "beds": 2.0, "bath": 1.0, "sqft": 1173.0, "year_built": "1980", "acres": 0.31}, {"parcel_id": "161930", "address": "1013 14TH AVE S", "lat": "36.14573", "lon": "-86.789424", "sale_price": -1.0, "sale_date": "", "market_value": 651300.0, "beds": 3.0, "bath": 1.0, "sqft": 989.0, "year_built": "1976", "acres": 0.16}, {"parcel_id": "163099", "address": "1705 15TH AVE S", "lat": "36.137329", "lon": "-86.792094", "sale_price": 212000.0, "sale_date": "13 Nov 2013", "market_value": 680100.0, "beds": 6.0, "bath": 3.0, "sqft": 2071.0, "year_built": "1958", "acres": 0.17}, {"parcel_id": "193303", "address": "78 ELBERTA ST", "lat": "36.118229", "lon": "-86.739534", "sale_price": -1.0, "sale_date": "", "market_value": 287500.0, "beds": 2.0, "bath": 1.0, "sqft": 840.0, "year_built": "1950", "acres": 0.17}, {"parcel_id": "193713", "address": "110 VALERIA ST", "lat": "36.12138", "lon": "-86.741586", "sale_price": 127000.0, "sale_date": "18 Aug 2015", "market_value": 286900.0, "beds": 2.0, "bath": 2.0, "sqft": 1008.0, "year_built": "1964", "acres": 0.19}, {"parcel_id": "194155", "address": "2700 HARTFORD DR", "lat": "36.115238", "lon": "-86.732274", "sale_price": 100000.0, "sale_date": "6 Oct 2015", "market_value": 298200.0, "beds": 3.0, "bath": 1.0, "sqft": 1180.0, "year_built": "1949", "acres": 0.32}, {"parcel_id": "195134", "address": "3024 LOUISE DR", "lat": "36.104936", "lon": "-86.747321", "sale_price": -1.0, "sale_date": "", "market_value": 261500.0, "beds": 2.0, "bath": 1.0, "sqft": 810.0, "year_built": "1970", "acres": 0.22}, {"parcel_id": "243200", "address": "599 WHISPERING HILLS DR", "lat": "36.068404", "lon": "-86.730599", "sale_price": 160000.0, "sale_date": "1 Jun 2016", "market_value": 375100.0, "beds": 3.0, "bath": 2.0, "sqft": 1025.0, "year_built": "1960", "acres": 0.52}, {"parcel_id": "29606", "address": "211 ENSLEY AVE", "lat": "36.271867", "lon": "-86.665466", "sale_price": -1.0, "sale_date": "", "market_value": 176800.0, "beds": 3.0, "bath": 2.0, "sqft": 1007.0, "year_built": "1934", "acres": 0.15}, {"parcel_id": "38922", "address": "841 GALLAVISTA AVE", "lat": "36.251598", "lon": "-86.711179", "sale_price": -1.0, "sale_date": "", "market_value": 200500.0, "beds": 3.0, "bath": 2.0, "sqft": 896.0, "year_built": "1945", "acres": 0.22}, {"parcel_id": "410505", "address": "1215 TREMONT ST", "lat": "36.143834", "lon": "-86.789357", "sale_price": -1.0, "sale_date": "", "market_value": 847400.0, "beds": 4.0, "bath": 3.0, "sqft": 2558.0, "year_built": "2014", "acres": null}, {"parcel_id": "410506", "address": "1217 TREMONT ST", "lat": "36.143842", "lon": "-86.789425", "sale_price": -1.0, "sale_date": "", "market_value": 847400.0, "beds": 4.0, "bath": 3.0, "sqft": 2558.0, "year_built": "2014", "acres": null}, {"parcel_id": "414779", "address": "1013 13TH AVE S", "lat": "36.145076", "lon": "-86.787864", "sale_price": -1.0, "sale_date": "", "market_value": 961700.0, "beds": 4.0, "bath": 3.5, "sqft": 2538.0, "year_built": "2015", "acres": null}, {"parcel_id": "414780", "address": "1015 13TH AVE S", "lat": "36.144989", "lon": "-86.787904", "sale_price": -1.0, "sale_date": "", "market_value": 901500.0, "beds": 4.0, "bath": 3.5, "sqft": 2284.0, "year_built": "2015", "acres": null}, {"parcel_id": "42053", "address": "2215 OLD HICKORY BLVD", "lat": "36.247844", "lon": "-86.641261", "sale_price": -1.0, "sale_date": "", "market_value": 662500.0, "beds": 0.0, "bath": 0.0, "sqft": 4950.0, "year_built": "2000", "acres": 0.14}, {"parcel_id": "42056", "address": "2221 OLD HICKORY BLVD", "lat": "36.247754", "lon": "-86.641145", "sale_price": -1.0, "sale_date": "", "market_value": 164000.0, "beds": 0.0, "bath": 0.0, "sqft": 1445.0, "year_built": "2010", "acres": 0.06}, {"parcel_id": "42061", "address": "2206 OLD HICKORY BLVD", "lat": "36.247671", "lon": "-86.641956", "sale_price": -1.0, "sale_date": "", "market_value": 299400.0, "beds": 0.0, "bath": 0.0, "sqft": 4273.0, "year_built": "1990", "acres": 0.12}, {"parcel_id": "42169", "address": "0 OLD HICKORY BLVD", "lat": "36.247785", "lon": "-86.641185"}, {"parcel_id": "42527", "address": "107 24TH ST", "lat": "36.248241", "lon": "-86.640845", "sale_price": 180000.0, "sale_date": "23 Feb 2018", "market_value": 310000.0, "beds": 0.0, "bath": 0.0, "sqft": 0.0, "year_built": "1980", "acres": 0.17}, {"parcel_id": "42528", "address": "105B 24TH ST", "lat": "36.248142", "lon": "-86.640963"}, {"parcel_id": "42529", "address": "105A 24TH ST", "lat": "36.248074", "lon": "-86.641043", "sale_price": -1.0, "sale_date": "", "market_value": 262500.0, "beds": 0.0, "bath": 0.0, "sqft": 3720.0, "year_built": "1990", "acres": 0.06}, {"parcel_id": "44650", "address": "154 PARK CIR", "lat": "36.242879", "lon": "-86.642029", "sale_price": 91500.0, "sale_date": "16 Apr 2010", "market_value": 211500.0, "beds": 2.0, "bath": 1.0, "sqft": 854.0, "year_built": "1950", "acres": 0.35}, {"parcel_id": "50306", "address": "3185 EWINGDALE DR", "lat": "36.234637", "lon": "-86.788601", "sale_price": 66500.0, "sale_date": "14 May 2010", "market_value": 240300.0, "beds": 3.0, "bath": 1.0, "sqft": 1050.0, "year_built": "1971", "acres": 0.22}, {"parcel_id": "83064", "address": "4790 TRENTON DR", "lat": "36.210481", "lon": "-86.591518", "sale_price": -1.0, "sale_date": "", "market_value": 404600.0, "beds": 3.0, "bath": 1.5, "sqft": 1225.0, "year_built": "1976", "acres": 0.36}, {"parcel_id": "84314", "address": "4700 OLD HICKORY BLVD", "lat": "36.202731", "lon": "-86.621122", "sale_price": -1.0, "sale_date": "", "market_value": 2782200.0, "beds": 0.0, "bath": 0.0, "sqft": 14244.0, "year_built": "2005", "acres": 1.11}, {"parcel_id": "89147", "address": "534 DEBBIE DR", "lat": "36.209996", "lon": "-86.5849", "sale_price": -1.0, "sale_date": "", "market_value": 251800.0, "beds": 3.0, "bath": 2.0, "sqft": 1326.5, "year_built": "1985", "acres": 0.21}, {"parcel_id": "96542", "address": "1114 STAINBACK AVE", "lat": "36.191073", "lon": "-86.765346", "sale_price": -1.0, "sale_date": "", "market_value": 396500.0, "beds": 3.0, "bath": 2.0, "sqft": 1361.0, "year_built": "1923", "acres": 0.19}]}