{"cluster_id": 330, "name": "BUILD TRUST HOMES LLC", "entity_count": 1, "parcel_count": 28, "total_market_value": 800700, "total_acres": 1.1, "owner_names": ["BUILD TRUST HOMES LLC"], "registered_agents": [], "principal_offices": [], "primary_sos_status": "", "primary_foreign_state": "", "brand": "", "opencorporates": "https://opencorporates.com/companies?q=BUILD+TRUST+HOMES+LLC&utf8=%E2%9C%93", "primary_type": "", "portfolio": {"n_parcels_with_acs": 12, "median_income": 91973, "median_home_value": 457150, "pct_renter": 36, "pct_poverty": null, "pct_vacant": 4, "pct_black": 7, "pct_white": 83, "pct_hispanic": 6, "pct_asian": 2}, "related": [], "parcels": [{"parcel_id": "101329", "address": "", "lat": "", "lon": ""}, {"parcel_id": "103285", "address": "", "lat": "", "lon": ""}, {"parcel_id": "196849", "address": "3478 MCGAVOCK PIKE", "lat": "36.10667", "lon": "-86.70352"}, {"parcel_id": "219247", "address": "", "lat": "", "lon": ""}, {"parcel_id": "242989", "address": "595 HIGHCREST DR", "lat": "36.065091", "lon": "-86.732309", "sale_price": 360000.0, "sale_date": "18 Aug 2023", "market_value": 320000.0, "beds": 2.0, "bath": 1.0, "sqft": 1000.0, "year_built": "1958", "acres": 0.56}, {"parcel_id": "243142", "address": "", "lat": "", "lon": ""}, {"parcel_id": "245241", "address": "537 WHISPERING HILLS DR", "lat": "36.063782", "lon": "-86.724524", "sale_price": 323000.0, "sale_date": "24 May 2017", "market_value": 480700.0, "beds": 2.0, "bath": 2.0, "sqft": 1664.0, "year_built": "1995", "acres": 0.5}, {"parcel_id": "245744", "address": "", "lat": "", "lon": ""}, {"parcel_id": "449004", "address": "", "lat": "", "lon": ""}, {"parcel_id": "464400", "address": "", "lat": "", "lon": ""}, {"parcel_id": "475496", "address": "2812 HARRIETTE CT", "lat": "36.18492", "lon": "-86.713112"}, {"parcel_id": "475497", "address": "2814 HARRIETTE CT", "lat": "36.185042", "lon": "-86.713076"}, {"parcel_id": "476480", "address": "", "lat": "", "lon": ""}, {"parcel_id": "476481", "address": "", "lat": "", "lon": ""}, {"parcel_id": "476482", "address": "2015A SULTANA AVE", "lat": "36.206861", "lon": "-86.762848"}, {"parcel_id": "476483", "address": "2015B SULTANA AVE", "lat": "36.206925", "lon": "-86.762839"}, {"parcel_id": "477081", "address": "", "lat": "", "lon": ""}, {"parcel_id": "477082", "address": "", "lat": "", "lon": ""}, {"parcel_id": "477452", "address": "521B SOUTHCREST DR", "lat": "36.061493", "lon": "-86.725869"}, {"parcel_id": "479068", "address": "452 MCMURRAY DR", "lat": "36.061295", "lon": "-86.721696"}, {"parcel_id": "479069", "address": "454 MCMURRAY DR", "lat": "36.061219", "lon": "-86.721826"}, {"parcel_id": "479071", "address": "456 MCMURRAY DR", "lat": "36.061069", "lon": "-86.722089"}, {"parcel_id": "479072", "address": "458 MCMURRAY DR", "lat": "36.060977", "lon": "-86.722268"}, {"parcel_id": "481904", "address": "", "lat": "", "lon": ""}, {"parcel_id": "481905", "address": "", "lat": "", "lon": ""}, {"parcel_id": "71994", "address": "", "lat": "", "lon": ""}, {"parcel_id": "71995", "address": "", "lat": "", "lon": ""}, {"parcel_id": "77067", "address": "", "lat": "", "lon": ""}]}