{"cluster_id": 335, "name": "STAFFORD PARTNERS NO 1 LP", "entity_count": 5, "parcel_count": 28, "total_market_value": 49551500, "total_acres": 15.9, "owner_names": ["MYATT GROUP", "STAFFORD PARTNERS NO 1 LP", "STAFFORD PARTNERS NO 1 LP ET AL", "STAFFORD REVOCABLE LIVING TRUST", "STAFFORD THURMAN PARTNERS LP"], "registered_agents": [], "principal_offices": [], "primary_sos_status": "", "primary_foreign_state": "", "brand": "", "opencorporates": "https://opencorporates.com/companies?q=STAFFORD+PARTNERS+NO+1+LP&utf8=%E2%9C%93", "primary_type": "", "portfolio": {"n_parcels_with_acs": 24, "median_income": 79585, "median_home_value": 436211, "pct_renter": 60, "pct_poverty": null, "pct_vacant": 13, "pct_black": 18, "pct_white": 63, "pct_hispanic": 16, "pct_asian": 1}, "related": [{"owner": "STAFFORD THURMAN PARTNERS LP", "parcels": 6, "via": "mailing address"}, {"owner": "STAFFORD REVOCABLE LIVING TRUST", "parcels": 3, "via": "mailing address"}, {"owner": "STAFFORD PARTNERS NO 1 LP ET AL", "parcels": 2, "via": "mailing address"}, {"owner": "MYATT GROUP", "parcels": 1, "via": "mailing address"}], "parcels": [{"parcel_id": "165124", "address": "2000 GLADSTONE AVE", "lat": "36.129636", "lon": "-86.757487"}, {"parcel_id": "165125", "address": "2101 UTOPIA AVE", "lat": "36.129589", "lon": "-86.756888"}, {"parcel_id": "165126", "address": "2109 UTOPIA AVE", "lat": "36.129476", "lon": "-86.756884"}, {"parcel_id": "165127", "address": "2111 UTOPIA AVE", "lat": "36.129135", "lon": "-86.75688", "sale_price": -1.0, "sale_date": "", "market_value": 2975600.0, "beds": 0.0, "bath": 0.0, "sqft": 15600.0, "year_built": "1975", "acres": 0.76}, {"parcel_id": "165257", "address": "2137 UTOPIA AVE", "lat": "36.126602", "lon": "-86.756844", "sale_price": -1.0, "sale_date": "", "market_value": 1167200.0, "beds": null, "bath": 0.0, "sqft": 3762.0, "year_built": "2012", "acres": 0.19}, {"parcel_id": "166965", "address": "2006 GLADSTONE AVE", "lat": "36.129262", "lon": "-86.757481", "sale_price": 475000.0, "sale_date": "15 Aug 2013", "market_value": 2443900.0, "beds": 0.0, "bath": 0.0, "sqft": 10000.0, "year_built": "1996", "acres": 0.57}, {"parcel_id": "166968", "address": "2002 GLADSTONE AVE", "lat": "36.129524", "lon": "-86.757483"}, {"parcel_id": "167787", "address": "2210 DUNN AVE", "lat": "36.129313", "lon": "-86.75958", "sale_price": -1.0, "sale_date": "", "market_value": 761000.0, "beds": 2.0, "bath": 1.0, "sqft": 2472.0, "year_built": "1940", "acres": 0.23}, {"parcel_id": "168178", "address": "1008 OLD TREE CT", "lat": "36.146012", "lon": "-86.736508", "sale_price": 545000.0, "sale_date": "30 Apr 2015", "market_value": 1539300.0, "beds": 0.0, "bath": 0.0, "sqft": 7625.0, "year_built": "1983", "acres": 0.7}, {"parcel_id": "168765", "address": "121 LYLE LN", "lat": "36.127408", "lon": "-86.738286", "sale_price": 289000.0, "sale_date": "23 Aug 2012", "market_value": 1154900.0, "beds": 0.0, "bath": 0.0, "sqft": 6450.0, "year_built": "1974", "acres": 0.37}, {"parcel_id": "168860", "address": "113 LYLE LN", "lat": "36.127329", "lon": "-86.737678", "sale_price": 280000.0, "sale_date": "30 Dec 2011", "market_value": 1166400.0, "beds": 0.0, "bath": 0.0, "sqft": 7500.0, "year_built": "2000", "acres": 0.61}, {"parcel_id": "168869", "address": "148 PARK SOUTH CT", "lat": "36.126886", "lon": "-86.738371", "sale_price": -1.0, "sale_date": "", "market_value": 3412900.0, "beds": 0.0, "bath": 0.0, "sqft": 18346.0, "year_built": "1978", "acres": 0.67}, {"parcel_id": "168871", "address": "154 PARK SOUTH CT", "lat": "36.12675", "lon": "-86.737899"}, {"parcel_id": "170541", "address": "1903 AIR LANE DR", "lat": "36.145656", "lon": "-86.697416", "sale_price": -1.0, "sale_date": "", "market_value": 4816000.0, "beds": 0.0, "bath": 0.0, "sqft": 24070.0, "year_built": "1982", "acres": 1.72}, {"parcel_id": "17436", "address": "913 MYATT INDUSTRIAL DR", "lat": "36.280781", "lon": "-86.690151", "sale_price": 416000.0, "sale_date": "18 Sep 2014", "market_value": 1137700.0, "beds": 0.0, "bath": 0.0, "sqft": 7500.0, "year_built": "2000", "acres": 0.7}, {"parcel_id": "17437", "address": "917 MYATT INDUSTRIAL DR", "lat": "36.280877", "lon": "-86.689771", "sale_price": -1.0, "sale_date": "", "market_value": 2012300.0, "beds": null, "bath": 0.0, "sqft": 11667.0, "year_built": "2020", "acres": 0.92}, {"parcel_id": "17527", "address": "921 MYATT INDUSTRIAL DR", "lat": "36.280981", "lon": "-86.689335", "sale_price": 900000.0, "sale_date": "28 Dec 2018", "market_value": 1321600.0, "beds": 0.0, "bath": 0.0, "sqft": 12299.0, "year_built": "1987", "acres": 0.93}, {"parcel_id": "188766", "address": "2150 UTOPIA AVE", "lat": "36.125462", "lon": "-86.756123", "sale_price": 435000.0, "sale_date": "29 Jun 2011", "market_value": 1844800.0, "beds": 0.0, "bath": 0.0, "sqft": 6483.0, "year_built": "1986", "acres": 0.48}, {"parcel_id": "189771", "address": "501A LIGON DR", "lat": "36.122326", "lon": "-86.762054", "sale_price": -1.0, "sale_date": "", "market_value": 3733500.0, "beds": 0.0, "bath": 0.0, "sqft": 9701.0, "year_built": "1997", "acres": 1.0}, {"parcel_id": "189962", "address": "2514 BRANSFORD AVE", "lat": "36.123634", "lon": "-86.765305", "sale_price": -1.0, "sale_date": "", "market_value": 4352000.0, "beds": 0.0, "bath": 0.0, "sqft": 21889.0, "year_built": "2001", "acres": 1.41}, {"parcel_id": "189986", "address": "503 LIGON DR STE A", "lat": "36.122267", "lon": "-86.762909", "sale_price": -1.0, "sale_date": "", "market_value": 3427800.0, "beds": 0.0, "bath": 0.0, "sqft": 16711.0, "year_built": "1987", "acres": 0.75}, {"parcel_id": "191484", "address": "2409 FELTS AVE", "lat": "36.117125", "lon": "-86.756824", "sale_price": -1.0, "sale_date": "", "market_value": 1564800.0, "beds": 0.0, "bath": 0.0, "sqft": 4992.0, "year_built": "2001", "acres": 0.27}, {"parcel_id": "191492", "address": "609 NEWSOME ST", "lat": "36.116332", "lon": "-86.755761"}, {"parcel_id": "191499", "address": "2509 EUGENIA AVE", "lat": "36.116416", "lon": "-86.755033", "sale_price": 290000.0, "sale_date": "27 Sep 2013", "market_value": 1618600.0, "beds": 0.0, "bath": 0.0, "sqft": 4818.0, "year_built": "1978", "acres": 0.39}, {"parcel_id": "191596", "address": "2515 EUGENIA AVE", "lat": "36.115922", "lon": "-86.754962", "sale_price": -1.0, "sale_date": "", "market_value": 3022800.0, "beds": 0.0, "bath": 0.0, "sqft": 14842.0, "year_built": "1987", "acres": 1.47}, {"parcel_id": "192116", "address": "2419 FELTS AVE", "lat": "36.116786", "lon": "-86.756692", "sale_price": -1.0, "sale_date": "", "market_value": 2672700.0, "beds": 0.0, "bath": 0.0, "sqft": 10100.0, "year_built": "1977", "acres": 1.08}, {"parcel_id": "220667", "address": "1142 ANTIOCH PIKE", "lat": "36.096692", "lon": "-86.703551", "sale_price": 1070000.0, "sale_date": "12 Jun 2019", "market_value": 1645700.0, "beds": 0.0, "bath": 0.0, "sqft": 8100.0, "year_built": "1994", "acres": 0.66}, {"parcel_id": "311308", "address": "2205 CUMBERWELL CLOSE", "lat": "36.029354", "lon": "-86.767802", "sale_price": -1.0, "sale_date": "", "market_value": 1760000.0, "beds": 4.0, "bath": 4.0, "sqft": 0.0, "year_built": "2011", "acres": null}]}