{"cluster_id": 340, "name": "4TH AND MADISON LLC", "entity_count": 2, "parcel_count": 27, "total_market_value": 12897400, "total_acres": 0.0, "owner_names": ["4TH AND MADISON LLC", "KP REAL ESTATE LLC"], "registered_agents": [], "principal_offices": [], "primary_sos_status": "", "primary_foreign_state": "", "brand": "", "opencorporates": "https://opencorporates.com/companies?q=4TH+AND+MADISON+LLC&utf8=%E2%9C%93", "primary_type": "", "portfolio": {"n_parcels_with_acs": 20, "median_income": 107943, "median_home_value": 835990, "pct_renter": 79, "pct_poverty": null, "pct_vacant": 14, "pct_black": 3, "pct_white": 92, "pct_hispanic": 4, "pct_asian": 1}, "related": [{"owner": "KP REAL ESTATE LLC", "parcels": 1, "via": "mailing address"}], "parcels": [{"parcel_id": "397098", "address": "1216 4TH AVE N STE 101", "lat": "36.176409", "lon": "-86.787017", "sale_price": -1.0, "sale_date": "", "market_value": 677300.0, "beds": 1.0, "bath": 2.0, "sqft": 1278.0, "year_built": "2014", "acres": null}, {"parcel_id": "397099", "address": "1216 4TH AVE N STE 102", "lat": "36.176371", "lon": "-86.786974", "sale_price": -1.0, "sale_date": "", "market_value": 674200.0, "beds": 2.0, "bath": 1.5, "sqft": 1278.0, "year_built": "2014", "acres": null}, {"parcel_id": "397100", "address": "1216 4TH AVE N STE 103", "lat": "36.176322", "lon": "-86.786962", "sale_price": -1.0, "sale_date": "", "market_value": 677300.0, "beds": 2.0, "bath": 2.0, "sqft": 1278.0, "year_built": "2014", "acres": null}, {"parcel_id": "397101", "address": "1216 4TH AVE N STE 104", "lat": "36.176286", "lon": "-86.786919", "sale_price": -1.0, "sale_date": "", "market_value": 674200.0, "beds": 2.0, "bath": 1.0, "sqft": 1278.0, "year_built": "2014", "acres": null}, {"parcel_id": "397102", "address": "1216 4TH AVE N STE 105", "lat": "36.176237", "lon": "-86.786907", "sale_price": -1.0, "sale_date": "", "market_value": 677300.0, "beds": 2.0, "bath": 2.0, "sqft": 1278.0, "year_built": "2014", "acres": null}, {"parcel_id": "397103", "address": "1216 4TH AVE N STE 106", "lat": "36.176201", "lon": "-86.786864", "sale_price": -1.0, "sale_date": "", "market_value": 674200.0, "beds": 2.0, "bath": 1.5, "sqft": 1278.0, "year_built": "2014", "acres": null}, {"parcel_id": "397104", "address": "1216 4TH AVE N STE 108", "lat": "36.176146", "lon": "-86.786686", "sale_price": -1.0, "sale_date": "", "market_value": 532100.0, "beds": null, "bath": 0.0, "sqft": 1058.0, "year_built": "2014", "acres": null}, {"parcel_id": "397105", "address": "1216 4TH AVE N STE 109", "lat": "36.176015", "lon": "-86.786604", "sale_price": -1.0, "sale_date": "", "market_value": 527600.0, "beds": null, "bath": 0.0, "sqft": 1047.0, "year_built": "2014", "acres": null}, {"parcel_id": "397106", "address": "1216 4TH AVE N STE 110", "lat": "36.176146", "lon": "-86.786686", "sale_price": -1.0, "sale_date": "", "market_value": 504300.0, "beds": null, "bath": 0.0, "sqft": 1061.0, "year_built": "2014", "acres": null}, {"parcel_id": "397107", "address": "322 MADISON ST STE 201", "lat": "36.175973", "lon": "-86.786727", "sale_price": -1.0, "sale_date": "", "market_value": 1017100.0, "beds": null, "bath": 0.0, "sqft": 2263.0, "year_built": "2013", "acres": null}, {"parcel_id": "397108", "address": "322 MADISON ST STE 202", "lat": "36.176053", "lon": "-86.786791", "sale_price": -1.0, "sale_date": "", "market_value": 924400.0, "beds": null, "bath": 0.0, "sqft": 2034.0, "year_built": "2013", "acres": null}, {"parcel_id": "397109", "address": "322 MADISON ST # 203", "lat": "36.176114", "lon": "-86.78683", "sale_price": -1.0, "sale_date": "", "market_value": 657600.0, "beds": null, "bath": 0.0, "sqft": 1375.0, "year_built": "2013", "acres": null}, {"parcel_id": "398993", "address": "1200 4TH AVE N", "lat": "36.176036", "lon": "-86.786775", "sale_price": -1.0, "sale_date": "", "market_value": 1379500.0, "beds": null, "bath": 0.0, "sqft": 3815.0, "year_built": "2013", "acres": null}, {"parcel_id": "398994", "address": "314 MADISON ST", "lat": "36.176015", "lon": "-86.786604", "sale_price": -1.0, "sale_date": "", "market_value": 767000.0, "beds": null, "bath": 0.0, "sqft": 1049.0, "year_built": "2014", "acres": null}, {"parcel_id": "399080", "address": "1204 4TH AVE N", "lat": "36.176201", "lon": "-86.786864", "sale_price": -1.0, "sale_date": "", "market_value": 319600.0, "beds": null, "bath": 0.0, "sqft": 540.0, "year_built": "2013", "acres": null}, {"parcel_id": "399081", "address": "1206 4TH AVE N", "lat": "36.176237", "lon": "-86.786907", "sale_price": -1.0, "sale_date": "", "market_value": 439300.0, "beds": null, "bath": 0.0, "sqft": 540.0, "year_built": "2013", "acres": null}, {"parcel_id": "399082", "address": "1208 4TH AVE N", "lat": "36.176286", "lon": "-86.786919", "sale_price": -1.0, "sale_date": "", "market_value": 319600.0, "beds": null, "bath": 0.0, "sqft": 540.0, "year_built": "2013", "acres": null}, {"parcel_id": "399083", "address": "1210 4TH AVE N", "lat": "36.176322", "lon": "-86.786962", "sale_price": -1.0, "sale_date": "", "market_value": 439300.0, "beds": null, "bath": 0.0, "sqft": 540.0, "year_built": "2013", "acres": null}, {"parcel_id": "399084", "address": "1212 4TH AVE N", "lat": "36.176391", "lon": "-86.786997", "sale_price": -1.0, "sale_date": "", "market_value": 539800.0, "beds": null, "bath": 0.0, "sqft": 1084.0, "year_built": "2013", "acres": null}, {"parcel_id": "413741", "address": "214 W MILL DR", "lat": "36.162392", "lon": "-86.857926", "sale_price": 212025.0, "sale_date": "20 May 2016", "market_value": 475700.0, "beds": 2.0, "bath": 2.5, "sqft": 1190.0, "year_built": "2016", "acres": null}, {"parcel_id": "97875", "address": "", "lat": "", "lon": ""}, {"parcel_id": "97876", "address": "", "lat": "", "lon": ""}, {"parcel_id": "97877", "address": "", "lat": "", "lon": ""}, {"parcel_id": "97878", "address": "", "lat": "", "lon": ""}, {"parcel_id": "97879", "address": "", "lat": "", "lon": ""}, {"parcel_id": "97880", "address": "", "lat": "", "lon": ""}, {"parcel_id": "97881", "address": "", "lat": "", "lon": ""}]}