{"cluster_id": 349, "name": "PRIME NASHVILLE LLC", "entity_count": 6, "parcel_count": 27, "total_market_value": 673500, "total_acres": 0.2, "owner_names": ["ECHO CONSTRUCTION LLC", "O I C HOMES AT 1261 1ST AVENUE SOUTH", "O I C HOMES AT 1435 PORTER ROAD", "O I C HOMES AT 1626 NORTHVIEW AVENUE", "O I C HOMES AT 811 POWERS", "PRIME NASHVILLE LLC"], "registered_agents": [], "principal_offices": [], "primary_sos_status": "", "primary_foreign_state": "", "brand": "", "opencorporates": "https://opencorporates.com/companies?q=PRIME+NASHVILLE+LLC&utf8=%E2%9C%93", "primary_type": "", "portfolio": {"n_parcels_with_acs": 6, "median_income": 83323, "median_home_value": 536529, "pct_renter": 42, "pct_poverty": null, "pct_vacant": 9, "pct_black": 31, "pct_white": 57, "pct_hispanic": 3, "pct_asian": 2}, "related": [{"owner": "ECHO CONSTRUCTION LLC", "parcels": 5, "via": "mailing address"}, {"owner": "O I C HOMES AT 1261 1ST AVENUE SOUTH", "parcels": 1, "via": "mailing address"}, {"owner": "O I C HOMES AT 1435 PORTER ROAD", "parcels": 1, "via": "mailing address"}, {"owner": "O I C HOMES AT 811 POWERS", "parcels": 1, "via": "mailing address"}, {"owner": "O I C HOMES AT 1626 NORTHVIEW AVENUE", "parcels": 1, "via": "mailing address"}], "parcels": [{"parcel_id": "103020", "address": "", "lat": "", "lon": ""}, {"parcel_id": "103021", "address": "", "lat": "", "lon": ""}, {"parcel_id": "103385", "address": "", "lat": "", "lon": ""}, {"parcel_id": "103520", "address": "", "lat": "", "lon": ""}, {"parcel_id": "105365", "address": "1913 RUSSELL ST", "lat": "36.174131", "lon": "-86.735667"}, {"parcel_id": "106326", "address": "", "lat": "", "lon": ""}, {"parcel_id": "107059", "address": "1119 FATHERLAND ST", "lat": "36.17429", "lon": "-86.748612", "sale_price": -1.0, "sale_date": "", "market_value": 673500.0, "beds": 4.0, "bath": 2.0, "sqft": 1706.0, "year_built": "1950", "acres": 0.2}, {"parcel_id": "123214", "address": "", "lat": "", "lon": ""}, {"parcel_id": "125507", "address": "821 FISK ST", "lat": "36.163758", "lon": "-86.803025"}, {"parcel_id": "161889", "address": "", "lat": "", "lon": ""}, {"parcel_id": "414358", "address": "811C POWERS AVE", "lat": "36.18573", "lon": "-86.730175"}, {"parcel_id": "416527", "address": "1626C NORTHVIEW AVE", "lat": "36.198027", "lon": "-86.736111"}, {"parcel_id": "417780", "address": "95B MCKENNELL DR", "lat": "36.192946", "lon": "-86.726432"}, {"parcel_id": "418098", "address": "", "lat": "", "lon": ""}, {"parcel_id": "418099", "address": "", "lat": "", "lon": ""}, {"parcel_id": "418100", "address": "", "lat": "", "lon": ""}, {"parcel_id": "439787", "address": "", "lat": "", "lon": ""}, {"parcel_id": "66454", "address": "0 MCKINLEY ST", "lat": "36.207917", "lon": "-86.796255"}, {"parcel_id": "76382", "address": "", "lat": "", "lon": ""}, {"parcel_id": "76733", "address": "", "lat": "", "lon": ""}, {"parcel_id": "76829", "address": "", "lat": "", "lon": ""}, {"parcel_id": "76922", "address": "", "lat": "", "lon": ""}, {"parcel_id": "79058", "address": "", "lat": "", "lon": ""}, {"parcel_id": "79729", "address": "", "lat": "", "lon": ""}, {"parcel_id": "95625", "address": "", "lat": "", "lon": ""}, {"parcel_id": "95995", "address": "", "lat": "", "lon": ""}, {"parcel_id": "97162", "address": "", "lat": "", "lon": ""}]}