{"cluster_id": 375, "name": "FFN4H DEV LLC", "entity_count": 9, "parcel_count": 25, "total_market_value": 3219000, "total_acres": 0.3, "owner_names": ["1037 SCOVEL LLC", "1400 ARTHUR LLC", "1400 ARTHUR ROW HOMES CORP", "1405 10TH AVENUE NORTH CORP", "CATALYST NASHVILLE LLC", "DONELSON STATION LLC", "FFN1414 LLC", "FFN2T LLC", "FFN4H DEV LLC"], "registered_agents": [], "principal_offices": [], "primary_sos_status": "", "primary_foreign_state": "", "brand": "", "opencorporates": "https://opencorporates.com/companies?q=FFN4H+DEV+LLC&utf8=%E2%9C%93", "primary_type": "", "portfolio": {"n_parcels_with_acs": 18, "median_income": 149166, "median_home_value": 742956, "pct_renter": 50, "pct_poverty": null, "pct_vacant": 13, "pct_black": 16, "pct_white": 73, "pct_hispanic": 1, "pct_asian": 1}, "related": [{"owner": "1400 ARTHUR LLC", "parcels": 4, "via": "mailing address"}, {"owner": "FFN2T LLC", "parcels": 3, "via": "mailing address"}, {"owner": "CATALYST NASHVILLE LLC", "parcels": 2, "via": "mailing address"}, {"owner": "DONELSON STATION LLC", "parcels": 2, "via": "mailing address"}, {"owner": "1400 ARTHUR ROW HOMES CORP", "parcels": 1, "via": "mailing address"}, {"owner": "1405 10TH AVENUE NORTH CORP", "parcels": 1, "via": "mailing address"}, {"owner": "FFN1414 LLC", "parcels": 1, "via": "mailing address"}, {"owner": "1037 SCOVEL LLC", "parcels": 1, "via": "mailing address"}], "parcels": [{"parcel_id": "139538", "address": "0 LEBANON PIKE", "lat": "36.168404", "lon": "-86.667872"}, {"parcel_id": "139540", "address": "2701 LEBANON PIKE", "lat": "36.168288", "lon": "-86.66742"}, {"parcel_id": "148819", "address": "", "lat": "", "lon": ""}, {"parcel_id": "148820", "address": "", "lat": "", "lon": ""}, {"parcel_id": "450641", "address": "1400 ARTHUR AVE APT 2", "lat": "36.174751", "lon": "-86.79697", "sale_price": -1.0, "sale_date": "", "market_value": 1041700.0, "beds": 4.0, "bath": 3.5, "sqft": 3385.0, "year_built": "2022", "acres": null}, {"parcel_id": "450646", "address": "1400B ARTHUR AVE", "lat": "36.174818", "lon": "-86.796906"}, {"parcel_id": "454072", "address": "1405C 10TH AVE N", "lat": "36.175184", "lon": "-86.796587"}, {"parcel_id": "455612", "address": "", "lat": "", "lon": ""}, {"parcel_id": "472505", "address": "1607B 4TH AVE N", "lat": "36.181646", "lon": "-86.790803"}, {"parcel_id": "472506", "address": "1607A 4TH AVE N", "lat": "36.181589", "lon": "-86.790767"}, {"parcel_id": "472507", "address": "1605 4TH AVE N", "lat": "36.18149", "lon": "-86.790703"}, {"parcel_id": "472508", "address": "1603 4TH AVE N", "lat": "36.181433", "lon": "-86.790664"}, {"parcel_id": "472516", "address": "408B HUME ST", "lat": "36.1813", "lon": "-86.790969"}, {"parcel_id": "472517", "address": "408C HUME ST", "lat": "36.181356", "lon": "-86.791005"}, {"parcel_id": "472518", "address": "408D HUME ST", "lat": "36.181411", "lon": "-86.791041"}, {"parcel_id": "472519", "address": "408 HUME ST", "lat": "36.181464", "lon": "-86.791075"}, {"parcel_id": "472520", "address": "408F HUME ST", "lat": "36.181518", "lon": "-86.79111"}, {"parcel_id": "93716", "address": "", "lat": "", "lon": ""}, {"parcel_id": "93717", "address": "", "lat": "", "lon": ""}, {"parcel_id": "95290", "address": "", "lat": "", "lon": ""}, {"parcel_id": "96238", "address": "", "lat": "", "lon": ""}, {"parcel_id": "98910", "address": "1414 3RD AVE N", "lat": "36.18009", "lon": "-86.787581"}, {"parcel_id": "98920", "address": "1401 2ND AVE N", "lat": "36.17973", "lon": "-86.786798"}, {"parcel_id": "98921", "address": "1403 2ND AVE N", "lat": "36.179914", "lon": "-86.78691", "sale_price": 1200000.0, "sale_date": "11 Jun 2021", "market_value": 2177300.0, "beds": 0.0, "bath": 0.0, "sqft": 5550.0, "year_built": "2010", "acres": 0.3}, {"parcel_id": "98924", "address": "0 2ND AVE N", "lat": "36.180092", "lon": "-86.787023"}]}