{"cluster_id": 377, "name": "1716 8TH AVE S LLC", "entity_count": 25, "parcel_count": 25, "total_market_value": 10109100, "total_acres": 0.0, "owner_names": ["1706 8TH AVE S LLC", "1708 8TH AVE S LLC", "1710 8TH AVE S LLC", "1712 8TH AVE S LLC", "1714 8TH AVE S LLC", "1716 8TH AVE S LLC", "768 E ARGYLE LLC", "770 E ARGYLE LLC", "772 E ARGYLE LLC", "774 E ARGYLE AVE LLC", "776 E ARGYLE LLC", "O I C 101 CHEEKWOOD TERRACE HOMES", "O I C 1086 ARCHER STREET HOMES", "O I C 1519 DUGGER DRIVE HOMES", "O I C HOMES AT 1207 BATTLEFIELD DRIVE", "O I C HOMES AT 1314 AND 1316 CLIFTON LN", "O I C HOMES AT 1904 1906 SHERIDAN ROAD", "O I C HOMES AT 2020 2022 CASTLEMAN DR", "O I C HOMES AT 2022 GALBRAITH DRIVE", "O I C HOMES AT 2028 OVERHILL DRIVE", "O I C HOMES AT 3415 RICHARDS STREET AM", "O I C HOMES AT 3810 HARDING PLACE", "O I C HOMES AT 3812 HARDING PLACE", "O I C HOMES AT 417 ACKLEN PARK DRIVE", "O I C HOMES AT 4206 BELMONT PARK TERRACE"], "registered_agents": [], "principal_offices": [], "primary_sos_status": "", "primary_foreign_state": "", "brand": "", "opencorporates": "https://opencorporates.com/companies?q=1716+8TH+AVE+S+LLC&utf8=%E2%9C%93", "primary_type": "", "portfolio": {"n_parcels_with_acs": 24, "median_income": 109319, "median_home_value": 751524, "pct_renter": 39, "pct_poverty": null, "pct_vacant": 9, "pct_black": 16, "pct_white": 70, "pct_hispanic": 7, "pct_asian": 4}, "related": [{"owner": "1710 8TH AVE S LLC", "parcels": 1, "via": "mailing address"}, {"owner": "O I C HOMES AT 3810 HARDING PLACE", "parcels": 1, "via": "mailing address"}, {"owner": "1712 8TH AVE S LLC", "parcels": 1, "via": "mailing address"}, {"owner": "O I C HOMES AT 3415 RICHARDS STREET AM", "parcels": 1, "via": "mailing address"}, {"owner": "O I C HOMES AT 2028 OVERHILL DRIVE", "parcels": 1, "via": "mailing address"}, {"owner": "776 E ARGYLE LLC", "parcels": 1, "via": "mailing address"}, {"owner": "O I C 101 CHEEKWOOD TERRACE HOMES", "parcels": 1, "via": "mailing address"}, {"owner": "O I C 1519 DUGGER DRIVE HOMES", "parcels": 1, "via": "mailing address"}, {"owner": "O I C HOMES AT 1314 AND 1316 CLIFTON LN", "parcels": 1, "via": "mailing address"}, {"owner": "1708 8TH AVE S LLC", "parcels": 1, "via": "mailing address"}, {"owner": "O I C HOMES AT 1904 1906 SHERIDAN ROAD", "parcels": 1, "via": "mailing address"}, {"owner": "O I C HOMES AT 1207 BATTLEFIELD DRIVE", "parcels": 1, "via": "mailing address"}, {"owner": "768 E ARGYLE LLC", "parcels": 1, "via": "mailing address"}, {"owner": "1706 8TH AVE S LLC", "parcels": 1, "via": "mailing address"}, {"owner": "774 E ARGYLE AVE LLC", "parcels": 1, "via": "mailing address"}, {"owner": "O I C HOMES AT 3812 HARDING PLACE", "parcels": 1, "via": "mailing address"}, {"owner": "O I C HOMES AT 4206 BELMONT PARK TERRACE", "parcels": 1, "via": "mailing address"}, {"owner": "O I C HOMES AT 2022 GALBRAITH DRIVE", "parcels": 1, "via": "mailing address"}, {"owner": "1714 8TH AVE S LLC", "parcels": 1, "via": "mailing address"}, {"owner": "O I C HOMES AT 417 ACKLEN PARK DRIVE", "parcels": 1, "via": "mailing address"}, {"owner": "O I C HOMES AT 2020 2022 CASTLEMAN DR", "parcels": 1, "via": "mailing address"}, {"owner": "O I C 1086 ARCHER STREET HOMES", "parcels": 1, "via": "mailing address"}, {"owner": "770 E ARGYLE LLC", "parcels": 1, "via": "mailing address"}, {"owner": "772 E ARGYLE LLC", "parcels": 1, "via": "mailing address"}], "parcels": [{"parcel_id": "422232", "address": "1706 8TH AVE S", "lat": "36.136527", "lon": "-86.778633", "sale_price": -1.0, "sale_date": "", "market_value": 921100.0, "beds": 4.0, "bath": 4.5, "sqft": 2237.0, "year_built": "2019", "acres": null}, {"parcel_id": "422233", "address": "1708 8TH AVE S", "lat": "36.136478", "lon": "-86.77864", "sale_price": -1.0, "sale_date": "", "market_value": 921100.0, "beds": 4.0, "bath": 4.5, "sqft": 2237.0, "year_built": "2019", "acres": null}, {"parcel_id": "422234", "address": "1710 8TH AVE S", "lat": "36.13643", "lon": "-86.778648", "sale_price": -1.0, "sale_date": "", "market_value": 921100.0, "beds": 4.0, "bath": 4.5, "sqft": 2237.0, "year_built": "2019", "acres": null}, {"parcel_id": "422235", "address": "1712 8TH AVE S", "lat": "36.136377", "lon": "-86.778656", "sale_price": -1.0, "sale_date": "", "market_value": 921100.0, "beds": 4.0, "bath": 4.5, "sqft": 2237.0, "year_built": "2019", "acres": null}, {"parcel_id": "422236", "address": "1714 8TH AVE S", "lat": "36.136329", "lon": "-86.778664", "sale_price": -1.0, "sale_date": "", "market_value": 921100.0, "beds": 4.0, "bath": 4.5, "sqft": 2237.0, "year_built": "2019", "acres": null}, {"parcel_id": "422237", "address": "1716 8TH AVE S", "lat": "36.136281", "lon": "-86.778671", "sale_price": -1.0, "sale_date": "", "market_value": 921100.0, "beds": 4.0, "bath": 4.5, "sqft": 2237.0, "year_built": "2019", "acres": null}, {"parcel_id": "422238", "address": "772 E ARGYLE AVE", "lat": "36.136551", "lon": "-86.77843", "sale_price": -1.0, "sale_date": "", "market_value": 916500.0, "beds": 4.0, "bath": 4.5, "sqft": 2567.0, "year_built": "2019", "acres": null}, {"parcel_id": "422239", "address": "774 E ARGYLE AVE", "lat": "36.136545", "lon": "-86.778369", "sale_price": -1.0, "sale_date": "", "market_value": 916500.0, "beds": 4.0, "bath": 4.5, "sqft": 2567.0, "year_built": "2019", "acres": null}, {"parcel_id": "422240", "address": "776 E ARGYLE AVE", "lat": "36.136538", "lon": "-86.778308", "sale_price": -1.0, "sale_date": "", "market_value": 916500.0, "beds": 4.0, "bath": 4.5, "sqft": 2567.0, "year_built": "2019", "acres": null}, {"parcel_id": "422241", "address": "770 E ARGYLE AVE", "lat": "36.13631", "lon": "-86.778459", "sale_price": -1.0, "sale_date": "", "market_value": 916500.0, "beds": 4.0, "bath": 4.5, "sqft": 2567.0, "year_built": "2019", "acres": null}, {"parcel_id": "422242", "address": "768 E ARGYLE AVE", "lat": "36.136303", "lon": "-86.778397", "sale_price": -1.0, "sale_date": "", "market_value": 916500.0, "beds": 4.0, "bath": 4.5, "sqft": 2567.0, "year_built": "2019", "acres": null}, {"parcel_id": "450557", "address": "2028C OVERHILL DR", "lat": "36.099351", "lon": "-86.815836"}, {"parcel_id": "450585", "address": "1316B CLIFTON LN", "lat": "36.114246", "lon": "-86.795414"}, {"parcel_id": "450649", "address": "1088C ARCHER ST", "lat": "36.145606", "lon": "-86.785498"}, {"parcel_id": "452184", "address": "3810C HARDING PL", "lat": "36.093423", "lon": "-86.841517"}, {"parcel_id": "452187", "address": "3812C HARDING PL", "lat": "36.093433", "lon": "-86.841856"}, {"parcel_id": "456791", "address": "1519 C DUGGER DR", "lat": "36.194355", "lon": "-86.711656"}, {"parcel_id": "457471", "address": "107B CHEEKWOOD TER", "lat": "36.087688", "lon": "-86.881064"}, {"parcel_id": "463148", "address": "1207C BATTLEFIELD DR", "lat": "36.114894", "lon": "-86.793133"}, {"parcel_id": "463195", "address": "3415C RICHARDS ST", "lat": "36.11517", "lon": "-86.801621"}, {"parcel_id": "467351", "address": "2020 CASTLEMAN DR", "lat": "36.09751", "lon": "-86.815406"}, {"parcel_id": "467648", "address": "419C ACKLEN PARK DR", "lat": "36.143208", "lon": "-86.825026"}, {"parcel_id": "473212", "address": "4206C BELMONT PARK TER", "lat": "36.099819", "lon": "-86.804307"}, {"parcel_id": "474809", "address": "2022C GALBRAITH DR", "lat": "36.100602", "lon": "-86.815345"}, {"parcel_id": "476688", "address": "1904C SHERIDAN RD", "lat": "36.193014", "lon": "-86.718207"}]}