{"cluster_id": 429, "name": "MAGNESS GROUP INC", "entity_count": 13, "parcel_count": 23, "total_market_value": 476100, "total_acres": 0.2, "owner_names": ["LYNWOOD OZ 2023 TRUST", "MAGNESS GROUP INC", "O I C 817 CLAYTON AVENUE HOMEOWNERS ASSOC INC", "O I C HOMES AT 1014 CALDWELL AVENUE", "O I C HOMES AT 1303 LITTLE HAMILTON AVE", "O I C HOMES AT 1607 10TH", "O I C HOMES AT 1712 ALLISON PLACE", "O I C HOMES AT 1806 ALLISON PLACE", "O I C HOMES AT 519 HAMILTON AVENUE", "O I C HOMES AT 749 ALLOWAY STREET", "O I C HOMES AT LOT 20 CEDAR LANE", "O I C HOMES AT LOT 749 ALLOWAY STREET", "O I C HOMES ON NEAL TERRACE"], "registered_agents": [], "principal_offices": [], "primary_sos_status": "", "primary_foreign_state": "", "brand": "", "opencorporates": "https://opencorporates.com/companies?q=MAGNESS+GROUP+INC&utf8=%E2%9C%93", "primary_type": "", "portfolio": {"n_parcels_with_acs": 9, "median_income": 79787, "median_home_value": 654822, "pct_renter": 57, "pct_poverty": null, "pct_vacant": 15, "pct_black": 21, "pct_white": 66, "pct_hispanic": 8, "pct_asian": 3}, "related": [{"owner": "O I C 817 CLAYTON AVENUE HOMEOWNERS ASSOC INC", "parcels": 1, "via": "mailing address"}, {"owner": "LYNWOOD OZ 2023 TRUST", "parcels": 1, "via": "mailing address"}, {"owner": "O I C HOMES AT 749 ALLOWAY STREET", "parcels": 1, "via": "mailing address"}, {"owner": "O I C HOMES AT 1607 10TH", "parcels": 1, "via": "mailing address"}, {"owner": "O I C HOMES ON NEAL TERRACE", "parcels": 1, "via": "mailing address"}, {"owner": "O I C HOMES AT LOT 20 CEDAR LANE", "parcels": 1, "via": "mailing address"}, {"owner": "O I C HOMES AT 1014 CALDWELL AVENUE", "parcels": 1, "via": "mailing address"}, {"owner": "O I C HOMES AT 1712 ALLISON PLACE", "parcels": 1, "via": "mailing address"}, {"owner": "O I C HOMES AT 1303 LITTLE HAMILTON AVE", "parcels": 1, "via": "mailing address"}, {"owner": "O I C HOMES AT 1806 ALLISON PLACE", "parcels": 1, "via": "mailing address"}, {"owner": "O I C HOMES AT LOT 749 ALLOWAY STREET", "parcels": 1, "via": "mailing address"}, {"owner": "O I C HOMES AT 519 HAMILTON AVENUE", "parcels": 1, "via": "mailing address"}], "parcels": [{"parcel_id": "151699", "address": "", "lat": "", "lon": ""}, {"parcel_id": "163756", "address": "", "lat": "", "lon": ""}, {"parcel_id": "163870", "address": "", "lat": "", "lon": ""}, {"parcel_id": "163872", "address": "", "lat": "", "lon": ""}, {"parcel_id": "165734", "address": "", "lat": "", "lon": ""}, {"parcel_id": "165907", "address": "152 RAINS AVE", "lat": "36.134731", "lon": "-86.764351", "sale_price": 310000.0, "sale_date": "12 Feb 2021", "market_value": 476100.0, "beds": 2.0, "bath": 1.0, "sqft": 816.0, "year_built": "1979", "acres": 0.17}, {"parcel_id": "166313", "address": "", "lat": "", "lon": ""}, {"parcel_id": "189320", "address": "", "lat": "", "lon": ""}, {"parcel_id": "189421", "address": "", "lat": "", "lon": ""}, {"parcel_id": "189470", "address": "", "lat": "", "lon": ""}, {"parcel_id": "189686", "address": "", "lat": "", "lon": ""}, {"parcel_id": "189712", "address": "", "lat": "", "lon": ""}, {"parcel_id": "407887", "address": "817B CLAYTON AVE", "lat": "36.118838", "lon": "-86.779637"}, {"parcel_id": "417198", "address": "1701 B NEILL AVE", "lat": "36.135917", "lon": "-86.76811"}, {"parcel_id": "429714", "address": "1712C ALLISON PL", "lat": "36.135163", "lon": "-86.768727"}, {"parcel_id": "432896", "address": "1607C 10TH AVE N", "lat": "36.177744", "lon": "-86.800129"}, {"parcel_id": "433466", "address": "1806C ALLISON PL", "lat": "36.134349", "lon": "-86.76899"}, {"parcel_id": "442070", "address": "1014 CALDWELL AVE", "lat": "36.132955", "lon": "-86.787101"}, {"parcel_id": "447410", "address": "2010 CEDAR LN", "lat": "36.12411", "lon": "-86.803842"}, {"parcel_id": "452039", "address": "", "lat": "", "lon": ""}, {"parcel_id": "467619", "address": "", "lat": "", "lon": ""}, {"parcel_id": "470226", "address": "749D ALLOWAY ST", "lat": "36.136993", "lon": "-86.776722"}, {"parcel_id": "480269", "address": "", "lat": "", "lon": ""}]}