{"cluster_id": 435, "name": "NEW HORIZON ASSET MANAGER LLC", "entity_count": 7, "parcel_count": 22, "total_market_value": 15589500, "total_acres": 5.3, "owner_names": ["301 BEN ALLLEN LLC", "320 44TH LLC", "710 ENDEAVORS LLC", "BRIDGEWELL CAPITAL LLC", "KYLE NATASHA D REVOCABLE TRUST", "NEW HORIZON ASSET MANAGER LLC", "TRUE NORTH DEVELOPMENTS LLC"], "registered_agents": [], "principal_offices": [], "primary_sos_status": "", "primary_foreign_state": "", "brand": "", "opencorporates": "https://opencorporates.com/companies?q=NEW+HORIZON+ASSET+MANAGER+LLC&utf8=%E2%9C%93", "primary_type": "", "portfolio": {"n_parcels_with_acs": 17, "median_income": 66362, "median_home_value": 477176, "pct_renter": 56, "pct_poverty": null, "pct_vacant": 12, "pct_black": 57, "pct_white": 32, "pct_hispanic": 2, "pct_asian": 1}, "related": [{"owner": "TRUE NORTH DEVELOPMENTS LLC", "parcels": 4, "via": "mailing address"}, {"owner": "KYLE NATASHA D REVOCABLE TRUST", "parcels": 2, "via": "mailing address"}, {"owner": "301 BEN ALLLEN LLC", "parcels": 1, "via": "mailing address"}, {"owner": "710 ENDEAVORS LLC", "parcels": 1, "via": "mailing address"}, {"owner": "320 44TH LLC", "parcels": 1, "via": "mailing address"}, {"owner": "BRIDGEWELL CAPITAL LLC", "parcels": 1, "via": "mailing address"}], "parcels": [{"parcel_id": "101692", "address": "710 GALLATIN AVE", "lat": "36.184291", "lon": "-86.748547", "sale_price": 600000.0, "sale_date": "13 Sep 2021", "market_value": 1400200.0, "beds": 0.0, "bath": 0.0, "sqft": 3852.0, "year_built": "1962", "acres": 0.39}, {"parcel_id": "120546", "address": "320 44TH AVE N", "lat": "36.150553", "lon": "-86.839294", "sale_price": 680000.0, "sale_date": "2 Nov 2022", "market_value": 366800.0, "beds": 0.0, "bath": 0.0, "sqft": 1440.0, "year_built": "1960", "acres": 0.04}, {"parcel_id": "122554", "address": "907A 32ND AVE N", "lat": "36.161112", "lon": "-86.824579", "sale_price": 502000.0, "sale_date": "30 Aug 2019", "market_value": 556000.0, "beds": 4.0, "bath": 3.0, "sqft": 2052.0, "year_built": "2018", "acres": 0.09}, {"parcel_id": "122605", "address": "721 28TH AVE N", "lat": "36.159966", "lon": "-86.819213", "sale_price": -1.0, "sale_date": "", "market_value": 627700.0, "beds": 4.0, "bath": 3.5, "sqft": 1944.0, "year_built": "2018", "acres": 0.13}, {"parcel_id": "122610", "address": "709 28TH AVE N", "lat": "36.159426", "lon": "-86.819083", "sale_price": -1.0, "sale_date": "", "market_value": 637400.0, "beds": 4.0, "bath": 3.5, "sqft": 1997.0, "year_built": "2018", "acres": 0.13}, {"parcel_id": "122893", "address": "2110 BATAVIA ST", "lat": "36.161762", "lon": "-86.808847"}, {"parcel_id": "123215", "address": "714 28TH AVE N", "lat": "36.159888", "lon": "-86.818548", "sale_price": -1.0, "sale_date": "", "market_value": 754600.0, "beds": 4.0, "bath": 3.5, "sqft": 2566.5, "year_built": "2020", "acres": 0.12}, {"parcel_id": "32425", "address": "3724 BRICKMONT DR", "lat": "36.246135", "lon": "-86.771109", "sale_price": -1.0, "sale_date": "", "market_value": 354000.0, "beds": 3.0, "bath": 2.0, "sqft": 1907.0, "year_built": "1986", "acres": 0.25}, {"parcel_id": "410514", "address": "1719A 14TH AVE S", "lat": "36.13681", "lon": "-86.790915", "sale_price": 500000.0, "sale_date": "30 Jun 2015", "market_value": 855600.0, "beds": 3.0, "bath": 3.5, "sqft": 2158.0, "year_built": "2015", "acres": null}, {"parcel_id": "424357", "address": "600 WEDGEWOOD AVE", "lat": "36.133482", "lon": "-86.768765", "sale_price": -1.0, "sale_date": "", "market_value": 699800.0, "beds": 3.0, "bath": 2.5, "sqft": 1968.0, "year_built": "2017", "acres": null}, {"parcel_id": "427771", "address": "1021 SUMMIT AVE", "lat": "36.138342", "lon": "-86.785824", "sale_price": -1.0, "sale_date": "", "market_value": 1481800.0, "beds": 4.0, "bath": 4.5, "sqft": 3696.0, "year_built": "2017", "acres": null}, {"parcel_id": "440233", "address": "2226 BATAVIA ST", "lat": "36.161537", "lon": "-86.810444", "sale_price": -1.0, "sale_date": "", "market_value": 689100.0, "beds": 4.0, "bath": 3.0, "sqft": 2344.0, "year_built": "2019", "acres": null}, {"parcel_id": "440588", "address": "711B 26TH AVE N", "lat": "36.159264", "lon": "-86.815269", "sale_price": 799000.0, "sale_date": "12 Apr 2021", "market_value": 874500.0, "beds": 4.0, "bath": 4.0, "sqft": 1940.0, "year_built": "2020", "acres": null}, {"parcel_id": "440595", "address": "707 26TH AVE N APT 4", "lat": "36.159191", "lon": "-86.815477", "sale_price": -1.0, "sale_date": "", "market_value": 537900.0, "beds": 2.0, "bath": 2.5, "sqft": 1037.0, "year_built": "2020", "acres": null}, {"parcel_id": "440601", "address": "709C 26TH AVE N", "lat": "36.15913", "lon": "-86.815233", "sale_price": 725000.0, "sale_date": "12 Apr 2021", "market_value": 852900.0, "beds": 3.0, "bath": 3.0, "sqft": 1940.0, "year_built": "2020", "acres": null}, {"parcel_id": "444151", "address": "976 YOUNGS LN", "lat": "36.205678", "lon": "-86.810958", "sale_price": -1.0, "sale_date": "", "market_value": 835700.0, "beds": 4.0, "bath": 4.0, "sqft": 1920.0, "year_built": "2020", "acres": null}, {"parcel_id": "444169", "address": "970 YOUNGS LN APT K", "lat": "36.205589", "lon": "-86.811173", "sale_price": 650000.0, "sale_date": "2 Oct 2020", "market_value": 835700.0, "beds": 4.0, "bath": 4.0, "sqft": 1920.0, "year_built": "2020", "acres": null}, {"parcel_id": "51500", "address": "2823 JONES AVE", "lat": "36.219493", "lon": "-86.754035", "sale_price": null, "sale_date": "", "market_value": null, "beds": null, "bath": 0.0, "sqft": null, "year_built": "", "acres": null}, {"parcel_id": "51501", "address": "2821 JONES AVE", "lat": "36.21883", "lon": "-86.754798", "sale_price": 575000.0, "sale_date": "8 Aug 2025", "market_value": 842500.0, "beds": 4.0, "bath": 1.0, "sqft": 1924.0, "year_built": "1940", "acres": 0.98}, {"parcel_id": "51502", "address": "0 JONES AVE", "lat": "36.219105", "lon": "-86.753735"}, {"parcel_id": "51503", "address": "2819 JONES AVE", "lat": "36.21838", "lon": "-86.754164", "sale_price": 630000.0, "sale_date": "8 Aug 2025", "market_value": 2387300.0, "beds": 4.0, "bath": 1.5, "sqft": 1503.0, "year_built": "1950", "acres": 3.22}, {"parcel_id": "53244", "address": "", "lat": "", "lon": ""}]}