{"cluster_id": 439, "name": "BLUE RIDGE HOMES LLC SERIES 3", "entity_count": 15, "parcel_count": 22, "total_market_value": 3160600, "total_acres": 0.3, "owner_names": ["BLUE RIDGE HOMES LLC SERIES 1", "BLUE RIDGE HOMES LLC SERIES 11", "BLUE RIDGE HOMES LLC SERIES 15", "BLUE RIDGE HOMES LLC SERIES 21", "BLUE RIDGE HOMES LLC SERIES 3", "BLUE RIDGE HOMES LLC SERIES 4", "COMMODORE IRREVOCABLE TRUST", "O I C 405 WEST BEND DRIVE HOMES", "O I C 5702 5704 BURGESS AVENUE HOMES", "O I C 6012 DEAL AVENUE HOMES", "O I C 6125 LOUISIANA AVENUE HOMES", "O I C 614 ANNEX AVENUE HOMES", "O I C 6212 MORROW ROAD HOMES", "O I C 625 WACO DRIVE HOMES", "O I C HOMES AT 417 WEST BEND"], "registered_agents": [], "principal_offices": [], "primary_sos_status": "", "primary_foreign_state": "", "brand": "", "opencorporates": "https://opencorporates.com/companies?q=BLUE+RIDGE+HOMES+LLC+SERIES+3&utf8=%E2%9C%93", "primary_type": "", "portfolio": {"n_parcels_with_acs": 10, "median_income": 94317, "median_home_value": 565321, "pct_renter": 47, "pct_poverty": null, "pct_vacant": 9, "pct_black": 8, "pct_white": 72, "pct_hispanic": 16, "pct_asian": 2}, "related": [{"owner": "BLUE RIDGE HOMES LLC SERIES 1", "parcels": 3, "via": "mailing address"}, {"owner": "BLUE RIDGE HOMES LLC SERIES 21", "parcels": 3, "via": "mailing address"}, {"owner": "COMMODORE IRREVOCABLE TRUST", "parcels": 2, "via": "mailing address"}, {"owner": "BLUE RIDGE HOMES LLC SERIES 15", "parcels": 1, "via": "mailing address"}, {"owner": "O I C 625 WACO DRIVE HOMES", "parcels": 1, "via": "mailing address"}, {"owner": "O I C 405 WEST BEND DRIVE HOMES", "parcels": 1, "via": "mailing address"}, {"owner": "BLUE RIDGE HOMES LLC SERIES 4", "parcels": 1, "via": "mailing address"}, {"owner": "O I C 6012 DEAL AVENUE HOMES", "parcels": 1, "via": "mailing address"}, {"owner": "O I C 614 ANNEX AVENUE HOMES", "parcels": 1, "via": "mailing address"}, {"owner": "O I C 6125 LOUISIANA AVENUE HOMES", "parcels": 1, "via": "mailing address"}, {"owner": "BLUE RIDGE HOMES LLC SERIES 11", "parcels": 1, "via": "mailing address"}, {"owner": "O I C 6212 MORROW ROAD HOMES", "parcels": 1, "via": "mailing address"}, {"owner": "O I C 5702 5704 BURGESS AVENUE HOMES", "parcels": 1, "via": "mailing address"}, {"owner": "O I C HOMES AT 417 WEST BEND", "parcels": 1, "via": "mailing address"}], "parcels": [{"parcel_id": "116999", "address": "4901 MICHIGAN AVE", "lat": "36.158519", "lon": "-86.84646", "sale_price": -1.0, "sale_date": "", "market_value": 319600.0, "beds": 2.0, "bath": 1.0, "sqft": 1969.0, "year_built": "1936", "acres": 0.13}, {"parcel_id": "117104", "address": "", "lat": "", "lon": ""}, {"parcel_id": "118419", "address": "", "lat": "", "lon": ""}, {"parcel_id": "119734", "address": "", "lat": "", "lon": ""}, {"parcel_id": "119981", "address": "700 51ST AVE N", "lat": "36.155534", "lon": "-86.848323", "sale_price": -1.0, "sale_date": "", "market_value": 737500.0, "beds": 4.0, "bath": 3.0, "sqft": 2322.0, "year_built": "1940", "acres": 0.16}, {"parcel_id": "148597", "address": "", "lat": "", "lon": ""}, {"parcel_id": "414135", "address": "806 MORROW RD", "lat": "36.156784", "lon": "-86.853005", "sale_price": -1.0, "sale_date": "", "market_value": 521800.0, "beds": 3.0, "bath": 2.0, "sqft": 1410.0, "year_built": "2015", "acres": null}, {"parcel_id": "420321", "address": "5704 BURGESS AVE", "lat": "36.145201", "lon": "-86.860175"}, {"parcel_id": "423835", "address": "4617 MICHIGAN AVE", "lat": "36.158599", "lon": "-86.843675", "sale_price": -1.0, "sale_date": "", "market_value": 627100.0, "beds": 3.0, "bath": 2.0, "sqft": 1590.0, "year_built": "2016", "acres": null}, {"parcel_id": "426812", "address": "6012B DEAL AVE", "lat": "36.155923", "lon": "-86.867963", "sale_price": -1.0, "sale_date": "", "market_value": 522300.0, "beds": 3.0, "bath": 2.5, "sqft": 1683.0, "year_built": "2017", "acres": null}, {"parcel_id": "426813", "address": "6012C DEAL AVE", "lat": "36.155855", "lon": "-86.867976"}, {"parcel_id": "427403", "address": "614 ANNEX AVE", "lat": "36.159689", "lon": "-86.877209"}, {"parcel_id": "428344", "address": "6127 LOUISIANA AVE", "lat": "36.164896", "lon": "-86.864212", "sale_price": -1.0, "sale_date": "", "market_value": 432300.0, "beds": 2.0, "bath": 2.0, "sqft": 1092.0, "year_built": "2017", "acres": null}, {"parcel_id": "428345", "address": "6127B LOUISIANA AVE", "lat": "36.164992", "lon": "-86.864179"}, {"parcel_id": "429573", "address": "625C WACO DR", "lat": "36.159432", "lon": "-86.872385"}, {"parcel_id": "430543", "address": "405C W BEND DR", "lat": "36.147799", "lon": "-86.869837"}, {"parcel_id": "431655", "address": "6212C MORROW RD", "lat": "36.164847", "lon": "-86.864891"}, {"parcel_id": "433445", "address": "417C W BEND DR", "lat": "36.147744", "lon": "-86.870919"}, {"parcel_id": "435419", "address": "", "lat": "", "lon": ""}, {"parcel_id": "435420", "address": "", "lat": "", "lon": ""}, {"parcel_id": "435421", "address": "", "lat": "", "lon": ""}, {"parcel_id": "442020", "address": "", "lat": "", "lon": ""}]}