{"cluster_id": 440, "name": "UNIQUE PROPERTIES LLC", "entity_count": 12, "parcel_count": 22, "total_market_value": 44599500, "total_acres": 16.9, "owner_names": ["BRICK CHURCH REALTY LLC", "HERMITAGE PARTNERSHIP GP", "LAXMI 55 LLC", "RAISE LLC", "SHIRDI SAI LLC", "SHRI GANESHA ENTERPRISE LLC", "SKYLINE OMEGA BUILDING LLC", "SS37 INVESTMENTS LLC", "TD MONDAY INVESTMENT GROUP LLC", "UNIQUE OMEGA LLC", "UNIQUE PROPERTIES LLC", "UNIQUE PROPETIES LLC"], "registered_agents": [], "principal_offices": [], "primary_sos_status": "", "primary_foreign_state": "", "brand": "", "opencorporates": "https://opencorporates.com/companies?q=UNIQUE+PROPERTIES+LLC&utf8=%E2%9C%93", "primary_type": "", "portfolio": {"n_parcels_with_acs": 17, "median_income": 62075, "median_home_value": 350425, "pct_renter": 54, "pct_poverty": null, "pct_vacant": 7, "pct_black": 43, "pct_white": 38, "pct_hispanic": 11, "pct_asian": 0}, "related": [{"owner": "LAXMI 55 LLC", "parcels": 4, "via": "mailing address"}, {"owner": "UNIQUE OMEGA LLC", "parcels": 2, "via": "mailing address"}, {"owner": "SS37 INVESTMENTS LLC", "parcels": 2, "via": "mailing address"}, {"owner": "TD MONDAY INVESTMENT GROUP LLC", "parcels": 1, "via": "mailing address"}, {"owner": "SHRI GANESHA ENTERPRISE LLC", "parcels": 1, "via": "mailing address"}, {"owner": "UNIQUE PROPETIES LLC", "parcels": 1, "via": "mailing address"}, {"owner": "RAISE LLC", "parcels": 1, "via": "mailing address"}, {"owner": "BRICK CHURCH REALTY LLC", "parcels": 1, "via": "mailing address"}, {"owner": "HERMITAGE PARTNERSHIP GP", "parcels": 1, "via": "mailing address"}, {"owner": "SHIRDI SAI LLC", "parcels": 1, "via": "mailing address"}, {"owner": "SKYLINE OMEGA BUILDING LLC", "parcels": 1, "via": "mailing address"}], "parcels": [{"parcel_id": "10220", "address": "330 CARTWRIGHT ST", "lat": "36.323816", "lon": "-86.706967", "sale_price": -1.0, "sale_date": "", "market_value": 2345400.0, "beds": 0.0, "bath": 0.0, "sqft": 2155.0, "year_built": "2019", "acres": 1.59}, {"parcel_id": "10743", "address": "410 HIGHLAND HEIGHTS DR", "lat": "36.309865", "lon": "-86.728783", "sale_price": 340001.0, "sale_date": "29 Jun 2022", "market_value": 311100.0, "beds": 3.0, "bath": 2.0, "sqft": 2250.0, "year_built": "1973", "acres": 0.96}, {"parcel_id": "109080", "address": "3910 CENTRAL PIKE", "lat": "36.173421", "lon": "-86.603512", "sale_price": 3450000.0, "sale_date": "8 Aug 2014", "market_value": 9122100.0, "beds": 0.0, "bath": 0.0, "sqft": 62735.0, "year_built": "1999", "acres": 2.06}, {"parcel_id": "12198", "address": "", "lat": "", "lon": ""}, {"parcel_id": "12545", "address": "823 WREN RD", "lat": "36.302215", "lon": "-86.705814", "sale_price": 260001.0, "sale_date": "11 Feb 2022", "market_value": 367100.0, "beds": 2.0, "bath": 1.0, "sqft": 1025.0, "year_built": "2000", "acres": 0.86}, {"parcel_id": "12768", "address": "", "lat": "", "lon": ""}, {"parcel_id": "12769", "address": "641 WADE CIR", "lat": "36.307549", "lon": "-86.700716", "sale_price": -1.0, "sale_date": "", "market_value": 7244400.0, "beds": 0.0, "bath": 0.0, "sqft": 49940.0, "year_built": "2009", "acres": 1.62}, {"parcel_id": "12770", "address": "", "lat": "", "lon": ""}, {"parcel_id": "22098", "address": "3840 DICKERSON PIKE", "lat": "36.26527", "lon": "-86.757808", "sale_price": -1.0, "sale_date": "", "market_value": 3237600.0, "beds": 0.0, "bath": 0.0, "sqft": 11024.0, "year_built": "2010", "acres": 2.0}, {"parcel_id": "435216", "address": "1209B S DICKERSON RD", "lat": "36.29597", "lon": "-86.729691", "sale_price": 500000.0, "sale_date": "30 May 2023", "market_value": 533800.0, "beds": 2.0, "bath": 1.0, "sqft": 1599.0, "year_built": "2015", "acres": null}, {"parcel_id": "442660", "address": "4612A OLD HICKORY BLVD", "lat": "36.204436", "lon": "-86.621596"}, {"parcel_id": "442661", "address": "4612B OLD HICKORY BLVD", "lat": "36.204341", "lon": "-86.62157"}, {"parcel_id": "51356", "address": "2635 OLD MATTHEWS RD", "lat": "36.215178", "lon": "-86.788255", "sale_price": 225001.0, "sale_date": "10 Jul 2020", "market_value": 360700.0, "beds": 4.0, "bath": 2.0, "sqft": 1584.0, "year_built": "2000", "acres": 0.16}, {"parcel_id": "51836", "address": "2905 DICKERSON PIKE", "lat": "36.220459", "lon": "-86.76093", "sale_price": -1.0, "sale_date": "", "market_value": 3539700.0, "beds": null, "bath": 0.0, "sqft": 11342.0, "year_built": "2014", "acres": 1.08}, {"parcel_id": "52614", "address": "3250 DICKERSON PIKE", "lat": "36.234893", "lon": "-86.75902", "sale_price": -1.0, "sale_date": "", "market_value": 5504100.0, "beds": 0.0, "bath": 0.0, "sqft": 27492.0, "year_built": "2005", "acres": 1.13}, {"parcel_id": "5780", "address": "320 CARTWRIGHT ST", "lat": "36.324807", "lon": "-86.706545"}, {"parcel_id": "64387", "address": "4326 OLD HICKORY BLVD", "lat": "36.217639", "lon": "-86.623366", "sale_price": 180001.0, "sale_date": "20 Jan 2022", "market_value": 204300.0, "beds": 2.0, "bath": 1.0, "sqft": 1020.0, "year_built": "1940", "acres": 0.2}, {"parcel_id": "64526", "address": "4350 OLD HICKORY BLVD", "lat": "36.216062", "lon": "-86.622842", "sale_price": 275000.0, "sale_date": "8 Jun 2022", "market_value": 279500.0, "beds": 3.0, "bath": 2.0, "sqft": 1060.0, "year_built": "2005", "acres": 0.2}, {"parcel_id": "68337", "address": "1231 N AVONDALE CIR", "lat": "36.209727", "lon": "-86.78243", "sale_price": 269000.0, "sale_date": "9 Jan 2023", "market_value": 223500.0, "beds": 2.0, "bath": 1.0, "sqft": 640.0, "year_built": "1976", "acres": 0.21}, {"parcel_id": "68344", "address": "", "lat": "", "lon": ""}, {"parcel_id": "69310", "address": "2407 BRICK CHURCH PIKE", "lat": "36.21038", "lon": "-86.777143", "sale_price": -1.0, "sale_date": "", "market_value": 8956700.0, "beds": 0.0, "bath": 0.0, "sqft": 52967.0, "year_built": "1985", "acres": 3.72}, {"parcel_id": "71260", "address": "305 W TRINITY LN", "lat": "36.207153", "lon": "-86.779687", "sale_price": 525000.0, "sale_date": "3 Mar 2011", "market_value": 2369500.0, "beds": 0.0, "bath": 0.0, "sqft": 7600.0, "year_built": "1988", "acres": 1.09}]}