{"cluster_id": 444, "name": "DUKE DUKE LLC", "entity_count": 7, "parcel_count": 22, "total_market_value": 954600, "total_acres": 0.4, "owner_names": ["DUKE DUKE LLC", "O I C HOMES AT 105 13TH AVENUE CIRCLE", "O I C HOMES AT 1200 RIVERSIDE DRIVE", "O I C HOMES AT 1436 LISCHEY AVENUE", "O I C HOMES AT 6106 CALIFORNIA AVENUE", "O I C HOMES AT 803 MONTROSE AVENUE", "P F PROPERTIES"], "registered_agents": [], "principal_offices": [], "primary_sos_status": "", "primary_foreign_state": "", "brand": "", "opencorporates": "https://opencorporates.com/companies?q=DUKE+DUKE+LLC&utf8=%E2%9C%93", "primary_type": "", "portfolio": {"n_parcels_with_acs": 16, "median_income": 69409, "median_home_value": 525959, "pct_renter": 53, "pct_poverty": null, "pct_vacant": 16, "pct_black": 40, "pct_white": 50, "pct_hispanic": 5, "pct_asian": 1}, "related": [{"owner": "O I C HOMES AT 1200 RIVERSIDE DRIVE", "parcels": 1, "via": "mailing address"}, {"owner": "O I C HOMES AT 105 13TH AVENUE CIRCLE", "parcels": 1, "via": "mailing address"}, {"owner": "O I C HOMES AT 6106 CALIFORNIA AVENUE", "parcels": 1, "via": "mailing address"}, {"owner": "P F PROPERTIES", "parcels": 1, "via": "mailing address"}, {"owner": "O I C HOMES AT 1436 LISCHEY AVENUE", "parcels": 1, "via": "mailing address"}, {"owner": "O I C HOMES AT 803 MONTROSE AVENUE", "parcels": 1, "via": "mailing address"}], "parcels": [{"parcel_id": "101177", "address": "", "lat": "", "lon": ""}, {"parcel_id": "122780", "address": "1113 JACKSON ST", "lat": "36.16931", "lon": "-86.796337", "sale_price": -1.0, "sale_date": "", "market_value": 401300.0, "beds": 3.0, "bath": 1.0, "sqft": 1006.0, "year_built": "1980", "acres": 0.09}, {"parcel_id": "162057", "address": "", "lat": "", "lon": ""}, {"parcel_id": "189937", "address": "", "lat": "", "lon": ""}, {"parcel_id": "350970", "address": "2250 NEELYS BEND RD", "lat": "36.196147", "lon": "-86.664853"}, {"parcel_id": "412750", "address": "6106 CALIFORNIA AVE", "lat": "36.166337", "lon": "-86.860844"}, {"parcel_id": "418261", "address": "107B 13TH AVENUE CIR", "lat": "36.14552", "lon": "-86.787948"}, {"parcel_id": "419200", "address": "803C MONTROSE AVE", "lat": "36.12313", "lon": "-86.78218"}, {"parcel_id": "420877", "address": "2121B GREENWOOD AVE", "lat": "36.188346", "lon": "-86.726955"}, {"parcel_id": "447738", "address": "1436 LISCHEY AVE", "lat": "36.198658", "lon": "-86.762789"}, {"parcel_id": "447739", "address": "1438 LISCHEY AVE", "lat": "36.198752", "lon": "-86.762773"}, {"parcel_id": "447740", "address": "1438B LISCHEY AVE", "lat": "36.198715", "lon": "-86.762822"}, {"parcel_id": "71437", "address": "1713 3RD ST", "lat": "36.201531", "lon": "-86.785481"}, {"parcel_id": "71438", "address": "0 3RD ST", "lat": "36.201354", "lon": "-86.78524"}, {"parcel_id": "71439", "address": "0 3RD ST", "lat": "36.201173", "lon": "-86.784987"}, {"parcel_id": "71440", "address": "0 3RD ST", "lat": "36.201012", "lon": "-86.784772"}, {"parcel_id": "71441", "address": "0 3RD ST", "lat": "36.200879", "lon": "-86.784564"}, {"parcel_id": "71965", "address": "", "lat": "", "lon": ""}, {"parcel_id": "72530", "address": "", "lat": "", "lon": ""}, {"parcel_id": "93764", "address": "1717 10TH AVE N", "lat": "36.179859", "lon": "-86.802977", "sale_price": -1.0, "sale_date": "", "market_value": 337200.0, "beds": 4.0, "bath": 3.0, "sqft": 3360.0, "year_built": "1970", "acres": 0.17}, {"parcel_id": "94567", "address": "1723 10TH AVE N", "lat": "36.180072", "lon": "-86.803271", "sale_price": -1.0, "sale_date": "", "market_value": 216100.0, "beds": 4.0, "bath": 2.0, "sqft": 2848.76, "year_built": "1910", "acres": 0.16}, {"parcel_id": "97232", "address": "1014 JOSEPH AVE", "lat": "36.189706", "lon": "-86.7721"}]}