{"cluster_id": 450, "name": "MACSNEWCO LLC", "entity_count": 1, "parcel_count": 22, "total_market_value": 40664500, "total_acres": 16.1, "owner_names": ["MACSNEWCO LLC"], "registered_agents": ["(none)"], "principal_offices": ["801 CRESCENT CENTRE DR STE 300, FRANKLIN, TN 37067"], "primary_sos_status": "", "primary_foreign_state": "", "brand": "", "opencorporates": "https://opencorporates.com/companies?q=MACSNEWCO+LLC&utf8=%E2%9C%93", "primary_type": "", "portfolio": {"n_parcels_with_acs": 21, "median_income": 85756, "median_home_value": 495532, "pct_renter": 42, "pct_poverty": null, "pct_vacant": 8, "pct_black": 13, "pct_white": 59, "pct_hispanic": 21, "pct_asian": 4}, "related": [], "parcels": [{"parcel_id": "100251", "address": "801 JEFFERSON ST", "lat": "36.17279", "lon": "-86.791736"}, {"parcel_id": "110876", "address": "5400 OLD HICKORY BLVD", "lat": "36.183908", "lon": "-86.610043", "sale_price": -1.0, "sale_date": "", "market_value": 2490000.0, "beds": 0.0, "bath": 0.0, "sqft": 0.0, "year_built": "2015", "acres": 1.14}, {"parcel_id": "120763", "address": "5025 CHARLOTTE PIKE", "lat": "36.151423", "lon": "-86.84811"}, {"parcel_id": "122417", "address": "4207 CHARLOTTE AVE", "lat": "36.152025", "lon": "-86.837877", "sale_price": -1.0, "sale_date": "", "market_value": 1464000.0, "beds": 0.0, "bath": 0.0, "sqft": 0.0, "year_built": "2005", "acres": 0.34}, {"parcel_id": "122418", "address": "4211 CHARLOTTE AVE", "lat": "36.152016", "lon": "-86.83815"}, {"parcel_id": "138059", "address": "2406 ELM HILL PIKE", "lat": "36.153328", "lon": "-86.683564", "sale_price": -1.0, "sale_date": "", "market_value": 2448100.0, "beds": 0.0, "bath": 0.0, "sqft": 2600.0, "year_built": "2010", "acres": 0.78}, {"parcel_id": "141556", "address": "940 ALLEN RD", "lat": "36.150999", "lon": "-86.665573", "sale_price": 300000.0, "sale_date": "9 Jan 2014", "market_value": 843700.0, "beds": 0.0, "bath": 0.0, "sqft": 3750.0, "year_built": "1986", "acres": 0.36}, {"parcel_id": "170467", "address": "1090 MURFREESBORO PIKE", "lat": "36.127028", "lon": "-86.710838", "sale_price": -1.0, "sale_date": "", "market_value": 2032400.0, "beds": 0.0, "bath": 0.0, "sqft": 2600.0, "year_built": "2020", "acres": 0.64}, {"parcel_id": "175487", "address": "629 OLD HICKORY BLVD", "lat": "36.10945", "lon": "-86.923413", "sale_price": -1.0, "sale_date": "", "market_value": 3800000.0, "beds": 0.0, "bath": 0.0, "sqft": 0.0, "year_built": "2005", "acres": 2.81}, {"parcel_id": "195012", "address": "3039 NOLENSVILLE PIKE", "lat": "36.104551", "lon": "-86.742394"}, {"parcel_id": "195014", "address": "3043 NOLENSVILLE PIKE", "lat": "36.104243", "lon": "-86.742235", "sale_price": -1.0, "sale_date": "", "market_value": 1860000.0, "beds": 0.0, "bath": 0.0, "sqft": 0.0, "year_built": "2015", "acres": 0.51}, {"parcel_id": "197603", "address": "1189 MURFREESBORO PIKE", "lat": "36.120754", "lon": "-86.70421", "sale_price": -1.0, "sale_date": "", "market_value": 3078400.0, "beds": 0.0, "bath": 0.0, "sqft": 5120.0, "year_built": "2005", "acres": 0.82}, {"parcel_id": "219911", "address": "2301 MURFREESBORO PIKE", "lat": "36.086055", "lon": "-86.648717", "sale_price": -1.0, "sale_date": "", "market_value": 1575600.0, "beds": 0.0, "bath": 0.0, "sqft": 1768.0, "year_built": "2020", "acres": 0.69}, {"parcel_id": "230075", "address": "7101 HIGHWAY 70 S", "lat": "36.07396", "lon": "-86.92141", "sale_price": -1.0, "sale_date": "", "market_value": 1910000.0, "beds": 0.0, "bath": 0.0, "sqft": 0.0, "year_built": "1993", "acres": 1.02}, {"parcel_id": "239750", "address": "4805 TROUSDALE DR", "lat": "36.077609", "lon": "-86.75927", "sale_price": -1.0, "sale_date": "", "market_value": 1791000.0, "beds": 0.0, "bath": 0.0, "sqft": 0.0, "year_built": "1971", "acres": 0.96}, {"parcel_id": "241650", "address": "4190 NOLENSVILLE PIKE", "lat": "36.077615", "lon": "-86.725262", "sale_price": -1.0, "sale_date": "", "market_value": 2208500.0, "beds": 0.0, "bath": 0.0, "sqft": 2640.0, "year_built": "2015", "acres": 0.56}, {"parcel_id": "275136", "address": "5040 NOLENSVILLE PIKE", "lat": "36.059702", "lon": "-86.715952", "sale_price": -1.0, "sale_date": "", "market_value": 2394100.0, "beds": 0.0, "bath": 0.0, "sqft": 2700.0, "year_built": "2015", "acres": 0.67}, {"parcel_id": "276053", "address": "15109 OLD HICKORY BLVD", "lat": "36.044807", "lon": "-86.715102", "sale_price": -1.0, "sale_date": "", "market_value": 1561000.0, "beds": 0.0, "bath": 0.0, "sqft": 1947.0, "year_built": "1996", "acres": 0.78}, {"parcel_id": "282479", "address": "1101 BELL RD", "lat": "36.045212", "lon": "-86.662011", "sale_price": -1.0, "sale_date": "", "market_value": 3007700.0, "beds": 0.0, "bath": 0.0, "sqft": 4357.0, "year_built": "2020", "acres": 0.82}, {"parcel_id": "41979", "address": "1500 ROBINSON RD", "lat": "36.255247", "lon": "-86.653886", "sale_price": -1.0, "sale_date": "", "market_value": 4060000.0, "beds": 0.0, "bath": 0.0, "sqft": 0.0, "year_built": "2020", "acres": 1.19}, {"parcel_id": "56282", "address": "4126 GALLATIN PIKE", "lat": "36.222377", "lon": "-86.725436", "sale_price": -1.0, "sale_date": "", "market_value": 2000000.0, "beds": 0.0, "bath": 0.0, "sqft": 0.0, "year_built": "2015", "acres": 0.91}, {"parcel_id": "63365", "address": "4711 ANDREW JACKSON PKWY", "lat": "36.215639", "lon": "-86.597167", "sale_price": -1.0, "sale_date": "", "market_value": 2140000.0, "beds": 0.0, "bath": 0.0, "sqft": 0.0, "year_built": "2020", "acres": 1.12}]}