{"cluster_id": 474, "name": "SEBASTINE ERAGA FAMILY TRUST", "entity_count": 4, "parcel_count": 21, "total_market_value": 1757200, "total_acres": 0.8, "owner_names": ["ERAGA SEBASTINE FAMILY TRUST", "O I C HOMES AT 2353 COOPER TERRACE", "O I C HOMES AT 2360 COOPER TERRACE", "SEBASTINE ERAGA FAMILY TRUST"], "registered_agents": [], "principal_offices": [], "primary_sos_status": "", "primary_foreign_state": "", "brand": "", "opencorporates": "https://opencorporates.com/companies?q=SEBASTINE+ERAGA+FAMILY+TRUST&utf8=%E2%9C%93", "primary_type": "", "portfolio": {"n_parcels_with_acs": 10, "median_income": 89507, "median_home_value": 408156, "pct_renter": 30, "pct_poverty": null, "pct_vacant": 5, "pct_black": 38, "pct_white": 49, "pct_hispanic": 7, "pct_asian": 0}, "related": [{"owner": "ERAGA SEBASTINE FAMILY TRUST", "parcels": 3, "via": "mailing address"}, {"owner": "O I C HOMES AT 2353 COOPER TERRACE", "parcels": 1, "via": "mailing address"}, {"owner": "O I C HOMES AT 2360 COOPER TERRACE", "parcels": 1, "via": "mailing address"}], "parcels": [{"parcel_id": "113492", "address": "1105 FOREST RIDGE WAY", "lat": "36.177924", "lon": "-86.585495", "sale_price": 137500.0, "sale_date": "17 Sep 2018", "market_value": 608300.0, "beds": 6.0, "bath": 6.0, "sqft": 3052.0, "year_built": "2022", "acres": 0.29}, {"parcel_id": "113493", "address": "1108 FOREST RIDGE WAY", "lat": "36.177731", "lon": "-86.585251", "sale_price": 108150.0, "sale_date": "12 Mar 2015", "market_value": 608300.0, "beds": 6.0, "bath": 6.0, "sqft": 3052.0, "year_built": "2022", "acres": 0.28}, {"parcel_id": "123551", "address": "2703B MORENA ST", "lat": "36.162685", "lon": "-86.81794", "sale_price": -1.0, "sale_date": "", "market_value": 540600.0, "beds": 4.0, "bath": 4.0, "sqft": 2094.25, "year_built": "1990", "acres": 0.22}, {"parcel_id": "135956", "address": "0 SPENCE CT", "lat": "36.150297", "lon": "-86.718964"}, {"parcel_id": "142620", "address": "0 FALLS CREEK DR", "lat": "36.151962", "lon": "-86.639318"}, {"parcel_id": "45639", "address": "4039 CEDAR CIR", "lat": "36.215602", "lon": "-86.842014"}, {"parcel_id": "45640", "address": "4037 CEDAR CIR", "lat": "36.215362", "lon": "-86.842073"}, {"parcel_id": "474863", "address": "", "lat": "", "lon": ""}, {"parcel_id": "474864", "address": "", "lat": "", "lon": ""}, {"parcel_id": "474865", "address": "", "lat": "", "lon": ""}, {"parcel_id": "475214", "address": "", "lat": "", "lon": ""}, {"parcel_id": "475215", "address": "", "lat": "", "lon": ""}, {"parcel_id": "475216", "address": "", "lat": "", "lon": ""}, {"parcel_id": "475217", "address": "", "lat": "", "lon": ""}, {"parcel_id": "475218", "address": "", "lat": "", "lon": ""}, {"parcel_id": "475219", "address": "", "lat": "", "lon": ""}, {"parcel_id": "477554", "address": "2353 COOPER TER", "lat": "36.200045", "lon": "-86.703037"}, {"parcel_id": "477558", "address": "2360 COOPER TER", "lat": "36.199421", "lon": "-86.703311"}, {"parcel_id": "80591", "address": "", "lat": "", "lon": ""}, {"parcel_id": "80594", "address": "2364 COOPER TER", "lat": "36.199372", "lon": "-86.703049"}, {"parcel_id": "80595", "address": "", "lat": "", "lon": ""}]}