{"cluster_id": 482, "name": "RIGHTWAY PROPERTIES PLUS II LLC", "entity_count": 3, "parcel_count": 21, "total_market_value": 3661500, "total_acres": 1.2, "owner_names": ["RIGHTWAY PROPERTIES PLUS II LLC", "RIGHTWAY PROPERTIES PLUS LLC", "RIGHTWAY REAL ESTATE LLC"], "registered_agents": [], "principal_offices": [], "primary_sos_status": "", "primary_foreign_state": "", "brand": "", "opencorporates": "https://opencorporates.com/companies?q=RIGHTWAY+PROPERTIES+PLUS+II+LLC&utf8=%E2%9C%93", "primary_type": "", "portfolio": {"n_parcels_with_acs": 15, "median_income": 61616, "median_home_value": 467600, "pct_renter": 55, "pct_poverty": null, "pct_vacant": 5, "pct_black": 67, "pct_white": 23, "pct_hispanic": 1, "pct_asian": 2}, "related": [{"owner": "RIGHTWAY REAL ESTATE LLC", "parcels": 8, "via": "mailing address"}, {"owner": "RIGHTWAY PROPERTIES PLUS LLC", "parcels": 2, "via": "mailing address"}], "parcels": [{"parcel_id": "116469", "address": "0 39TH AVE N", "lat": "36.164453", "lon": "-86.834327"}, {"parcel_id": "122448", "address": "914 33RD AVE N", "lat": "36.161561", "lon": "-86.825275"}, {"parcel_id": "122449", "address": "0 33RD AVE N", "lat": "36.161426", "lon": "-86.825242"}, {"parcel_id": "122450", "address": "912 33RD AVE N", "lat": "36.161325", "lon": "-86.825218"}, {"parcel_id": "122566", "address": "", "lat": "", "lon": ""}, {"parcel_id": "122567", "address": "912 32ND AVE N", "lat": "36.161355", "lon": "-86.823947", "sale_price": null, "sale_date": "", "market_value": null, "beds": null, "bath": 0.0, "sqft": null, "year_built": "", "acres": null}, {"parcel_id": "122574", "address": "905 31ST AVE N", "lat": "36.161042", "lon": "-86.823285", "sale_price": -1.0, "sale_date": "", "market_value": 284900.0, "beds": 3.0, "bath": 1.0, "sqft": 1058.0, "year_built": "1941", "acres": 0.09}, {"parcel_id": "123057", "address": "3124 TORBETT ST", "lat": "36.15858", "lon": "-86.823302"}, {"parcel_id": "123666", "address": "908 31ST AVE N", "lat": "36.161484", "lon": "-86.822706"}, {"parcel_id": "150028", "address": "206 CHEROKEE RD", "lat": "36.132777", "lon": "-86.839083", "sale_price": 1800000.0, "sale_date": "7 May 2026", "market_value": 1471900.0, "beds": 5.0, "bath": 3.5, "sqft": 3626.0, "year_built": "2010", "acres": 0.18}, {"parcel_id": "150269", "address": "3902 ABERDEEN RD", "lat": "36.136265", "lon": "-86.834635", "sale_price": -1.0, "sale_date": "", "market_value": 1062700.0, "beds": 4.0, "bath": 3.0, "sqft": 2428.5, "year_built": "1950", "acres": 0.35}, {"parcel_id": "439872", "address": "", "lat": "", "lon": ""}, {"parcel_id": "443112", "address": "912B 32ND AVE N", "lat": "36.161422", "lon": "-86.823964"}, {"parcel_id": "477542", "address": "903 31ST AVE N", "lat": "36.160968", "lon": "-86.823266"}, {"parcel_id": "477902", "address": "", "lat": "", "lon": ""}, {"parcel_id": "477903", "address": "", "lat": "", "lon": ""}, {"parcel_id": "477904", "address": "", "lat": "", "lon": ""}, {"parcel_id": "477905", "address": "", "lat": "", "lon": ""}, {"parcel_id": "48275", "address": "4805 TRUMPET CIR", "lat": "36.226874", "lon": "-86.824196", "sale_price": -1.0, "sale_date": "", "market_value": 264900.0, "beds": 3.0, "bath": 1.0, "sqft": 1050.0, "year_built": "1990", "acres": 0.27}, {"parcel_id": "66743", "address": "2909 MIKE SHIELDS CT", "lat": "36.210078", "lon": "-86.819084", "sale_price": -1.0, "sale_date": "", "market_value": 288500.0, "beds": 2.0, "bath": 1.5, "sqft": 1172.0, "year_built": "1986", "acres": 0.12}, {"parcel_id": "66758", "address": "2912 MIKE SHIELDS CT", "lat": "36.210596", "lon": "-86.819068", "sale_price": -1.0, "sale_date": "", "market_value": 288600.0, "beds": 2.0, "bath": 1.0, "sqft": 1174.0, "year_built": "1986", "acres": 0.16}]}