{"cluster_id": 508, "name": "INDIAN CREEK HOMEOWNERS ASSOCIATION INC", "entity_count": 3, "parcel_count": 20, "total_market_value": 0, "total_acres": 0.0, "owner_names": ["INDIAN CREEK HOMEOWNERS ASSOCIATION INC", "TOWERING OAKS HOMEOWNERS ASSOCIATION INC", "TOWERING OAKS HOMEOWNERS ASSOCIATON INC"], "registered_agents": [], "principal_offices": [], "primary_sos_status": "", "primary_foreign_state": "", "brand": "", "opencorporates": "https://opencorporates.com/companies?q=INDIAN+CREEK+HOMEOWNERS+ASSOCIATION+INC&utf8=%E2%9C%93", "primary_type": "", "portfolio": {"n_parcels_with_acs": 20, "median_income": 133167, "median_home_value": 468590, "pct_renter": 12, "pct_poverty": null, "pct_vacant": 5, "pct_black": 24, "pct_white": 68, "pct_hispanic": 3, "pct_asian": 3}, "related": [{"owner": "TOWERING OAKS HOMEOWNERS ASSOCIATION INC", "parcels": 8, "via": "mailing address"}, {"owner": "TOWERING OAKS HOMEOWNERS ASSOCIATON INC", "parcels": 1, "via": "mailing address"}], "parcels": [{"parcel_id": "355859", "address": "217 STECOAH CT", "lat": "36.011735", "lon": "-86.685943"}, {"parcel_id": "355860", "address": "0 CULBERTSON RD", "lat": "36.012317", "lon": "-86.686509"}, {"parcel_id": "355861", "address": "7278 SANTEELAH WAY", "lat": "36.010286", "lon": "-86.684551"}, {"parcel_id": "355862", "address": "0 STECOAH ST", "lat": "36.0105", "lon": "-86.686851"}, {"parcel_id": "355863", "address": "0 CULBERTSON RD", "lat": "36.012117", "lon": "-86.684302"}, {"parcel_id": "358326", "address": "1461 STEWARTS FERRY PIKE", "lat": "36.145132", "lon": "-86.590916"}, {"parcel_id": "358327", "address": "0 CHANCE DR", "lat": "36.145982", "lon": "-86.590875"}, {"parcel_id": "358328", "address": "2044 TOWERING OAKS DR", "lat": "36.147797", "lon": "-86.589796"}, {"parcel_id": "358329", "address": "2520 JANALYN TRCE", "lat": "36.147204", "lon": "-86.588289"}, {"parcel_id": "358330", "address": "1473 STEWARTS FERRY PIKE", "lat": "36.14493", "lon": "-86.589315"}, {"parcel_id": "374295", "address": "7500 STECOAH ST", "lat": "36.010846", "lon": "-86.687243"}, {"parcel_id": "374296", "address": "7501 STECOAH ST", "lat": "36.010412", "lon": "-86.687123"}, {"parcel_id": "376343", "address": "0 CULBERTSON RD", "lat": "36.011135", "lon": "-86.688476"}, {"parcel_id": "376344", "address": "8265 TAPOCO LN", "lat": "36.008238", "lon": "-86.689949"}, {"parcel_id": "376345", "address": "0 CULBERTSON RD", "lat": "36.012314", "lon": "-86.687339"}, {"parcel_id": "401439", "address": "2929 CHERRYBARK CT", "lat": "36.149898", "lon": "-86.58989"}, {"parcel_id": "401440", "address": "0 JANALYN TRCE", "lat": "36.149386", "lon": "-86.587984"}, {"parcel_id": "401441", "address": "2901 B CHERRYBARK CT", "lat": "36.148452", "lon": "-86.589395"}, {"parcel_id": "401442", "address": "2901 C CHERRYBARK CT", "lat": "36.14855", "lon": "-86.590274"}, {"parcel_id": "408421", "address": "0 OCHOA LN", "lat": "36.009881", "lon": "-86.68656"}]}