{"cluster_id": 512, "name": "RED RIVER DEVELOPMENT LLC", "entity_count": 8, "parcel_count": 20, "total_market_value": 1349100, "total_acres": 0.4, "owner_names": ["O I C HOMES AT 1507 10TH AVE", "O I C HOMES AT 1624 PORTER AVENUE", "O I C HOMES AT 1912 HUTTON DRIVE", "O I C HOMES AT 503 CAMDEN DRIVE", "O I C HOMES AT 5303 INDIANA AVENUE", "OAK PROPERTY LLC", "RED RIVER DEVELOPMENT LLC", "RED RIVER DEVELOPMENT LLC KEAN RYLAN"], "registered_agents": [], "principal_offices": [], "primary_sos_status": "", "primary_foreign_state": "", "brand": "", "opencorporates": "https://opencorporates.com/companies?q=RED+RIVER+DEVELOPMENT+LLC&utf8=%E2%9C%93", "primary_type": "", "portfolio": {"n_parcels_with_acs": 6, "median_income": 101910, "median_home_value": 599000, "pct_renter": 49, "pct_poverty": null, "pct_vacant": 10, "pct_black": 15, "pct_white": 69, "pct_hispanic": 13, "pct_asian": 1}, "related": [{"owner": "OAK PROPERTY LLC", "parcels": 6, "via": "mailing address"}, {"owner": "O I C HOMES AT 5303 INDIANA AVENUE", "parcels": 1, "via": "mailing address"}, {"owner": "RED RIVER DEVELOPMENT LLC KEAN RYLAN", "parcels": 1, "via": "mailing address"}, {"owner": "O I C HOMES AT 1507 10TH AVE", "parcels": 1, "via": "mailing address"}, {"owner": "O I C HOMES AT 1912 HUTTON DRIVE", "parcels": 1, "via": "mailing address"}, {"owner": "O I C HOMES AT 503 CAMDEN DRIVE", "parcels": 1, "via": "mailing address"}, {"owner": "O I C HOMES AT 1624 PORTER AVENUE", "parcels": 1, "via": "mailing address"}], "parcels": [{"parcel_id": "117263", "address": "", "lat": "", "lon": ""}, {"parcel_id": "117432", "address": "", "lat": "", "lon": ""}, {"parcel_id": "117571", "address": "", "lat": "", "lon": ""}, {"parcel_id": "119631", "address": "", "lat": "", "lon": ""}, {"parcel_id": "119632", "address": "", "lat": "", "lon": ""}, {"parcel_id": "119739", "address": "", "lat": "", "lon": ""}, {"parcel_id": "119855", "address": "", "lat": "", "lon": ""}, {"parcel_id": "135411", "address": "1422 FULTON ST", "lat": "36.166826", "lon": "-86.745167", "sale_price": 1380000.0, "sale_date": "15 Apr 2026", "market_value": 664900.0, "beds": 4.0, "bath": 3.5, "sqft": 3082.0, "year_built": "2026", "acres": 0.2}, {"parcel_id": "151835", "address": "120 39TH AVE N", "lat": "36.142172", "lon": "-86.831161", "sale_price": 700000.0, "sale_date": "22 Apr 2022", "market_value": 684200.0, "beds": 5.0, "bath": 6.0, "sqft": 3906.0, "year_built": "2026", "acres": 0.18}, {"parcel_id": "168478", "address": "", "lat": "", "lon": ""}, {"parcel_id": "188534", "address": "", "lat": "", "lon": ""}, {"parcel_id": "407705", "address": "", "lat": "", "lon": ""}, {"parcel_id": "437582", "address": "2514B SHINKLE AVE", "lat": "36.197201", "lon": "-86.724241"}, {"parcel_id": "446387", "address": "5303C INDIANA AVE", "lat": "36.156047", "lon": "-86.851912"}, {"parcel_id": "446390", "address": "1912C HUTTON DR", "lat": "36.131873", "lon": "-86.750427"}, {"parcel_id": "449020", "address": "503 CAMDEN DR", "lat": "36.12502", "lon": "-86.758395"}, {"parcel_id": "451796", "address": "1507C 10TH AVE N", "lat": "36.176285", "lon": "-86.798091"}, {"parcel_id": "458477", "address": "", "lat": "", "lon": ""}, {"parcel_id": "473876", "address": "5210B GEORGIA AVE", "lat": "36.155686", "lon": "-86.851218"}, {"parcel_id": "79142", "address": "", "lat": "", "lon": ""}]}