{"cluster_id": 517, "name": "Z1 LLC 51ST AVENUE LLC", "entity_count": 1, "parcel_count": 20, "total_market_value": 0, "total_acres": 0.0, "owner_names": ["Z1 LLC 51ST AVENUE LLC"], "registered_agents": [], "principal_offices": [], "primary_sos_status": "", "primary_foreign_state": "", "brand": "", "opencorporates": "https://opencorporates.com/companies?q=Z1+LLC+51ST+AVENUE+LLC&utf8=%E2%9C%93", "primary_type": "", "portfolio": {"n_parcels_with_acs": 7, "median_income": 95019, "median_home_value": 503378, "pct_renter": 43, "pct_poverty": null, "pct_vacant": 15, "pct_black": 8, "pct_white": 71, "pct_hispanic": 12, "pct_asian": 6}, "related": [], "parcels": [{"parcel_id": "103422", "address": "", "lat": "", "lon": ""}, {"parcel_id": "104392", "address": "", "lat": "", "lon": ""}, {"parcel_id": "113900", "address": "", "lat": "", "lon": ""}, {"parcel_id": "115683", "address": "", "lat": "", "lon": ""}, {"parcel_id": "116496", "address": "", "lat": "", "lon": ""}, {"parcel_id": "116613", "address": "", "lat": "", "lon": ""}, {"parcel_id": "118283", "address": "", "lat": "", "lon": ""}, {"parcel_id": "147431", "address": "", "lat": "", "lon": ""}, {"parcel_id": "477172", "address": "", "lat": "", "lon": ""}, {"parcel_id": "477370", "address": "1037B MITCHELL RD", "lat": "36.185878", "lon": "-86.716916"}, {"parcel_id": "477429", "address": "4698 KENTUCKY AVE", "lat": "36.160265", "lon": "-86.843942"}, {"parcel_id": "477430", "address": "4700 KENTUCKY AVE", "lat": "36.160264", "lon": "-86.84401"}, {"parcel_id": "477432", "address": "489A SUNLINER DR", "lat": "36.152298", "lon": "-86.884865"}, {"parcel_id": "477433", "address": "489B SUNLINER DR", "lat": "36.15238", "lon": "-86.884802"}, {"parcel_id": "478997", "address": "6521 FIRESTONE CT", "lat": "36.144177", "lon": "-86.875274"}, {"parcel_id": "478998", "address": "6523 FIRESTONE CT", "lat": "36.144059", "lon": "-86.875185"}, {"parcel_id": "479343", "address": "806 NEWHALL DR", "lat": "36.181249", "lon": "-86.723812"}, {"parcel_id": "479344", "address": "808 NEWHALL DR", "lat": "36.181343", "lon": "-86.723799"}, {"parcel_id": "481810", "address": "", "lat": "", "lon": ""}, {"parcel_id": "481811", "address": "", "lat": "", "lon": ""}]}