{"cluster_id": 555, "name": "5118 MYRA DRIVE TRUST", "entity_count": 18, "parcel_count": 18, "total_market_value": 26813000, "total_acres": 8.4, "owner_names": ["1212 GOODLOE TRUST", "1303 STRATTON TRUST THE", "1709 MARTIN STREET TRUST", "200 MUIR AVENUE TRUST", "2205 WOODMONT BOULEVARD TRUST", "3707B WOODMONT BLVD TRUST", "3807 DARTMOUTH AVENUE TRUST", "3916A CROSS CREEK ROAD TRUST", "501 EAST IRIS TRUST", "5118 MYRA DRIVE TRUST", "926A GALE LANE TRUST", "BIG HORN DRIVE TRUST", "GILCHREST TRUST", "HILL TOP TRUST", "LEGACY PROPERTY TRUST THE", "PEACEFUL HEART TRUST", "TAMMYWOOD TRUST", "WOLFE JACK TRUST THE"], "registered_agents": [], "principal_offices": [], "primary_sos_status": "", "primary_foreign_state": "", "brand": "", "opencorporates": "https://opencorporates.com/companies?q=5118+MYRA+DRIVE+TRUST&utf8=%E2%9C%93", "primary_type": "", "portfolio": {"n_parcels_with_acs": 17, "median_income": 132533, "median_home_value": 776083, "pct_renter": 29, "pct_poverty": null, "pct_vacant": 7, "pct_black": 11, "pct_white": 79, "pct_hispanic": 6, "pct_asian": 3}, "related": [{"owner": "BIG HORN DRIVE TRUST", "parcels": 1, "via": "mailing address"}, {"owner": "200 MUIR AVENUE TRUST", "parcels": 1, "via": "mailing address"}, {"owner": "TAMMYWOOD TRUST", "parcels": 1, "via": "mailing address"}, {"owner": "3916A CROSS CREEK ROAD TRUST", "parcels": 1, "via": "mailing address"}, {"owner": "1303 STRATTON TRUST THE", "parcels": 1, "via": "mailing address"}, {"owner": "HILL TOP TRUST", "parcels": 1, "via": "mailing address"}, {"owner": "926A GALE LANE TRUST", "parcels": 1, "via": "mailing address"}, {"owner": "PEACEFUL HEART TRUST", "parcels": 1, "via": "mailing address"}, {"owner": "2205 WOODMONT BOULEVARD TRUST", "parcels": 1, "via": "mailing address"}, {"owner": "3707B WOODMONT BLVD TRUST", "parcels": 1, "via": "mailing address"}, {"owner": "LEGACY PROPERTY TRUST THE", "parcels": 1, "via": "mailing address"}, {"owner": "3807 DARTMOUTH AVENUE TRUST", "parcels": 1, "via": "mailing address"}, {"owner": "1709 MARTIN STREET TRUST", "parcels": 1, "via": "mailing address"}, {"owner": "WOLFE JACK TRUST THE", "parcels": 1, "via": "mailing address"}, {"owner": "GILCHREST TRUST", "parcels": 1, "via": "mailing address"}, {"owner": "1212 GOODLOE TRUST", "parcels": 1, "via": "mailing address"}, {"owner": "501 EAST IRIS TRUST", "parcels": 1, "via": "mailing address"}], "parcels": [{"parcel_id": "102566", "address": "1303 STRATTON AVE", "lat": "36.182717", "lon": "-86.745972", "sale_price": 952000.0, "sale_date": "21 Oct 2019", "market_value": 1332900.0, "beds": 4.0, "bath": 2.5, "sqft": 3513.35, "year_built": "2010", "acres": 0.2}, {"parcel_id": "165438", "address": "1709 MARTIN ST", "lat": "36.135085", "lon": "-86.770575", "sale_price": -1.0, "sale_date": "", "market_value": 549800.0, "beds": 3.0, "bath": 1.0, "sqft": 1026.0, "year_built": "1950", "acres": 0.23}, {"parcel_id": "179590", "address": "3807 DARTMOUTH AVE", "lat": "36.115087", "lon": "-86.837761", "sale_price": 805000.0, "sale_date": "2 Nov 2021", "market_value": 829500.0, "beds": 3.0, "bath": 2.5, "sqft": 2114.0, "year_built": "1985", "acres": 0.44}, {"parcel_id": "185019", "address": "2205 WOODMONT BLVD", "lat": "36.113681", "lon": "-86.81434", "sale_price": 2350000.0, "sale_date": "5 Nov 2020", "market_value": 3885100.0, "beds": 5.0, "bath": 5.0, "sqft": 5158.0, "year_built": "2005", "acres": 1.58}, {"parcel_id": "188599", "address": "501 E IRIS DR", "lat": "36.115524", "lon": "-86.76432", "sale_price": -1.0, "sale_date": "", "market_value": 2014100.0, "beds": null, "bath": 0.0, "sqft": 3465.0, "year_built": "2024", "acres": 0.16}, {"parcel_id": "202321", "address": "513 HOLT VALLEY RD", "lat": "36.088174", "lon": "-86.933308", "sale_price": 413000.0, "sale_date": "27 Oct 2020", "market_value": 545200.0, "beds": 3.0, "bath": 3.0, "sqft": 1735.0, "year_built": "2010", "acres": 0.27}, {"parcel_id": "209333", "address": "5618 HILLSBORO PIKE", "lat": "36.082161", "lon": "-86.833194", "sale_price": -1.0, "sale_date": "", "market_value": 3238800.0, "beds": 5.0, "bath": 6.0, "sqft": 5762.0, "year_built": "1990", "acres": 2.23}, {"parcel_id": "213372", "address": "1212 GOODLOE DR", "lat": "36.08284", "lon": "-86.806905", "sale_price": 1650000.0, "sale_date": "21 Aug 2017", "market_value": 3509100.0, "beds": 4.0, "bath": 4.5, "sqft": 5619.0, "year_built": "2016", "acres": 0.93}, {"parcel_id": "239892", "address": "1108 NORFLEET DR", "lat": "36.068017", "lon": "-86.791351", "sale_price": 2850000.0, "sale_date": "28 Oct 2022", "market_value": 2698100.0, "beds": 4.0, "bath": 4.5, "sqft": 3240.0, "year_built": "2010", "acres": 2.37}, {"parcel_id": "364015", "address": "738 WEDGEWOOD PARK", "lat": "36.135157", "lon": "-86.777598", "sale_price": 389000.0, "sale_date": "26 Feb 2018", "market_value": 572500.0, "beds": 2.0, "bath": 2.5, "sqft": 1786.0, "year_built": "2008", "acres": null}, {"parcel_id": "417486", "address": "5118 MYRA DR", "lat": "36.181706", "lon": "-86.592997", "sale_price": 470000.0, "sale_date": "21 Nov 2022", "market_value": 479400.0, "beds": 3.0, "bath": 2.5, "sqft": 2111.5, "year_built": "2017", "acres": null}, {"parcel_id": "431053", "address": "200 MUIR AVE", "lat": "35.98933", "lon": "-86.680074", "sale_price": 469950.0, "sale_date": "1 May 2025", "market_value": 420800.0, "beds": 3.0, "bath": 3.5, "sqft": 1947.0, "year_built": "2018", "acres": null}, {"parcel_id": "435316", "address": "1122B GLENVIEW DR", "lat": "36.163766", "lon": "-86.750102", "sale_price": 732000.0, "sale_date": "15 Sep 2020", "market_value": 1046800.0, "beds": 4.0, "bath": 3.0, "sqft": 2830.0, "year_built": "2020", "acres": null}, {"parcel_id": "435395", "address": "926A GALE LN", "lat": "36.117787", "lon": "-86.782862", "sale_price": 949900.0, "sale_date": "1 May 2019", "market_value": 1701700.0, "beds": 4.0, "bath": 5.0, "sqft": 3958.0, "year_built": "2018", "acres": null}, {"parcel_id": "442229", "address": "4871 BIG HORN DR", "lat": "36.220185", "lon": "-86.586929", "sale_price": 351500.0, "sale_date": "3 Sep 2020", "market_value": 429800.0, "beds": 3.0, "bath": 2.5, "sqft": 1766.0, "year_built": "2020", "acres": null}, {"parcel_id": "452262", "address": "3916A CROSS CREEK RD", "lat": "36.105323", "lon": "-86.82162", "sale_price": 1850000.0, "sale_date": "21 Feb 2024", "market_value": 1892900.0, "beds": 4.0, "bath": 4.5, "sqft": 4017.0, "year_built": "2022", "acres": null}, {"parcel_id": "453637", "address": "3707B WOODMONT BLVD", "lat": "36.115759", "lon": "-86.83354", "sale_price": 1800000.0, "sale_date": "31 May 2024", "market_value": 1666500.0, "beds": 4.0, "bath": 4.0, "sqft": 3803.0, "year_built": "2023", "acres": null}, {"parcel_id": "464464", "address": "1913B DELTA AVE", "lat": "36.183918", "lon": "-86.802081"}]}