{"cluster_id": 563, "name": "CIARA PROPERTIES", "entity_count": 4, "parcel_count": 18, "total_market_value": 4994300, "total_acres": 20.2, "owner_names": ["CIARA PROPERTIES", "CIARA PROPERTIES GP", "CIARA PROPERTIES LP", "CIARA PROPERTIES LTD"], "registered_agents": [], "principal_offices": [], "primary_sos_status": "", "primary_foreign_state": "", "brand": "", "opencorporates": "https://opencorporates.com/companies?q=CIARA+PROPERTIES&utf8=%E2%9C%93", "primary_type": "", "portfolio": {"n_parcels_with_acs": 15, "median_income": 89520, "median_home_value": 448289, "pct_renter": 31, "pct_poverty": null, "pct_vacant": 10, "pct_black": 21, "pct_white": 66, "pct_hispanic": 10, "pct_asian": 1}, "related": [{"owner": "CIARA PROPERTIES LTD", "parcels": 5, "via": "mailing address"}, {"owner": "CIARA PROPERTIES GP", "parcels": 2, "via": "mailing address"}, {"owner": "CIARA PROPERTIES LP", "parcels": 1, "via": "mailing address"}], "parcels": [{"parcel_id": "121215", "address": "234 ORLANDO AVE", "lat": "36.148192", "lon": "-86.856103"}, {"parcel_id": "139759", "address": "2148 SANBORN DR", "lat": "36.153704", "lon": "-86.69278", "sale_price": 170000.0, "sale_date": "10 Oct 2018", "market_value": 246100.0, "beds": 2.0, "bath": 1.0, "sqft": 1025.0, "year_built": "1956", "acres": 0.59}, {"parcel_id": "140648", "address": "3241 CLOVERWOOD DR", "lat": "36.156881", "lon": "-86.639096", "sale_price": -1.0, "sale_date": "", "market_value": 364700.0, "beds": 2.0, "bath": 2.0, "sqft": 1050.0, "year_built": "1963", "acres": 0.29}, {"parcel_id": "17210", "address": "6305 CARNEY RD", "lat": "36.27361", "lon": "-86.877315", "sale_price": -1.0, "sale_date": "", "market_value": 143200.0, "beds": 2.0, "bath": 1.0, "sqft": 812.0, "year_built": "1948", "acres": 1.02}, {"parcel_id": "196345", "address": "0 MCGAVOCK PIKE", "lat": "36.109473", "lon": "-86.704082"}, {"parcel_id": "196726", "address": "3455 MCGAVOCK PIKE", "lat": "36.108448", "lon": "-86.704221", "sale_price": -1.0, "sale_date": "", "market_value": 410700.0, "beds": 4.0, "bath": 3.0, "sqft": 2870.05, "year_built": "1920", "acres": 1.9}, {"parcel_id": "228738", "address": "6049 S MOUNT JULIET RD", "lat": "36.099239", "lon": "-86.530772", "sale_price": -1.0, "sale_date": "", "market_value": 469500.0, "beds": 3.0, "bath": 2.0, "sqft": 3130.0, "year_built": "1984", "acres": 3.1}, {"parcel_id": "300248", "address": "934 CURREY RD # 1", "lat": "36.108174", "lon": "-86.706177", "sale_price": -1.0, "sale_date": "", "market_value": 912900.0, "beds": 2.0, "bath": 1.0, "sqft": 3338.0, "year_built": "1948", "acres": null}, {"parcel_id": "34567", "address": "405 CHADWELL DR", "lat": "36.254462", "lon": "-86.72221", "sale_price": 185500.0, "sale_date": "30 Jul 2021", "market_value": 268800.0, "beds": 3.0, "bath": 2.0, "sqft": 990.0, "year_built": "1953", "acres": 0.27}, {"parcel_id": "3638", "address": "0 STAGNER RD", "lat": "36.326097", "lon": "-86.876502"}, {"parcel_id": "3857", "address": "3494 STAGNER RD", "lat": "36.327897", "lon": "-86.879185", "sale_price": -1.0, "sale_date": "", "market_value": 351100.0, "beds": 3.0, "bath": 3.0, "sqft": 1958.0, "year_built": "1981", "acres": 5.12}, {"parcel_id": "3995", "address": "0 STAGNER RD", "lat": "36.32737", "lon": "-86.877588"}, {"parcel_id": "42421", "address": "2205 ELLIOTT DR", "lat": "36.248884", "lon": "-86.640572"}, {"parcel_id": "42422", "address": "2203 ELLIOTT DR", "lat": "36.248973", "lon": "-86.640688", "sale_price": -1.0, "sale_date": "", "market_value": 367000.0, "beds": 0.0, "bath": 0.0, "sqft": 6154.0, "year_built": "1975", "acres": 0.11}, {"parcel_id": "433371", "address": "4643 BRICK CHURCH PIKE", "lat": "36.304445", "lon": "-86.783024", "sale_price": -1.0, "sale_date": "", "market_value": 622900.0, "beds": 3.0, "bath": 3.0, "sqft": 2424.0, "year_built": "2015", "acres": null}, {"parcel_id": "43815", "address": "4421 BULL RUN RD", "lat": "36.232672", "lon": "-86.95648", "sale_price": -1.0, "sale_date": "", "market_value": 223900.0, "beds": 3.0, "bath": 1.0, "sqft": 1536.0, "year_built": "1976", "acres": 4.13}, {"parcel_id": "4919", "address": "3490 STAGNER RD", "lat": "36.326396", "lon": "-86.877595", "sale_price": -1.0, "sale_date": "", "market_value": 326100.0, "beds": 3.0, "bath": 1.0, "sqft": 2224.0, "year_built": "1965", "acres": 3.32}, {"parcel_id": "77383", "address": "907 CAHAL AVE", "lat": "36.198308", "lon": "-86.748093", "sale_price": -1.0, "sale_date": "", "market_value": 287400.0, "beds": 3.0, "bath": 1.0, "sqft": 823.0, "year_built": "1970", "acres": 0.39}]}