{"cluster_id": 580, "name": "LAGASSE FAMILY PARTNERS LLC", "entity_count": 6, "parcel_count": 18, "total_market_value": 229518800, "total_acres": 15.0, "owner_names": ["LAGASSE COMMERCIAL INVESTMENTS LLC", "LAGASSE FAMILY PARTNERS LLC", "LAGASSE LEGACY PROJECT LLC", "LAGASSE MARC TRUST", "LAGASSE MARC TRUST THE", "MCKEEHAN LLC"], "registered_agents": [], "principal_offices": [], "primary_sos_status": "", "primary_foreign_state": "", "brand": "", "opencorporates": "https://opencorporates.com/companies?q=LAGASSE+FAMILY+PARTNERS+LLC&utf8=%E2%9C%93", "primary_type": "", "portfolio": {"n_parcels_with_acs": 12, "median_income": 102441, "median_home_value": 855622, "pct_renter": 56, "pct_poverty": null, "pct_vacant": 18, "pct_black": 13, "pct_white": 68, "pct_hispanic": 10, "pct_asian": 6}, "related": [{"owner": "LAGASSE COMMERCIAL INVESTMENTS LLC", "parcels": 4, "via": "mailing address"}, {"owner": "LAGASSE LEGACY PROJECT LLC", "parcels": 2, "via": "mailing address"}, {"owner": "LAGASSE MARC TRUST", "parcels": 2, "via": "mailing address"}, {"owner": "MCKEEHAN LLC", "parcels": 1, "via": "mailing address"}, {"owner": "LAGASSE MARC TRUST THE", "parcels": 1, "via": "mailing address"}], "parcels": [{"parcel_id": "128981", "address": "113 19TH AVE N", "lat": "36.152739", "lon": "-86.798062"}, {"parcel_id": "128983", "address": "1904 W END AVE", "lat": "36.15244", "lon": "-86.797944", "sale_price": -1.0, "sale_date": "", "market_value": 11950100.0, "beds": null, "bath": 0.0, "sqft": 5259.0, "year_built": "2013", "acres": 0.53}, {"parcel_id": "129598", "address": "", "lat": "", "lon": ""}, {"parcel_id": "129599", "address": "", "lat": "", "lon": ""}, {"parcel_id": "129600", "address": "", "lat": "", "lon": ""}, {"parcel_id": "129601", "address": "", "lat": "", "lon": ""}, {"parcel_id": "129602", "address": "", "lat": "", "lon": ""}, {"parcel_id": "129603", "address": "", "lat": "", "lon": ""}, {"parcel_id": "149701", "address": "36 WHITE BRIDGE PIKE", "lat": "36.128705", "lon": "-86.85242", "sale_price": -1.0, "sale_date": "", "market_value": 6717400.0, "beds": null, "bath": 0.0, "sqft": 3553.0, "year_built": "2023", "acres": 1.13}, {"parcel_id": "151435", "address": "4102 ABERDEEN RD", "lat": "36.137197", "lon": "-86.838204", "sale_price": -1.0, "sale_date": "", "market_value": 1372900.0, "beds": 3.0, "bath": 3.0, "sqft": 3143.75, "year_built": "1975", "acres": 0.66}, {"parcel_id": "152001", "address": "2809 WEST END AVE", "lat": "36.144741", "lon": "-86.812228", "sale_price": -1.0, "sale_date": "", "market_value": 4396300.0, "beds": 0.0, "bath": 0.0, "sqft": 5618.0, "year_built": "1970", "acres": 0.22}, {"parcel_id": "153868", "address": "212 21ST AVE S", "lat": "36.147548", "lon": "-86.798978", "sale_price": -1.0, "sale_date": "", "market_value": 4128700.0, "beds": 0.0, "bath": 0.0, "sqft": 5356.0, "year_built": "2002", "acres": 0.16}, {"parcel_id": "178916", "address": "105 BELLE MEADE BLVD", "lat": "36.117968", "lon": "-86.855788", "sale_price": -1.0, "sale_date": "", "market_value": 7567300.0, "beds": 6.0, "bath": 7.0, "sqft": 7577.0, "year_built": "1980", "acres": 6.7}, {"parcel_id": "279928", "address": "100 EASTPARK DR", "lat": "36.037008", "lon": "-86.790407", "sale_price": -1.0, "sale_date": "", "market_value": 4198700.0, "beds": 0.0, "bath": 0.0, "sqft": 8424.0, "year_built": "2015", "acres": 1.21}, {"parcel_id": "283231", "address": "100 FRANKLIN RD", "lat": "36.036531", "lon": "-86.786579", "sale_price": 2700000.0, "sale_date": "11 May 2018", "market_value": 2664000.0, "beds": 0.0, "bath": 0.0, "sqft": 0.0, "year_built": "2005", "acres": 0.58}, {"parcel_id": "405807", "address": "200 21ST AVE S", "lat": "36.148318", "lon": "-86.79872", "sale_price": -1.0, "sale_date": "", "market_value": 170582000.0, "beds": null, "bath": 0.0, "sqft": 780427.0, "year_built": "2016", "acres": null}, {"parcel_id": "68819", "address": "160 ATHENS WAY", "lat": "36.196654", "lon": "-86.798359", "sale_price": -1.0, "sale_date": "", "market_value": 13817500.0, "beds": 0.0, "bath": 0.0, "sqft": 67340.0, "year_built": "2008", "acres": 3.32}, {"parcel_id": "74342", "address": "3001 GALLATIN PIKE", "lat": "36.203841", "lon": "-86.738779", "sale_price": 1175000.0, "sale_date": "22 Dec 2020", "market_value": 2123900.0, "beds": 0.0, "bath": 0.0, "sqft": 742.0, "year_built": "2020", "acres": 0.46}]}