{"cluster_id": 583, "name": "SKY HOUSES INC", "entity_count": 2, "parcel_count": 18, "total_market_value": 1216200, "total_acres": 0.0, "owner_names": ["LENOX GROVE LLC", "SKY HOUSES INC"], "registered_agents": [], "principal_offices": [], "primary_sos_status": "", "primary_foreign_state": "", "brand": "", "opencorporates": "https://opencorporates.com/companies?q=SKY+HOUSES+INC&utf8=%E2%9C%93", "primary_type": "", "portfolio": {"n_parcels_with_acs": 7, "median_income": 27476, "median_home_value": 321943, "pct_renter": 56, "pct_poverty": null, "pct_vacant": 9, "pct_black": 31, "pct_white": 26, "pct_hispanic": 23, "pct_asian": 13}, "related": [{"owner": "LENOX GROVE LLC", "parcels": 1, "via": "mailing address"}], "parcels": [{"parcel_id": "135247", "address": "", "lat": "", "lon": ""}, {"parcel_id": "135482", "address": "", "lat": "", "lon": ""}, {"parcel_id": "244133", "address": "", "lat": "", "lon": ""}, {"parcel_id": "244154", "address": "", "lat": "", "lon": ""}, {"parcel_id": "244373", "address": "", "lat": "", "lon": ""}, {"parcel_id": "288368", "address": "6220 NOLENSVILLE PIKE", "lat": "36.02099", "lon": "-86.709209"}, {"parcel_id": "446833", "address": "132A FAIN ST", "lat": "36.151741", "lon": "-86.754705", "sale_price": -1.0, "sale_date": "", "market_value": 608100.0, "beds": 4.0, "bath": 3.0, "sqft": 2397.0, "year_built": "2020", "acres": null}, {"parcel_id": "446834", "address": "132B FAIN ST", "lat": "36.151735", "lon": "-86.75463", "sale_price": -1.0, "sale_date": "", "market_value": 608100.0, "beds": 4.0, "bath": 3.0, "sqft": 2397.0, "year_built": "2020", "acres": null}, {"parcel_id": "447572", "address": "1125 LAWRENCE AVE", "lat": "36.278056", "lon": "-86.703616"}, {"parcel_id": "450731", "address": "", "lat": "", "lon": ""}, {"parcel_id": "450732", "address": "", "lat": "", "lon": ""}, {"parcel_id": "458215", "address": "", "lat": "", "lon": ""}, {"parcel_id": "458216", "address": "", "lat": "", "lon": ""}, {"parcel_id": "462883", "address": "", "lat": "", "lon": ""}, {"parcel_id": "462884", "address": "", "lat": "", "lon": ""}, {"parcel_id": "465659", "address": "4349 GOINS RD", "lat": "36.073564", "lon": "-86.721358"}, {"parcel_id": "465913", "address": "4325 OLD GOINS RD", "lat": "36.073076", "lon": "-86.721955"}, {"parcel_id": "465916", "address": "4329 OLD GOINS RD", "lat": "36.073042", "lon": "-86.721746"}]}