{"cluster_id": 604, "name": "AMERICAN EAGLE CONSTRUCTION LLC", "entity_count": 15, "parcel_count": 17, "total_market_value": 0, "total_acres": 0.0, "owner_names": ["AMERICAN EAGLE CONSTRUCTION LLC", "MOMO REAL ESTATE INVEST INC AMERICAN EAGLE CONST", "MOMO REAL ESTATE INVESTMENT INC ET AL", "O I C HOMES AT 1124 SHARP AVENUE AM", "O I C HOMES AT 1525 ARTHUR AVENUE", "O I C HOMES AT 1609 9TH AVENUE NORTH", "O I C HOMES AT 1712 A B SIMPKINS ST", "O I C HOMES AT 1829 9TH AVENUE NORTH", "O I C HOMES AT 2116 BURNS STREET", "O I C HOMES AT 2118 BURNS", "O I C HOMES AT 2120 BURNS STREET", "O I C HOMES AT 2639 PENNINGTON AVENUE", "O I C HOMES AT 413 35TH AVENUE NORTH", "O I C HOMES AT 5304 PENNSYLVANIA AVENUE", "O I C HOMES AT 5410 CALIFORNIA AVENUE"], "registered_agents": [], "principal_offices": [], "primary_sos_status": "", "primary_foreign_state": "", "brand": "", "opencorporates": "https://opencorporates.com/companies?q=AMERICAN+EAGLE+CONSTRUCTION+LLC&utf8=%E2%9C%93", "primary_type": "", "portfolio": {"n_parcels_with_acs": 13, "median_income": 95747, "median_home_value": 549531, "pct_renter": 41, "pct_poverty": null, "pct_vacant": 4, "pct_black": 29, "pct_white": 59, "pct_hispanic": 5, "pct_asian": 2}, "related": [{"owner": "O I C HOMES AT 1124 SHARP AVENUE AM", "parcels": 1, "via": "mailing address"}, {"owner": "O I C HOMES AT 1712 A B SIMPKINS ST", "parcels": 1, "via": "mailing address"}, {"owner": "O I C HOMES AT 5410 CALIFORNIA AVENUE", "parcels": 1, "via": "mailing address"}, {"owner": "O I C HOMES AT 1829 9TH AVENUE NORTH", "parcels": 1, "via": "mailing address"}, {"owner": "O I C HOMES AT 1609 9TH AVENUE NORTH", "parcels": 1, "via": "mailing address"}, {"owner": "O I C HOMES AT 413 35TH AVENUE NORTH", "parcels": 1, "via": "mailing address"}, {"owner": "O I C HOMES AT 2120 BURNS STREET", "parcels": 1, "via": "mailing address"}, {"owner": "MOMO REAL ESTATE INVESTMENT INC ET AL", "parcels": 1, "via": "mailing address"}, {"owner": "MOMO REAL ESTATE INVEST INC AMERICAN EAGLE CONST", "parcels": 1, "via": "mailing address"}, {"owner": "O I C HOMES AT 5304 PENNSYLVANIA AVENUE", "parcels": 1, "via": "mailing address"}, {"owner": "O I C HOMES AT 2639 PENNINGTON AVENUE", "parcels": 1, "via": "mailing address"}, {"owner": "O I C HOMES AT 1525 ARTHUR AVENUE", "parcels": 1, "via": "mailing address"}, {"owner": "O I C HOMES AT 2116 BURNS STREET", "parcels": 1, "via": "mailing address"}, {"owner": "O I C HOMES AT 2118 BURNS", "parcels": 1, "via": "mailing address"}], "parcels": [{"parcel_id": "115974", "address": "", "lat": "", "lon": ""}, {"parcel_id": "117447", "address": "", "lat": "", "lon": ""}, {"parcel_id": "119055", "address": "", "lat": "", "lon": ""}, {"parcel_id": "119953", "address": "", "lat": "", "lon": ""}, {"parcel_id": "202112", "address": "7677 SAWYER BROWN RD", "lat": "36.099644", "lon": "-86.933086"}, {"parcel_id": "427147", "address": "5304C PENNSYLVANIA AVE", "lat": "36.163405", "lon": "-86.852477"}, {"parcel_id": "428564", "address": "5410 CALIFORNIA AVE", "lat": "36.164481", "lon": "-86.853867"}, {"parcel_id": "444059", "address": "413C 35TH AVE N", "lat": "36.153946", "lon": "-86.826814"}, {"parcel_id": "449489", "address": "1124C SHARPE AVE", "lat": "36.188418", "lon": "-86.74399"}, {"parcel_id": "451989", "address": "1609C 9TH AVE N", "lat": "36.178594", "lon": "-86.799398"}, {"parcel_id": "453006", "address": "2641B PENNINGTON AVE", "lat": "36.198462", "lon": "-86.730077"}, {"parcel_id": "453230", "address": "1525C ARTHUR AVE", "lat": "36.175957", "lon": "-86.799819"}, {"parcel_id": "461001", "address": "1829C 9TH AVE N", "lat": "36.182125", "lon": "-86.802725"}, {"parcel_id": "461232", "address": "1712C SIMPKINS ST", "lat": "36.185979", "lon": "-86.813422"}, {"parcel_id": "461942", "address": "2116C BURNS ST", "lat": "36.196598", "lon": "-86.729821"}, {"parcel_id": "461945", "address": "2118C BURNS ST", "lat": "36.196734", "lon": "-86.7298"}, {"parcel_id": "461948", "address": "2120C BURNS ST", "lat": "36.196872", "lon": "-86.729777"}]}