{"cluster_id": 623, "name": "KE HOLDINGS LLC", "entity_count": 3, "parcel_count": 17, "total_market_value": 8138500, "total_acres": 1.1, "owner_names": ["KE HOLDINGS LLC", "O I C HOMES AT 1019 MAPLEHURST AVENUE", "O I C HOMES AT 800 DEWEES AVENUE"], "registered_agents": ["RILEY & JACOBSON, PLC"], "principal_offices": ["128 Kenner Ave, Nashville, TN 37205"], "primary_sos_status": "", "primary_foreign_state": "", "brand": "", "opencorporates": "https://opencorporates.com/companies?q=KE+HOLDINGS+LLC&utf8=%E2%9C%93", "primary_type": "", "portfolio": {"n_parcels_with_acs": 9, "median_income": 143987, "median_home_value": 905700, "pct_renter": 29, "pct_poverty": null, "pct_vacant": 7, "pct_black": 6, "pct_white": 83, "pct_hispanic": 6, "pct_asian": 4}, "related": [{"owner": "O I C HOMES AT 1019 MAPLEHURST AVENUE", "parcels": 1, "via": "mailing address"}, {"owner": "O I C HOMES AT 800 DEWEES AVENUE", "parcels": 1, "via": "mailing address"}], "parcels": [{"parcel_id": "166426", "address": "929 BRADFORD AVE", "lat": "36.127528", "lon": "-86.785734", "sale_price": 2650000.0, "sale_date": "10 Apr 2026", "market_value": 2543600.0, "beds": 4.0, "bath": 3.5, "sqft": 4741.82, "year_built": "2015", "acres": 0.18}, {"parcel_id": "182749", "address": "1804 CEDAR LN", "lat": "36.121801", "lon": "-86.798338", "sale_price": 975000.0, "sale_date": "5 Mar 2026", "market_value": 823300.0, "beds": 3.0, "bath": 3.0, "sqft": 2195.0, "year_built": "1975", "acres": 0.22}, {"parcel_id": "188053", "address": "", "lat": "", "lon": ""}, {"parcel_id": "188885", "address": "", "lat": "", "lon": ""}, {"parcel_id": "188886", "address": "", "lat": "", "lon": ""}, {"parcel_id": "189607", "address": "2412 VAULX LN", "lat": "36.12515", "lon": "-86.781385", "sale_price": 575000.0, "sale_date": "4 Feb 2019", "market_value": 2942900.0, "beds": 5.0, "bath": 4.5, "sqft": 5325.6, "year_built": "2026", "acres": 0.51}, {"parcel_id": "190211", "address": "", "lat": "", "lon": ""}, {"parcel_id": "206143", "address": "", "lat": "", "lon": ""}, {"parcel_id": "210392", "address": "1119 WOODVALE DR", "lat": "36.101876", "lon": "-86.795508", "sale_price": 625000.0, "sale_date": "2 Feb 2026", "market_value": 524900.0, "beds": 2.0, "bath": 1.0, "sqft": 1056.0, "year_built": "1949", "acres": 0.22}, {"parcel_id": "213361", "address": "4707 GRANNY WHITE PIKE", "lat": "36.085867", "lon": "-86.805102", "sale_price": null, "sale_date": "", "market_value": null, "beds": null, "bath": 0.0, "sqft": null, "year_built": "", "acres": null}, {"parcel_id": "450293", "address": "798B DEWEES AVE", "lat": "36.122964", "lon": "-86.777475"}, {"parcel_id": "467633", "address": "1017 MAPLEHURST LN", "lat": "36.103674", "lon": "-86.792549"}, {"parcel_id": "467634", "address": "1019 MAPLEHURST LN", "lat": "36.103685", "lon": "-86.792667", "sale_price": -1.0, "sale_date": "", "market_value": 1303800.0, "beds": 3.0, "bath": 3.5, "sqft": 3335.0, "year_built": "2024", "acres": null}, {"parcel_id": "467635", "address": "1019C MAPLEHURST LN", "lat": "36.103726", "lon": "-86.792603"}, {"parcel_id": "92389", "address": "", "lat": "", "lon": ""}, {"parcel_id": "94961", "address": "", "lat": "", "lon": ""}, {"parcel_id": "95526", "address": "", "lat": "", "lon": ""}]}