{"cluster_id": 628, "name": "SOTO PROPERTIES LLC", "entity_count": 5, "parcel_count": 17, "total_market_value": 1688300, "total_acres": 1.5, "owner_names": ["O I C HOMES AT 527 ELAINE AVENUE", "O I C HOMES AT 919 WEDGEWOOD AVENUE", "SOTO PROPERTIES LLC", "SOTO PROPERTIES LLC FINEMAN JAMES A", "SRE MANAGEMENT LLC"], "registered_agents": [], "principal_offices": [], "primary_sos_status": "", "primary_foreign_state": "", "brand": "", "opencorporates": "https://opencorporates.com/companies?q=SOTO+PROPERTIES+LLC&utf8=%E2%9C%93", "primary_type": "", "portfolio": {"n_parcels_with_acs": 11, "median_income": 76848, "median_home_value": 470145, "pct_renter": 47, "pct_poverty": null, "pct_vacant": 11, "pct_black": 12, "pct_white": 69, "pct_hispanic": 12, "pct_asian": 4}, "related": [{"owner": "SOTO PROPERTIES LLC FINEMAN JAMES A", "parcels": 3, "via": "mailing address"}, {"owner": "O I C HOMES AT 919 WEDGEWOOD AVENUE", "parcels": 1, "via": "mailing address"}, {"owner": "SRE MANAGEMENT LLC", "parcels": 1, "via": "mailing address"}, {"owner": "O I C HOMES AT 527 ELAINE AVENUE", "parcels": 1, "via": "mailing address"}], "parcels": [{"parcel_id": "117856", "address": "", "lat": "", "lon": ""}, {"parcel_id": "141050", "address": "2810 BRANWOOD DR", "lat": "36.153559", "lon": "-86.6608", "sale_price": 235000.0, "sale_date": "25 Mar 2026", "market_value": 321000.0, "beds": 2.0, "bath": 2.0, "sqft": 1048.0, "year_built": "1958", "acres": 0.27}, {"parcel_id": "159847", "address": "2807 WESTWOOD AVE", "lat": "36.127086", "lon": "-86.813074", "sale_price": 400000.0, "sale_date": "2 Apr 2026", "market_value": 688400.0, "beds": 2.0, "bath": 1.0, "sqft": 1392.0, "year_built": "1960", "acres": 0.15}, {"parcel_id": "164373", "address": "", "lat": "", "lon": ""}, {"parcel_id": "276693", "address": "5412 VILLAGE WAY", "lat": "36.048011", "lon": "-86.73575", "sale_price": 510000.0, "sale_date": "14 May 2026", "market_value": 108500.0, "beds": 3.0, "bath": 2.5, "sqft": 1686.0, "year_built": "1987", "acres": 0.15}, {"parcel_id": "476689", "address": "", "lat": "", "lon": ""}, {"parcel_id": "476690", "address": "", "lat": "", "lon": ""}, {"parcel_id": "476691", "address": "", "lat": "", "lon": ""}, {"parcel_id": "476790", "address": "", "lat": "", "lon": ""}, {"parcel_id": "477562", "address": "919 WEDGEWOOD AVE", "lat": "36.134453", "lon": "-86.784224"}, {"parcel_id": "477973", "address": "527 ELAINE AVE", "lat": "36.155353", "lon": "-86.863868"}, {"parcel_id": "477974", "address": "529 ELAINE AVE", "lat": "36.155435", "lon": "-86.863856"}, {"parcel_id": "477975", "address": "529C ELAINE AVE", "lat": "36.155391", "lon": "-86.863842"}, {"parcel_id": "52520", "address": "3101 HILLSIDE RD", "lat": "36.229058", "lon": "-86.756086", "sale_price": 195000.0, "sale_date": "31 Oct 2024", "market_value": 194800.0, "beds": 2.0, "bath": 1.0, "sqft": 768.0, "year_built": "1951", "acres": 0.2}, {"parcel_id": "55706", "address": "3808 EDWARDS AVE", "lat": "36.218064", "lon": "-86.739884", "sale_price": 526000.0, "sale_date": "15 Apr 2026", "market_value": 137900.0, "beds": 3.0, "bath": 1.0, "sqft": 1000.0, "year_built": "2010", "acres": 0.34}, {"parcel_id": "82834", "address": "536 RALIEGH DR", "lat": "36.212587", "lon": "-86.590629", "sale_price": 250000.0, "sale_date": "23 Jan 2024", "market_value": 237700.0, "beds": 4.0, "bath": 2.0, "sqft": 1325.0, "year_built": "1995", "acres": 0.36}, {"parcel_id": "97963", "address": "849 W EASTLAND AVE", "lat": "36.185721", "lon": "-86.757804", "sale_price": null, "sale_date": "", "market_value": null, "beds": null, "bath": 0.0, "sqft": null, "year_built": "", "acres": null}]}