{"cluster_id": 636, "name": "SUPERVISORY SERVICES PARTNERSHIP", "entity_count": 1, "parcel_count": 17, "total_market_value": 33548300, "total_acres": 0.6, "owner_names": ["SUPERVISORY SERVICES PARTNERSHIP"], "registered_agents": [], "principal_offices": [], "primary_sos_status": "", "primary_foreign_state": "", "brand": "", "opencorporates": "https://opencorporates.com/companies?q=SUPERVISORY+SERVICES+PARTNERSHIP&utf8=%E2%9C%93", "primary_type": "", "portfolio": {"n_parcels_with_acs": 16, "median_income": 92375, "median_home_value": 676060, "pct_renter": 54, "pct_poverty": null, "pct_vacant": 9, "pct_black": 29, "pct_white": 57, "pct_hispanic": 10, "pct_asian": 5}, "related": [], "parcels": [{"parcel_id": "121869", "address": "1031 31ST AVE N", "lat": "36.165926", "lon": "-86.824456"}, {"parcel_id": "121971", "address": "1006 33RD AVE N", "lat": "36.163881", "lon": "-86.825828", "sale_price": 330000.0, "sale_date": "7 Dec 2023", "market_value": 356900.0, "beds": 3.0, "bath": 1.0, "sqft": 961.0, "year_built": "1990", "acres": 0.16}, {"parcel_id": "122129", "address": "2401 MEHARRY BLVD", "lat": "36.167217", "lon": "-86.812642", "sale_price": null, "sale_date": "", "market_value": null, "beds": null, "bath": 0.0, "sqft": null, "year_built": "", "acres": null}, {"parcel_id": "123182", "address": "2917 ALBION ST", "lat": "36.163712", "lon": "-86.821976", "sale_price": null, "sale_date": "", "market_value": null, "beds": null, "bath": 0.0, "sqft": null, "year_built": "", "acres": null}, {"parcel_id": "158018", "address": "3516 W END AVE", "lat": "36.135734", "lon": "-86.823659", "sale_price": 521250.0, "sale_date": "20 Sep 2013", "market_value": 647500.0, "beds": 4.0, "bath": 2.0, "sqft": 2358.525, "year_built": "1940", "acres": 0.22}, {"parcel_id": "159335", "address": "2524 SHARONDALE DR", "lat": "36.126412", "lon": "-86.816707", "sale_price": 550000.0, "sale_date": "1 Mar 2022", "market_value": 591200.0, "beds": 4.0, "bath": 2.5, "sqft": 1585.0, "year_built": "1960", "acres": 0.21}, {"parcel_id": "175716", "address": "0 OLD HICKORY BLVD", "lat": "36.105188", "lon": "-86.921511"}, {"parcel_id": "183325", "address": "", "lat": "", "lon": ""}, {"parcel_id": "283925", "address": "4440 WINTON DR", "lat": "36.055705", "lon": "-86.656286", "sale_price": 129900.0, "sale_date": "13 Dec 2013", "market_value": 272900.0, "beds": 3.0, "bath": 2.0, "sqft": 1356.75, "year_built": "2001", "acres": null}, {"parcel_id": "284875", "address": "5116 HIGHLANDER DR", "lat": "36.057286", "lon": "-86.657112", "sale_price": -1.0, "sale_date": "", "market_value": 365000.0, "beds": 3.0, "bath": 2.5, "sqft": 1595.0, "year_built": "2002", "acres": null}, {"parcel_id": "303022", "address": "555 CHURCH ST APT 2401", "lat": "36.162492", "lon": "-86.780995", "sale_price": 815000.0, "sale_date": "25 Sep 2023", "market_value": 814800.0, "beds": 3.0, "bath": 2.0, "sqft": 1352.0, "year_built": "2005", "acres": null}, {"parcel_id": "365805", "address": "1501 DEMONBREUN ST", "lat": "36.152796", "lon": "-86.788783", "sale_price": -1.0, "sale_date": "", "market_value": 30500000.0, "beds": 0.0, "bath": 0.0, "sqft": 0.0, "year_built": "1995", "acres": null}, {"parcel_id": "371032", "address": "0 DEMONBREUN ST", "lat": "36.152562", "lon": "-86.789234"}, {"parcel_id": "462434", "address": "709 LAMBERT DR", "lat": "36.078083", "lon": "-86.767731"}, {"parcel_id": "468549", "address": "1023 32ND AVE N", "lat": "36.164785", "lon": "-86.825462"}, {"parcel_id": "476674", "address": "2701A SHARONDALE CT", "lat": "36.121885", "lon": "-86.80945"}, {"parcel_id": "476675", "address": "2701B SHARONDALE CT", "lat": "36.121931", "lon": "-86.809678"}]}