{"cluster_id": 655, "name": "FISCHER FORD GROUP LLC", "entity_count": 1, "parcel_count": 16, "total_market_value": 0, "total_acres": 0.0, "owner_names": ["FISCHER FORD GROUP LLC"], "registered_agents": [], "principal_offices": [], "primary_sos_status": "", "primary_foreign_state": "", "brand": "", "opencorporates": "https://opencorporates.com/companies?q=FISCHER+FORD+GROUP+LLC&utf8=%E2%9C%93", "primary_type": "", "portfolio": {"n_parcels_with_acs": 8, "median_income": 78620, "median_home_value": 330400, "pct_renter": 31, "pct_poverty": null, "pct_vacant": 3, "pct_black": 40, "pct_white": 30, "pct_hispanic": 18, "pct_asian": 3}, "related": [], "parcels": [{"parcel_id": "142133", "address": "0 PRECIOUS DR", "lat": "36.149522", "lon": "-86.636706"}, {"parcel_id": "142134", "address": "0 PRECIOUS DR", "lat": "36.148799", "lon": "-86.634498"}, {"parcel_id": "142747", "address": "", "lat": "", "lon": ""}, {"parcel_id": "251190", "address": "", "lat": "", "lon": ""}, {"parcel_id": "278879", "address": "0 PORT JAMES CIR", "lat": "36.048693", "lon": "-86.585739"}, {"parcel_id": "278880", "address": "0 PORT JAMES CIR", "lat": "36.048951", "lon": "-86.586791"}, {"parcel_id": "278881", "address": "0 DUPREE POINT DR", "lat": "36.048824", "lon": "-86.584389"}, {"parcel_id": "278882", "address": "0 DUPREE POINT DR", "lat": "36.047785", "lon": "-86.584572"}, {"parcel_id": "279367", "address": "1988 PORT JAMES CIR", "lat": "36.050099", "lon": "-86.585985"}, {"parcel_id": "284102", "address": "", "lat": "", "lon": ""}, {"parcel_id": "284107", "address": "", "lat": "", "lon": ""}, {"parcel_id": "284108", "address": "", "lat": "", "lon": ""}, {"parcel_id": "284109", "address": "", "lat": "", "lon": ""}, {"parcel_id": "349855", "address": "3241 HAMILTON CHURCH RD", "lat": "36.063784", "lon": "-86.616518"}, {"parcel_id": "349856", "address": "6019 MT VIEW RD", "lat": "36.060728", "lon": "-86.613972"}, {"parcel_id": "350686", "address": "3247 HAMILTON CHURCH RD", "lat": "36.062728", "lon": "-86.615086"}]}