{"cluster_id": 667, "name": "MOSAIC PROPERTIES LLC", "entity_count": 1, "parcel_count": 16, "total_market_value": 4953000, "total_acres": 3.2, "owner_names": ["MOSAIC PROPERTIES LLC"], "registered_agents": [], "principal_offices": [], "primary_sos_status": "", "primary_foreign_state": "", "brand": "", "opencorporates": "https://opencorporates.com/companies?q=MOSAIC+PROPERTIES+LLC&utf8=%E2%9C%93", "primary_type": "", "portfolio": {"n_parcels_with_acs": 15, "median_income": 81489, "median_home_value": 471429, "pct_renter": 53, "pct_poverty": null, "pct_vacant": 15, "pct_black": 29, "pct_white": 46, "pct_hispanic": 19, "pct_asian": 2}, "related": [], "parcels": [{"parcel_id": "166584", "address": "2169 BRANSFORD AVE", "lat": "36.128519", "lon": "-86.767624", "sale_price": -1.0, "sale_date": "", "market_value": 436900.0, "beds": 3.0, "bath": 2.0, "sqft": 1209.0, "year_built": "2000", "acres": null}, {"parcel_id": "17773", "address": "118 WELWORTH ST", "lat": "36.281855", "lon": "-86.706448", "sale_price": -1.0, "sale_date": "", "market_value": 321200.0, "beds": 4.0, "bath": 2.0, "sqft": 1350.0, "year_built": "2007", "acres": 0.15}, {"parcel_id": "18004", "address": "112 MCKINLEY ST", "lat": "36.281045", "lon": "-86.706384", "sale_price": -1.0, "sale_date": "", "market_value": 169400.0, "beds": 1.0, "bath": 1.0, "sqft": 984.0, "year_built": "1960", "acres": 0.15}, {"parcel_id": "193323", "address": "322 VALERIA ST", "lat": "36.121632", "lon": "-86.747083", "sale_price": -1.0, "sale_date": "", "market_value": 325700.0, "beds": 3.0, "bath": 2.0, "sqft": 1228.0, "year_built": "1970", "acres": 0.17}, {"parcel_id": "194966", "address": "2707 MASHBURN RD", "lat": "36.111966", "lon": "-86.729939", "sale_price": -1.0, "sale_date": "", "market_value": 280400.0, "beds": 2.0, "bath": 1.0, "sqft": 1274.0, "year_built": "1950", "acres": 0.35}, {"parcel_id": "197417", "address": "304 MORTON AVE", "lat": "36.106568", "lon": "-86.740505", "sale_price": -1.0, "sale_date": "", "market_value": 415900.0, "beds": 3.0, "bath": 2.0, "sqft": 1322.0, "year_built": "1941", "acres": 0.4}, {"parcel_id": "213829", "address": "421 PATTERSON ST", "lat": "36.102595", "lon": "-86.743546", "sale_price": -1.0, "sale_date": "", "market_value": 285100.0, "beds": 2.0, "bath": 1.0, "sqft": 1100.0, "year_built": "1970", "acres": 0.18}, {"parcel_id": "216337", "address": "516 RAYMOND ST", "lat": "36.099396", "lon": "-86.744798", "sale_price": -1.0, "sale_date": "", "market_value": 267700.0, "beds": 2.0, "bath": 1.0, "sqft": 1008.0, "year_built": "1950", "acres": 0.17}, {"parcel_id": "48358", "address": "4946 BUENA VISTA PIKE", "lat": "36.232022", "lon": "-86.824558", "sale_price": -1.0, "sale_date": "", "market_value": 240400.0, "beds": 4.0, "bath": 2.0, "sqft": 1480.0, "year_built": "1967", "acres": 0.51}, {"parcel_id": "73877", "address": "1208 STAINBACK AVE", "lat": "36.192621", "lon": "-86.765108", "sale_price": -1.0, "sale_date": "", "market_value": 444200.0, "beds": 3.0, "bath": 1.0, "sqft": 994.0, "year_built": "1950", "acres": 0.18}, {"parcel_id": "90819", "address": "2105 23RD AVE N", "lat": "36.183564", "lon": "-86.814577", "sale_price": -1.0, "sale_date": "", "market_value": 270500.0, "beds": 1.0, "bath": 1.0, "sqft": 1507.0, "year_built": "1910", "acres": 0.19}, {"parcel_id": "91867", "address": "1813 10TH AVE N", "lat": "36.181311", "lon": "-86.803804", "sale_price": -1.0, "sale_date": "", "market_value": 235300.0, "beds": 3.0, "bath": 1.0, "sqft": 1290.0, "year_built": "1930", "acres": 0.15}, {"parcel_id": "93147", "address": "1636 DR DB TODD JR BLVD", "lat": "36.175863", "lon": "-86.808984", "sale_price": -1.0, "sale_date": "", "market_value": 165100.0, "beds": 2.0, "bath": 1.5, "sqft": 1231.0, "year_built": "1925", "acres": 0.11}, {"parcel_id": "93200", "address": "1919 11TH AVE N", "lat": "36.183724", "lon": "-86.806247", "sale_price": -1.0, "sale_date": "", "market_value": 226100.0, "beds": 3.0, "bath": 1.0, "sqft": 1044.0, "year_built": "1920", "acres": 0.17}, {"parcel_id": "93945", "address": "1717 UNDERWOOD ST", "lat": "36.173407", "lon": "-86.806804", "sale_price": -1.0, "sale_date": "", "market_value": 247300.0, "beds": 2.0, "bath": 1.5, "sqft": 1334.0, "year_built": "1945", "acres": 0.18}, {"parcel_id": "97029", "address": "1017 LISCHEY AVE", "lat": "36.189728", "lon": "-86.763549", "sale_price": -1.0, "sale_date": "", "market_value": 621800.0, "beds": 3.0, "bath": 2.0, "sqft": 1652.0, "year_built": "1960", "acres": 0.18}]}