{"cluster_id": 672, "name": "RENT IT HOLDINGS LLC", "entity_count": 1, "parcel_count": 16, "total_market_value": 4614500, "total_acres": 3.3, "owner_names": ["RENT IT HOLDINGS LLC"], "registered_agents": [], "principal_offices": [], "primary_sos_status": "", "primary_foreign_state": "", "brand": "", "opencorporates": "https://opencorporates.com/companies?q=RENT+IT+HOLDINGS+LLC&utf8=%E2%9C%93", "primary_type": "", "portfolio": {"n_parcels_with_acs": 14, "median_income": 79829, "median_home_value": 327419, "pct_renter": 38, "pct_poverty": null, "pct_vacant": 11, "pct_black": 16, "pct_white": 42, "pct_hispanic": 42, "pct_asian": 2}, "related": [], "parcels": [{"parcel_id": "193739", "address": "508 FOOTHILL DR", "lat": "36.124869", "lon": "-86.722809", "sale_price": 75000.0, "sale_date": "28 Feb 2022", "market_value": 348700.0, "beds": 4.0, "bath": 2.0, "sqft": 1456.0, "year_built": "1985", "acres": 0.41}, {"parcel_id": "196243", "address": "1319 VENUS DR", "lat": "36.123074", "lon": "-86.69808", "sale_price": 350000.0, "sale_date": "28 Feb 2022", "market_value": 337700.0, "beds": 3.0, "bath": 2.0, "sqft": 1860.0, "year_built": "1955", "acres": 0.23}, {"parcel_id": "196257", "address": "1322 MARS DR", "lat": "36.122629", "lon": "-86.698347", "sale_price": 145000.0, "sale_date": "28 Feb 2022", "market_value": 290900.0, "beds": 2.0, "bath": 1.0, "sqft": 988.0, "year_built": "1980", "acres": 0.23}, {"parcel_id": "198099", "address": "1307 VULTEE BLVD", "lat": "36.124209", "lon": "-86.698608", "sale_price": 70000.0, "sale_date": "31 Mar 2015", "market_value": 254800.0, "beds": 2.0, "bath": 1.0, "sqft": 713.0, "year_built": "1980", "acres": 0.23}, {"parcel_id": "215907", "address": "522 VERITAS ST", "lat": "36.098319", "lon": "-86.744121", "sale_price": -1.0, "sale_date": "", "market_value": 293800.0, "beds": 2.0, "bath": 1.0, "sqft": 1064.0, "year_built": "1970", "acres": 0.17}, {"parcel_id": "216202", "address": "3307 SAINDON ST", "lat": "36.100408", "lon": "-86.743465", "sale_price": 150000.0, "sale_date": "20 Feb 2022", "market_value": 327200.0, "beds": 4.0, "bath": 1.0, "sqft": 1776.0, "year_built": "1970", "acres": 0.18}, {"parcel_id": "245669", "address": "623 WHISPERING HILLS DR", "lat": "36.071056", "lon": "-86.731155", "sale_price": -1.0, "sale_date": "", "market_value": 428100.0, "beds": 3.0, "bath": 2.0, "sqft": 1736.0, "year_built": "1967", "acres": 0.29}, {"parcel_id": "249357", "address": "4705 COLEMONT PL", "lat": "36.063481", "lon": "-86.691694", "sale_price": 281900.0, "sale_date": "5 May 2026", "market_value": 216800.0, "beds": 3.0, "bath": 1.0, "sqft": 988.0, "year_built": "1980", "acres": 0.16}, {"parcel_id": "250759", "address": "4531 ARTELIA DR", "lat": "36.075407", "lon": "-86.675872", "sale_price": -1.0, "sale_date": "", "market_value": 312800.0, "beds": 3.0, "bath": 1.0, "sqft": 1075.0, "year_built": "1972", "acres": 0.19}, {"parcel_id": "252779", "address": "355 GILLETTE RD", "lat": "36.061164", "lon": "-86.708259", "sale_price": -1.0, "sale_date": "", "market_value": 288400.0, "beds": 2.0, "bath": 1.0, "sqft": 1300.0, "year_built": "1958", "acres": 0.33}, {"parcel_id": "253039", "address": "4749 MINERS CV", "lat": "36.06992", "lon": "-86.667908", "sale_price": 350000.0, "sale_date": "28 Feb 2022", "market_value": 276600.0, "beds": 3.0, "bath": 1.0, "sqft": 1444.0, "year_built": "1978", "acres": 0.19}, {"parcel_id": "253931", "address": "405 GREGG CT", "lat": "36.077723", "lon": "-86.631342", "sale_price": -1.0, "sale_date": "", "market_value": 218400.0, "beds": 2.0, "bath": 3.0, "sqft": 1280.0, "year_built": "1985", "acres": 0.17}, {"parcel_id": "256049", "address": "3140 JUSTIN TOWNE CT", "lat": "36.078355", "lon": "-86.610174", "sale_price": -1.0, "sale_date": "", "market_value": 216600.0, "beds": 2.0, "bath": 2.0, "sqft": 1152.0, "year_built": "1983", "acres": 0.18}, {"parcel_id": "256525", "address": "741 LAKE TERRACE DR", "lat": "36.080285", "lon": "-86.614051", "sale_price": -1.0, "sale_date": "", "market_value": 203400.0, "beds": 2.0, "bath": 1.0, "sqft": 1024.0, "year_built": "1984", "acres": 0.05}, {"parcel_id": "42221", "address": "1210 DEBOW ST", "lat": "36.257699", "lon": "-86.649304", "sale_price": 150000.0, "sale_date": "28 Feb 2022", "market_value": 229700.0, "beds": 2.0, "bath": 1.0, "sqft": 957.0, "year_built": "1933", "acres": 0.11}, {"parcel_id": "61625", "address": "4253 BRACKENWOOD DR", "lat": "36.222588", "lon": "-86.627426", "sale_price": -1.0, "sale_date": "", "market_value": 370600.0, "beds": 3.0, "bath": 3.0, "sqft": 1932.0, "year_built": "1986", "acres": 0.22}]}