{"cluster_id": 680, "name": "WEST IRIS REALTY LLC", "entity_count": 3, "parcel_count": 15, "total_market_value": 12379100, "total_acres": 3.0, "owner_names": ["120 ACKLEN PARK PARTNERS LLC", "IT REALTY LLC THE TIN CUP", "WEST IRIS REALTY LLC"], "registered_agents": [], "principal_offices": [], "primary_sos_status": "", "primary_foreign_state": "", "brand": "", "opencorporates": "https://opencorporates.com/companies?q=WEST+IRIS+REALTY+LLC&utf8=%E2%9C%93", "primary_type": "", "portfolio": {"n_parcels_with_acs": 10, "median_income": 71639, "median_home_value": 521600, "pct_renter": 58, "pct_poverty": null, "pct_vacant": 21, "pct_black": 40, "pct_white": 51, "pct_hispanic": 5, "pct_asian": 1}, "related": [{"owner": "IT REALTY LLC THE TIN CUP", "parcels": 1, "via": "mailing address"}, {"owner": "120 ACKLEN PARK PARTNERS LLC", "parcels": 1, "via": "mailing address"}], "parcels": [{"parcel_id": "129855", "address": "600 4TH AVE N", "lat": "36.169621", "lon": "-86.782058", "sale_price": 725000.0, "sale_date": "28 Jun 2013", "market_value": 3600000.0, "beds": 0.0, "bath": 0.0, "sqft": 0.0, "year_built": "2020", "acres": 0.33}, {"parcel_id": "152464", "address": "120 ACKLEN PARK DR", "lat": "36.14324", "lon": "-86.82005"}, {"parcel_id": "190183", "address": "", "lat": "", "lon": ""}, {"parcel_id": "190184", "address": "", "lat": "", "lon": ""}, {"parcel_id": "190185", "address": "", "lat": "", "lon": ""}, {"parcel_id": "190186", "address": "623 W IRIS DR", "lat": "36.116516", "lon": "-86.76926", "sale_price": -1.0, "sale_date": "", "market_value": 4356000.0, "beds": 2.0, "bath": 1.0, "sqft": 0.0, "year_built": "1960", "acres": 1.0}, {"parcel_id": "190280", "address": "", "lat": "", "lon": ""}, {"parcel_id": "451479", "address": "629 W IRIS DR STE 1", "lat": "36.115984", "lon": "-86.769297", "sale_price": -1.0, "sale_date": "", "market_value": 784000.0, "beds": 3.0, "bath": 2.5, "sqft": 0.0, "year_built": "2019", "acres": null}, {"parcel_id": "451483", "address": "629 W IRIS DR # 5", "lat": "36.11602", "lon": "-86.769623", "sale_price": -1.0, "sale_date": "", "market_value": 784600.0, "beds": 3.0, "bath": 2.5, "sqft": 0.0, "year_built": "2019", "acres": null}, {"parcel_id": "72608", "address": "1308 BAPTIST WORLD CENTER DR", "lat": "36.194991", "lon": "-86.780587", "sale_price": -1.0, "sale_date": "", "market_value": 1998400.0, "beds": 0.0, "bath": 0.0, "sqft": 4800.0, "year_built": "2006", "acres": 1.17}, {"parcel_id": "72623", "address": "1314 BAPTIST WORLD CENTER DR", "lat": "36.195385", "lon": "-86.781246", "sale_price": -1.0, "sale_date": "", "market_value": 856100.0, "beds": null, "bath": 0.0, "sqft": 2400.0, "year_built": "2009", "acres": 0.51}, {"parcel_id": "72629", "address": "1320 BAPTIST WORLD CENTER DR", "lat": "36.195549", "lon": "-86.781521"}, {"parcel_id": "72631", "address": "1322 BAPTIST WORLD CENTER DR", "lat": "36.195646", "lon": "-86.781685"}, {"parcel_id": "73365", "address": "16 LUCILE ST", "lat": "36.196412", "lon": "-86.774814"}, {"parcel_id": "73366", "address": "", "lat": "", "lon": ""}]}