{"cluster_id": 702, "name": "MOORE HOMES LLC", "entity_count": 1, "parcel_count": 15, "total_market_value": 2338600, "total_acres": 0.0, "owner_names": ["MOORE HOMES LLC"], "registered_agents": [], "principal_offices": [], "primary_sos_status": "", "primary_foreign_state": "", "brand": "", "opencorporates": "https://opencorporates.com/companies?q=MOORE+HOMES+LLC&utf8=%E2%9C%93", "primary_type": "", "portfolio": {"n_parcels_with_acs": 7, "median_income": 117689, "median_home_value": 481414, "pct_renter": 25, "pct_poverty": null, "pct_vacant": 3, "pct_black": 16, "pct_white": 65, "pct_hispanic": 11, "pct_asian": 7}, "related": [], "parcels": [{"parcel_id": "114016", "address": "", "lat": "", "lon": ""}, {"parcel_id": "116439", "address": "", "lat": "", "lon": ""}, {"parcel_id": "118382", "address": "", "lat": "", "lon": ""}, {"parcel_id": "118833", "address": "", "lat": "", "lon": ""}, {"parcel_id": "228139", "address": "0 POPLAR CREEK RD", "lat": "36.061464", "lon": "-86.98333"}, {"parcel_id": "228635", "address": "0 MCCRORY LN", "lat": "36.059304", "lon": "-86.985139"}, {"parcel_id": "255937", "address": "0 MCCRORY LN", "lat": "36.055772", "lon": "-86.987198"}, {"parcel_id": "258832", "address": "0 MCCRORY LN", "lat": "36.057679", "lon": "-86.987089"}, {"parcel_id": "311509", "address": "7945 RIVER FORK DR", "lat": "36.061404", "lon": "-86.980999", "sale_price": -1.0, "sale_date": "", "market_value": 2338600.0, "beds": 3.0, "bath": 2.0, "sqft": 6496.0, "year_built": "2021", "acres": null}, {"parcel_id": "311534", "address": "", "lat": "", "lon": ""}, {"parcel_id": "419992", "address": "", "lat": "", "lon": ""}, {"parcel_id": "419993", "address": "", "lat": "", "lon": ""}, {"parcel_id": "433234", "address": "8110 RIVER ROAD PIKE", "lat": "36.189087", "lon": "-86.958573"}, {"parcel_id": "433235", "address": "8114 RIVER ROAD PIKE", "lat": "36.189408", "lon": "-86.958742"}, {"parcel_id": "88830", "address": "", "lat": "", "lon": ""}]}