{"cluster_id": 723, "name": "RUTLEDGE HILL LLC", "entity_count": 2, "parcel_count": 14, "total_market_value": 23416000, "total_acres": 2.6, "owner_names": ["3RD JEFFERSON LLC", "RUTLEDGE HILL LLC"], "registered_agents": [], "principal_offices": [], "primary_sos_status": "", "primary_foreign_state": "", "brand": "", "opencorporates": "https://opencorporates.com/companies?q=RUTLEDGE+HILL+LLC&utf8=%E2%9C%93", "primary_type": "", "portfolio": {"n_parcels_with_acs": 14, "median_income": 92711, "median_home_value": 477257, "pct_renter": 78, "pct_poverty": null, "pct_vacant": 39, "pct_black": 9, "pct_white": 79, "pct_hispanic": 14, "pct_asian": 0}, "related": [{"owner": "3RD JEFFERSON LLC", "parcels": 3, "via": "mailing address"}], "parcels": [{"parcel_id": "132053", "address": "34 RUTLEDGE ST", "lat": "36.155825", "lon": "-86.76915", "sale_price": -1.0, "sale_date": "", "market_value": 12272200.0, "beds": 0.0, "bath": 0.0, "sqft": 43066.0, "year_built": "1978", "acres": 1.12}, {"parcel_id": "132057", "address": "35 HERMITAGE AVE", "lat": "36.156205", "lon": "-86.768393"}, {"parcel_id": "132061", "address": "43 HERMITAGE AVE", "lat": "36.15604", "lon": "-86.767936", "sale_price": -1.0, "sale_date": "", "market_value": 1553600.0, "beds": 0.0, "bath": 0.0, "sqft": 1302.0, "year_built": "1960", "acres": 0.13}, {"parcel_id": "132062", "address": "45 HERMITAGE AVE", "lat": "36.155947", "lon": "-86.767588", "sale_price": -1.0, "sale_date": "", "market_value": 3197900.0, "beds": null, "bath": 0.0, "sqft": 0.0, "year_built": "2020", "acres": 0.33}, {"parcel_id": "132063", "address": "40 MIDDLETON ST", "lat": "36.155811", "lon": "-86.767823", "sale_price": 799000.0, "sale_date": "17 Dec 2018", "market_value": 949200.0, "beds": 0.0, "bath": 0.0, "sqft": 2402.0, "year_built": "1960", "acres": 0.16}, {"parcel_id": "132066", "address": "30 MIDDLETON ST", "lat": "36.155609", "lon": "-86.768466", "sale_price": -1.0, "sale_date": "", "market_value": 1600500.0, "beds": 0.0, "bath": 0.0, "sqft": 4570.0, "year_built": "1975", "acres": 0.36}, {"parcel_id": "132068", "address": "28 MIDDLETON ST", "lat": "36.155513", "lon": "-86.768696", "sale_price": -1.0, "sale_date": "", "market_value": 765100.0, "beds": 4.0, "bath": 3.5, "sqft": 4134.0, "year_built": "2010", "acres": 0.17}, {"parcel_id": "132071", "address": "42 RUTLEDGE ST", "lat": "36.155391", "lon": "-86.769125", "sale_price": -1.0, "sale_date": "", "market_value": 1908900.0, "beds": 0.0, "bath": 0.0, "sqft": 5356.0, "year_built": "1975", "acres": 0.23}, {"parcel_id": "133893", "address": "627 PRESIDENT RONALD REAGAN WAY", "lat": "36.154343", "lon": "-86.770632", "sale_price": -1.0, "sale_date": "", "market_value": 1168600.0, "beds": 0.0, "bath": 0.0, "sqft": 4376.0, "year_built": "2000", "acres": 0.15}, {"parcel_id": "133894", "address": "625 PRESIDENT RONALD REAGAN WAY", "lat": "36.154446", "lon": "-86.770699"}, {"parcel_id": "133896", "address": "623 PRESIDENT RONALD REAGAN WAY", "lat": "36.154543", "lon": "-86.770763"}, {"parcel_id": "98233", "address": "1121 3RD AVE N", "lat": "36.175556", "lon": "-86.785475"}, {"parcel_id": "99536", "address": "304 JEFFERSON ST", "lat": "36.17513", "lon": "-86.785332"}, {"parcel_id": "99538", "address": "300 JEFFERSON ST", "lat": "36.175217", "lon": "-86.785065"}]}