{"cluster_id": 729, "name": "ALEX HOLDING LLC", "entity_count": 2, "parcel_count": 14, "total_market_value": 3945100, "total_acres": 3.4, "owner_names": ["ALEX HOLDING LLC", "BETA PI FAWNWOOD PARTNERSHIP"], "registered_agents": [], "principal_offices": [], "primary_sos_status": "", "primary_foreign_state": "", "brand": "", "opencorporates": "https://opencorporates.com/companies?q=ALEX+HOLDING+LLC&utf8=%E2%9C%93", "primary_type": "", "portfolio": {"n_parcels_with_acs": 14, "median_income": 72183, "median_home_value": 354100, "pct_renter": 46, "pct_poverty": null, "pct_vacant": 8, "pct_black": 43, "pct_white": 32, "pct_hispanic": 19, "pct_asian": 1}, "related": [{"owner": "BETA PI FAWNWOOD PARTNERSHIP", "parcels": 2, "via": "mailing address"}], "parcels": [{"parcel_id": "102132", "address": "1521A MCKENNIE AVE", "lat": "36.191093", "lon": "-86.737143", "sale_price": -1.0, "sale_date": "", "market_value": 509500.0, "beds": 4.0, "bath": 2.0, "sqft": 1425.0, "year_built": "1975", "acres": 0.17}, {"parcel_id": "22027", "address": "833 HERITAGE CIR", "lat": "36.270385", "lon": "-86.72172", "sale_price": -1.0, "sale_date": "", "market_value": 266800.0, "beds": 2.0, "bath": 1.0, "sqft": 1008.0, "year_built": "1982", "acres": 0.11}, {"parcel_id": "24651", "address": "300 MAY DR", "lat": "36.269935", "lon": "-86.694642", "sale_price": -1.0, "sale_date": "", "market_value": 241300.0, "beds": 3.0, "bath": 2.0, "sqft": 1118.0, "year_built": "1970", "acres": 0.26}, {"parcel_id": "25597", "address": "804 BROOKS AVE", "lat": "36.270922", "lon": "-86.706218", "sale_price": 156000.0, "sale_date": "5 Jul 2017", "market_value": 287800.0, "beds": 2.0, "bath": 1.5, "sqft": 1358.0, "year_built": "1960", "acres": 0.37}, {"parcel_id": "25598", "address": "812 BROOKS AVE", "lat": "36.271281", "lon": "-86.706166", "sale_price": 195000.0, "sale_date": "22 Dec 2017", "market_value": 352100.0, "beds": 4.0, "bath": 1.0, "sqft": 1572.5, "year_built": "1960", "acres": 0.57}, {"parcel_id": "27206", "address": "506 E MAPLE ST", "lat": "36.261017", "lon": "-86.702587", "sale_price": 78000.0, "sale_date": "22 May 2015", "market_value": 216800.0, "beds": 2.0, "bath": 1.0, "sqft": 932.0, "year_built": "1935", "acres": 0.33}, {"parcel_id": "33219", "address": "3413 FAWNWOOD PL", "lat": "36.244915", "lon": "-86.774813", "sale_price": 85000.0, "sale_date": "23 Dec 2016", "market_value": 229400.0, "beds": 3.0, "bath": 2.0, "sqft": 1276.0, "year_built": "1987", "acres": 0.14}, {"parcel_id": "33350", "address": "3410 FAWNWOOD PL", "lat": "36.244177", "lon": "-86.775179", "sale_price": 123410.0, "sale_date": "13 Sep 2017", "market_value": 227700.0, "beds": 3.0, "bath": 2.0, "sqft": 1276.0, "year_built": "1987", "acres": 0.17}, {"parcel_id": "33705", "address": "3408 FAWNWOOD PL", "lat": "36.244188", "lon": "-86.775339", "sale_price": 52000.0, "sale_date": "8 Sep 2016", "market_value": 228500.0, "beds": 3.0, "bath": 2.0, "sqft": 1276.0, "year_built": "1987", "acres": 0.17}, {"parcel_id": "38842", "address": "637 CENTER ST", "lat": "36.251259", "lon": "-86.687948", "sale_price": -1.0, "sale_date": "", "market_value": 240200.0, "beds": 2.0, "bath": 1.0, "sqft": 982.0, "year_built": "1986", "acres": 0.43}, {"parcel_id": "51354", "address": "2639 OLD MATTHEWS RD", "lat": "36.215472", "lon": "-86.788351", "sale_price": 75000.0, "sale_date": "20 Apr 2017", "market_value": 211200.0, "beds": 3.0, "bath": 1.0, "sqft": 1000.0, "year_built": "1972", "acres": 0.16}, {"parcel_id": "70902", "address": "1826 GLADE ST", "lat": "36.203598", "lon": "-86.784201", "sale_price": -1.0, "sale_date": "", "market_value": 241900.0, "beds": 3.0, "bath": 1.5, "sqft": 1056.0, "year_built": "1998", "acres": 0.12}, {"parcel_id": "73206", "address": "909 WARD ST", "lat": "36.198397", "lon": "-86.753732", "sale_price": 123375.0, "sale_date": "2 Sep 2015", "market_value": 348000.0, "beds": 2.0, "bath": 1.0, "sqft": 810.0, "year_built": "1948", "acres": 0.22}, {"parcel_id": "73208", "address": "913 WARD ST", "lat": "36.198319", "lon": "-86.753328", "sale_price": -1.0, "sale_date": "", "market_value": 343900.0, "beds": 2.0, "bath": 1.0, "sqft": 825.0, "year_built": "1948", "acres": 0.22}]}