{"cluster_id": 732, "name": "ANAVAH CAPITAL LLC", "entity_count": 3, "parcel_count": 14, "total_market_value": 3609100, "total_acres": 0.3, "owner_names": ["ANAVAH CAPITAL LLC", "ANAVAH CAPTIAL LLC", "AVANAH CAPITAL LLC"], "registered_agents": ["JON KRAWCYK"], "principal_offices": ["6845 FALLS RIDGE LANE, College Grove, TN 37046"], "primary_sos_status": "", "primary_foreign_state": "", "brand": "", "opencorporates": "https://opencorporates.com/companies?q=ANAVAH+CAPITAL+LLC&utf8=%E2%9C%93", "primary_type": "", "portfolio": {"n_parcels_with_acs": 14, "median_income": 84518, "median_home_value": 416708, "pct_renter": 47, "pct_poverty": null, "pct_vacant": 13, "pct_black": 16, "pct_white": 47, "pct_hispanic": 17, "pct_asian": 16}, "related": [{"owner": "AVANAH CAPITAL LLC", "parcels": 2, "via": "mailing address"}, {"owner": "ANAVAH CAPTIAL LLC", "parcels": 1, "via": "mailing address"}], "parcels": [{"parcel_id": "114599", "address": "515 BASSWOOD AVE # 21", "lat": "36.156228", "lon": "-86.88519", "sale_price": 135000.0, "sale_date": "25 Jan 2018", "market_value": 259800.0, "beds": 3.0, "bath": 2.0, "sqft": 1154.0, "year_built": "1985", "acres": 0.0}, {"parcel_id": "152560", "address": "201 ACKLEN PARK DR APT 19", "lat": "36.142367", "lon": "-86.821548", "sale_price": 132500.0, "sale_date": "23 Oct 2018", "market_value": 201000.0, "beds": 1.0, "bath": 1.0, "sqft": 615.0, "year_built": "1959", "acres": 0.0}, {"parcel_id": "152803", "address": "3204 W END CIR APT 5", "lat": "36.143722", "lon": "-86.819197", "sale_price": 154000.0, "sale_date": "18 Sep 2015", "market_value": 262200.0, "beds": 1.0, "bath": 1.0, "sqft": 602.0, "year_built": "1985", "acres": 0.0}, {"parcel_id": "163293", "address": "2020 BEECH AVE APT C15", "lat": "36.132049", "lon": "-86.780245", "sale_price": 135000.0, "sale_date": "22 Jan 2015", "market_value": 228900.0, "beds": 1.0, "bath": 1.0, "sqft": 625.0, "year_built": "1961", "acres": 0.0}, {"parcel_id": "168952", "address": "1041 HAROLD DR", "lat": "36.1342", "lon": "-86.709926", "sale_price": 110000.0, "sale_date": "20 Apr 2022", "market_value": 138100.0, "beds": 1.0, "bath": 1.0, "sqft": 930.0, "year_built": "1973", "acres": 0.0}, {"parcel_id": "215963", "address": "216 NORWAY TER", "lat": "36.095198", "lon": "-86.719227", "sale_price": 349900.0, "sale_date": "9 Apr 2021", "market_value": 402800.0, "beds": 4.0, "bath": 4.0, "sqft": 1984.0, "year_built": "1984", "acres": 0.32}, {"parcel_id": "280513", "address": "2 SYCAMORE CT", "lat": "36.042079", "lon": "-86.672031", "sale_price": 114900.0, "sale_date": "28 Feb 2018", "market_value": 195800.0, "beds": 2.0, "bath": 3.0, "sqft": 1284.0, "year_built": "1974", "acres": 0.0}, {"parcel_id": "280977", "address": "6 SYCAMORE CT", "lat": "36.042359", "lon": "-86.672287", "sale_price": 205000.0, "sale_date": "27 Jul 2023", "market_value": 202400.0, "beds": 2.0, "bath": 3.0, "sqft": 1284.0, "year_built": "1974", "acres": 0.0}, {"parcel_id": "282413", "address": "2 HICKORY CT", "lat": "36.041772", "lon": "-86.673151", "sale_price": 98250.0, "sale_date": "29 Mar 2019", "market_value": 200200.0, "beds": 2.0, "bath": 3.0, "sqft": 1284.0, "year_built": "1974", "acres": 0.0}, {"parcel_id": "282422", "address": "2 ASH CT", "lat": "36.04153", "lon": "-86.67307", "sale_price": 112000.0, "sale_date": "6 Sep 2019", "market_value": 195800.0, "beds": 2.0, "bath": 3.0, "sqft": 1284.0, "year_built": "1974", "acres": 0.0}, {"parcel_id": "424797", "address": "1118 LITTON AVE APT 216", "lat": "36.201763", "lon": "-86.737932", "sale_price": 206520.0, "sale_date": "13 Apr 2017", "market_value": 324400.0, "beds": 2.0, "bath": 2.0, "sqft": 976.0, "year_built": "2017", "acres": null}, {"parcel_id": "426434", "address": "400 HERRON DR APT 415", "lat": "36.136578", "lon": "-86.757208", "sale_price": 199900.0, "sale_date": "18 Jun 2018", "market_value": 324200.0, "beds": 1.0, "bath": 1.0, "sqft": 750.0, "year_built": "2018", "acres": null}, {"parcel_id": "458570", "address": "832 GOSWELL DR UNIT 203", "lat": "35.983817", "lon": "-86.612163", "sale_price": 326000.0, "sale_date": "28 Mar 2023", "market_value": 322300.0, "beds": 2.0, "bath": 2.0, "sqft": 1156.0, "year_built": "2022", "acres": null}, {"parcel_id": "458972", "address": "1540 LEBANON PIKE UNIT 301", "lat": "36.15454", "lon": "-86.719105", "sale_price": 269900.0, "sale_date": "14 Oct 2022", "market_value": 351200.0, "beds": 2.0, "bath": 2.0, "sqft": 906.0, "year_built": "2022", "acres": null}]}