{"cluster_id": 748, "name": "JACK STRAW PROPERTIES LLC", "entity_count": 4, "parcel_count": 14, "total_market_value": 4153300, "total_acres": 2.4, "owner_names": ["CRIPPLE CREEK PROPERTIES", "CRIPPLE CREEK PROPERTIES LLC", "JACK STRAW PROPERTIES LLC", "JACKSTRAW PROPERTIES LLC"], "registered_agents": [], "principal_offices": [], "primary_sos_status": "", "primary_foreign_state": "", "brand": "", "opencorporates": "https://opencorporates.com/companies?q=JACK+STRAW+PROPERTIES+LLC&utf8=%E2%9C%93", "primary_type": "", "portfolio": {"n_parcels_with_acs": 14, "median_income": 60610, "median_home_value": 420220, "pct_renter": 65, "pct_poverty": null, "pct_vacant": 6, "pct_black": 53, "pct_white": 34, "pct_hispanic": 9, "pct_asian": 0}, "related": [{"owner": "CRIPPLE CREEK PROPERTIES LLC", "parcels": 6, "via": "mailing address"}, {"owner": "JACKSTRAW PROPERTIES LLC", "parcels": 1, "via": "mailing address"}, {"owner": "CRIPPLE CREEK PROPERTIES", "parcels": 1, "via": "mailing address"}], "parcels": [{"parcel_id": "117333", "address": "1044 44TH AVE N", "lat": "36.163335", "lon": "-86.839661", "sale_price": 80000.0, "sale_date": "27 Aug 2013", "market_value": 388900.0, "beds": 3.0, "bath": 2.0, "sqft": 1536.0, "year_built": "1925", "acres": 0.17}, {"parcel_id": "17750", "address": "171 WELWORTH ST", "lat": "36.282095", "lon": "-86.704193", "sale_price": -1.0, "sale_date": "", "market_value": 262900.0, "beds": 4.0, "bath": 2.0, "sqft": 1324.0, "year_built": "1966", "acres": 0.14}, {"parcel_id": "18007", "address": "118 MCKINLEY ST", "lat": "36.280993", "lon": "-86.705878", "sale_price": -1.0, "sale_date": "", "market_value": 361600.0, "beds": 4.0, "bath": 2.0, "sqft": 1920.0, "year_built": "1995", "acres": 0.15}, {"parcel_id": "18235", "address": "208 WELWORTH ST", "lat": "36.281557", "lon": "-86.702723", "sale_price": -1.0, "sale_date": "", "market_value": 249600.0, "beds": 4.0, "bath": 2.0, "sqft": 1398.0, "year_built": "1995", "acres": 0.21}, {"parcel_id": "32903", "address": "2144 W RICHMOND HILL DR", "lat": "36.23659", "lon": "-86.79005", "sale_price": 247900.0, "sale_date": "16 Apr 2026", "market_value": 253800.0, "beds": 3.0, "bath": 1.0, "sqft": 1050.0, "year_built": "1971", "acres": 0.13}, {"parcel_id": "33866", "address": "3216 WILMOTH CT", "lat": "36.237301", "lon": "-86.777459", "sale_price": -1.0, "sale_date": "", "market_value": 277600.0, "beds": 4.0, "bath": 2.0, "sqft": 1500.0, "year_built": "1963", "acres": 0.33}, {"parcel_id": "47999", "address": "360 KINGVIEW DR", "lat": "36.214257", "lon": "-86.835644", "sale_price": -1.0, "sale_date": "", "market_value": 313300.0, "beds": 4.0, "bath": 2.0, "sqft": 1404.0, "year_built": "1985", "acres": 0.24}, {"parcel_id": "52815", "address": "2829A BRUNSWICK DR", "lat": "36.21695", "lon": "-86.759572", "sale_price": -1.0, "sale_date": "", "market_value": 199100.0, "beds": 2.0, "bath": 2.0, "sqft": 783.0, "year_built": "1986", "acres": 0.17}, {"parcel_id": "54195", "address": "2829 BRUNSWICK DR", "lat": "36.217049", "lon": "-86.759547", "sale_price": -1.0, "sale_date": "", "market_value": 199100.0, "beds": 2.0, "bath": 1.0, "sqft": 783.0, "year_built": "1986", "acres": 0.11}, {"parcel_id": "70936", "address": "108 MINNETTE CT", "lat": "36.208297", "lon": "-86.753349", "sale_price": 45000.0, "sale_date": "19 Nov 2014", "market_value": 204500.0, "beds": 3.0, "bath": 1.5, "sqft": 1040.0, "year_built": "1985", "acres": 0.16}, {"parcel_id": "73676", "address": "825 W MCKENNIE AVE", "lat": "36.192331", "lon": "-86.754646", "sale_price": 42000.0, "sale_date": "28 Jun 2013", "market_value": 372000.0, "beds": 2.0, "bath": 2.0, "sqft": 1203.0, "year_built": "1970", "acres": 0.16}, {"parcel_id": "90255", "address": "1729 MCKINNEY AVE", "lat": "36.187509", "lon": "-86.814799", "sale_price": 66000.0, "sale_date": "4 Apr 2014", "market_value": 315300.0, "beds": 4.0, "bath": 2.0, "sqft": 1431.0, "year_built": "1995", "acres": 0.17}, {"parcel_id": "95038", "address": "1744A 22ND AVE N", "lat": "36.179149", "lon": "-86.812545", "sale_price": 20000.0, "sale_date": "13 Nov 2014", "market_value": 222500.0, "beds": 2.0, "bath": 1.5, "sqft": 960.0, "year_built": "1986", "acres": 0.09}, {"parcel_id": "98373", "address": "817 N 2ND ST", "lat": "36.185395", "lon": "-86.770731", "sale_price": -1.0, "sale_date": "", "market_value": 533100.0, "beds": 4.0, "bath": 2.0, "sqft": 1323.0, "year_built": "1978", "acres": 0.2}]}