{"cluster_id": 753, "name": "DICKERSON PHASE I B PROPCO LLC", "entity_count": 4, "parcel_count": 14, "total_market_value": 21730100, "total_acres": 3.0, "owner_names": ["DICKERSON PHASE I A PROPCO LLC", "DICKERSON PHASE I B PROPCO LLC", "DICKERSON PHASE II PROPCO LLC", "OLDHAM PROPCO LLC"], "registered_agents": [], "principal_offices": [], "primary_sos_status": "", "primary_foreign_state": "", "brand": "", "opencorporates": "https://opencorporates.com/companies?q=DICKERSON+PHASE+I+B+PROPCO+LLC&utf8=%E2%9C%93", "primary_type": "", "portfolio": {"n_parcels_with_acs": 14, "median_income": 56161, "median_home_value": 492729, "pct_renter": 62, "pct_poverty": null, "pct_vacant": 21, "pct_black": 10, "pct_white": 69, "pct_hispanic": 13, "pct_asian": 0}, "related": [{"owner": "DICKERSON PHASE II PROPCO LLC", "parcels": 4, "via": "mailing address"}, {"owner": "DICKERSON PHASE I A PROPCO LLC", "parcels": 4, "via": "mailing address"}, {"owner": "OLDHAM PROPCO LLC", "parcels": 1, "via": "mailing address"}], "parcels": [{"parcel_id": "70978", "address": "1413 DICKERSON PIKE", "lat": "36.199029", "lon": "-86.769006", "sale_price": null, "sale_date": "", "market_value": null, "beds": null, "bath": 0.0, "sqft": null, "year_built": "", "acres": null}, {"parcel_id": "70979", "address": "1411 DICKERSON PIKE", "lat": "36.198703", "lon": "-86.769117", "sale_price": null, "sale_date": "", "market_value": null, "beds": null, "bath": 0.0, "sqft": null, "year_built": "", "acres": null}, {"parcel_id": "70980", "address": "1409A DICKERSON PIKE", "lat": "36.198445", "lon": "-86.769759"}, {"parcel_id": "70982", "address": "1405 DICKERSON PIKE", "lat": "36.19781", "lon": "-86.769943"}, {"parcel_id": "70986", "address": "123 MARIE ST", "lat": "36.1973", "lon": "-86.769387", "sale_price": null, "sale_date": "", "market_value": null, "beds": null, "bath": 0.0, "sqft": null, "year_built": "", "acres": null}, {"parcel_id": "70993", "address": "124 MERIDIAN CT", "lat": "36.197868", "lon": "-86.768469", "sale_price": -1.0, "sale_date": "", "market_value": 584200.0, "beds": 3.0, "bath": 1.0, "sqft": 0.0, "year_built": "1963", "acres": 0.29}, {"parcel_id": "70994", "address": "120 MERIDIAN CT", "lat": "36.198044", "lon": "-86.768825", "sale_price": -1.0, "sale_date": "", "market_value": 818800.0, "beds": 2.0, "bath": 1.0, "sqft": 0.0, "year_built": "1963", "acres": 0.4}, {"parcel_id": "70995", "address": "121 MERIDIAN CT", "lat": "36.198357", "lon": "-86.76872", "sale_price": -1.0, "sale_date": "", "market_value": 508900.0, "beds": 2.0, "bath": 1.0, "sqft": 0.0, "year_built": "1963", "acres": 0.25}, {"parcel_id": "71085", "address": "125 MERIDIAN CT", "lat": "36.198323", "lon": "-86.768353", "sale_price": -1.0, "sale_date": "", "market_value": 1231400.0, "beds": 2.0, "bath": 1.0, "sqft": 0.0, "year_built": "1967", "acres": 0.3}, {"parcel_id": "71103", "address": "204 GATEWOOD AVE", "lat": "36.199525", "lon": "-86.767965", "sale_price": null, "sale_date": "", "market_value": null, "beds": null, "bath": 0.0, "sqft": null, "year_built": "", "acres": null}, {"parcel_id": "71104", "address": "200 GATEWOOD AVE", "lat": "36.19955", "lon": "-86.768219", "sale_price": null, "sale_date": "", "market_value": null, "beds": null, "bath": 0.0, "sqft": null, "year_built": "", "acres": null}, {"parcel_id": "71105", "address": "198 GATEWOOD AVE", "lat": "36.199596", "lon": "-86.768693", "sale_price": null, "sale_date": "", "market_value": null, "beds": null, "bath": 0.0, "sqft": null, "year_built": "", "acres": null}, {"parcel_id": "71961", "address": "1407 DICKERSON PIKE", "lat": "36.198108", "lon": "-86.769894"}, {"parcel_id": "97515", "address": "304 OLDHAM ST", "lat": "36.175961", "lon": "-86.768392", "sale_price": -1.0, "sale_date": "", "market_value": 18586800.0, "beds": null, "bath": 0.0, "sqft": 122418.0, "year_built": "2025", "acres": 1.78}]}