{"cluster_id": 793, "name": "MODERN COVE LLC", "entity_count": 6, "parcel_count": 13, "total_market_value": 7399400, "total_acres": 0.6, "owner_names": ["112 HOLT BRANCH TRUST THE", "2604 COLBERT DRIVE LLC", "DREAM HOMES FOR LESS RAINWOOD LLC", "IRONSPIRE LLC 1118 LITTON AVE 109 PROTECTED SERIES", "IRONSPIRE LLC 1118 LITTON AVE 212 PROTECTED SERIES", "MODERN COVE LLC"], "registered_agents": ["ANDERSON REGISTERED AGENTS, INC."], "principal_offices": ["3225 MCLEOD DR STE 100, LAS VEGAS, NV 89121-2257"], "primary_sos_status": "", "primary_foreign_state": "", "brand": "", "opencorporates": "https://opencorporates.com/companies?q=MODERN+COVE+LLC&utf8=%E2%9C%93", "primary_type": "", "portfolio": {"n_parcels_with_acs": 13, "median_income": 100220, "median_home_value": 493538, "pct_renter": 41, "pct_poverty": null, "pct_vacant": 11, "pct_black": 18, "pct_white": 69, "pct_hispanic": 6, "pct_asian": 3}, "related": [{"owner": "2604 COLBERT DRIVE LLC", "parcels": 1, "via": "mailing address"}, {"owner": "112 HOLT BRANCH TRUST THE", "parcels": 1, "via": "mailing address"}, {"owner": "IRONSPIRE LLC 1118 LITTON AVE 109 PROTECTED SERIES", "parcels": 1, "via": "mailing address"}, {"owner": "IRONSPIRE LLC 1118 LITTON AVE 212 PROTECTED SERIES", "parcels": 1, "via": "mailing address"}, {"owner": "DREAM HOMES FOR LESS RAINWOOD LLC", "parcels": 1, "via": "mailing address"}], "parcels": [{"parcel_id": "106019", "address": "2604 COLBERT DR", "lat": "36.190235", "lon": "-86.707854", "sale_price": 549900.0, "sale_date": "26 May 2026", "market_value": 597800.0, "beds": 4.0, "bath": 2.0, "sqft": 1392.0, "year_built": "2015", "acres": 0.4}, {"parcel_id": "290887", "address": "7618 LEVESON WAY", "lat": "36.025001", "lon": "-86.710478", "sale_price": 340000.0, "sale_date": "24 Mar 2020", "market_value": 590100.0, "beds": 3.0, "bath": 2.5, "sqft": 2764.0, "year_built": "2003", "acres": null}, {"parcel_id": "294350", "address": "112 HOLT BR", "lat": "36.012117", "lon": "-86.722807", "sale_price": 430000.0, "sale_date": "21 Dec 2020", "market_value": 594800.0, "beds": 4.0, "bath": 3.0, "sqft": 2586.0, "year_built": "1998", "acres": 0.21}, {"parcel_id": "33937", "address": "3504 RAINWOOD DR", "lat": "36.243644", "lon": "-86.776737", "sale_price": 306000.0, "sale_date": "14 Feb 2025", "market_value": 322500.0, "beds": 3.0, "bath": 2.0, "sqft": 1246.0, "year_built": "2001", "acres": null}, {"parcel_id": "424775", "address": "1118 LITTON AVE APT 109", "lat": "36.202098", "lon": "-86.738233", "sale_price": 182850.0, "sale_date": "7 Jun 2017", "market_value": 291900.0, "beds": 1.0, "bath": 1.0, "sqft": 750.0, "year_built": "2017", "acres": null}, {"parcel_id": "424785", "address": "1118 LITTON AVE APT 212", "lat": "36.202066", "lon": "-86.73796", "sale_price": 174900.0, "sale_date": "23 Jun 2017", "market_value": 276100.0, "beds": 1.0, "bath": 1.0, "sqft": 697.0, "year_built": "2017", "acres": null}, {"parcel_id": "429654", "address": "122D OCEOLA AVE", "lat": "36.144335", "lon": "-86.859124", "sale_price": 535000.0, "sale_date": "27 Sep 2021", "market_value": 632900.0, "beds": 4.0, "bath": 4.0, "sqft": 2535.0, "year_built": "2019", "acres": null}, {"parcel_id": "435309", "address": "1913B LOMBARDY AVE", "lat": "36.119267", "lon": "-86.806094", "sale_price": 1140000.0, "sale_date": "19 Mar 2019", "market_value": 1776800.0, "beds": 5.0, "bath": 4.5, "sqft": 4134.0, "year_built": "2019", "acres": null}, {"parcel_id": "436506", "address": "730 OLD HICKORY BLVD APT 116", "lat": "36.119881", "lon": "-86.922451", "sale_price": 305000.0, "sale_date": "17 Jun 2020", "market_value": 500600.0, "beds": 3.0, "bath": 3.5, "sqft": 1792.0, "year_built": "2019", "acres": null}, {"parcel_id": "441652", "address": "2070 EDISON PARK LN", "lat": "36.165088", "lon": "-86.858122", "sale_price": 613995.0, "sale_date": "31 Oct 2022", "market_value": 565700.0, "beds": 3.0, "bath": 3.5, "sqft": 2112.0, "year_built": "2022", "acres": null}, {"parcel_id": "446285", "address": "175 BURKITT COMMONS AVE", "lat": "35.990355", "lon": "-86.681699", "sale_price": 356625.0, "sale_date": "16 Apr 2021", "market_value": 429100.0, "beds": 3.0, "bath": 3.5, "sqft": 1974.0, "year_built": "2021", "acres": null}, {"parcel_id": "447085", "address": "1756 PARK TERRACE LN", "lat": "35.984084", "lon": "-86.61358", "sale_price": 362115.0, "sale_date": "6 Apr 2022", "market_value": 386600.0, "beds": 4.0, "bath": 3.5, "sqft": 1520.0, "year_built": "2022", "acres": null}, {"parcel_id": "457989", "address": "1677 54TH AVE N APT 325", "lat": "36.167602", "lon": "-86.854058", "sale_price": 333890.0, "sale_date": "26 Aug 2022", "market_value": 434500.0, "beds": 2.0, "bath": 2.0, "sqft": 1136.0, "year_built": "2022", "acres": null}]}