{"cluster_id": 796, "name": "GROUNDED DEVELOPMENT LLC", "entity_count": 3, "parcel_count": 13, "total_market_value": 15226200, "total_acres": 1.0, "owner_names": ["1806 1808 DIVISION STREET LLC", "GROUNDED DEVELOPMENT LLC", "WEHO FLATS LLC"], "registered_agents": [], "principal_offices": [], "primary_sos_status": "", "primary_foreign_state": "", "brand": "", "opencorporates": "https://opencorporates.com/companies?q=GROUNDED+DEVELOPMENT+LLC&utf8=%E2%9C%93", "primary_type": "", "portfolio": {"n_parcels_with_acs": 9, "median_income": 73701, "median_home_value": 369511, "pct_renter": 65, "pct_poverty": null, "pct_vacant": 15, "pct_black": 48, "pct_white": 42, "pct_hispanic": 4, "pct_asian": 4}, "related": [{"owner": "WEHO FLATS LLC", "parcels": 5, "via": "mailing address"}, {"owner": "1806 1808 DIVISION STREET LLC", "parcels": 2, "via": "mailing address"}], "parcels": [{"parcel_id": "129585", "address": "1806 DIVISION ST", "lat": "36.151086", "lon": "-86.795226", "sale_price": null, "sale_date": "", "market_value": null, "beds": null, "bath": 0.0, "sqft": null, "year_built": "", "acres": null}, {"parcel_id": "129586", "address": "1808 DIVISION ST", "lat": "36.150993", "lon": "-86.795373", "sale_price": null, "sale_date": "", "market_value": null, "beds": null, "bath": 0.0, "sqft": null, "year_built": "", "acres": null}, {"parcel_id": "163673", "address": "461 HUMPHREYS ST", "lat": "36.141924", "lon": "-86.769869", "sale_price": -1.0, "sale_date": "", "market_value": 14457300.0, "beds": null, "bath": 0.0, "sqft": 51026.0, "year_built": "2021", "acres": 0.89}, {"parcel_id": "163674", "address": "", "lat": "", "lon": ""}, {"parcel_id": "163675", "address": "", "lat": "", "lon": ""}, {"parcel_id": "163676", "address": "", "lat": "", "lon": ""}, {"parcel_id": "163677", "address": "", "lat": "", "lon": ""}, {"parcel_id": "94548", "address": "1015 BUCHANAN ST", "lat": "36.180193", "lon": "-86.804529", "sale_price": -1.0, "sale_date": "", "market_value": 416200.0, "beds": 0.0, "bath": 0.0, "sqft": 5490.0, "year_built": "1950", "acres": 0.09}, {"parcel_id": "94549", "address": "1013 BUCHANAN ST", "lat": "36.18016", "lon": "-86.80437"}, {"parcel_id": "94550", "address": "1011 BUCHANAN ST", "lat": "36.180185", "lon": "-86.804234"}, {"parcel_id": "94552", "address": "1009 BUCHANAN ST", "lat": "36.180198", "lon": "-86.804063"}, {"parcel_id": "94553", "address": "1734 ARTHUR AVE", "lat": "36.180021", "lon": "-86.804026"}, {"parcel_id": "94568", "address": "1001 BUCHANAN ST", "lat": "36.18028", "lon": "-86.803293", "sale_price": -1.0, "sale_date": "", "market_value": 352700.0, "beds": 0.0, "bath": 0.0, "sqft": 2366.0, "year_built": "1960", "acres": 0.06}]}