{"cluster_id": 806, "name": "909 CHEATHAM LLC", "entity_count": 4, "parcel_count": 13, "total_market_value": 0, "total_acres": 0.0, "owner_names": ["909 CHEATHAM LLC", "BLACK STAR HOLDINGS LLC", "O I C HOMES AT 4201 BELMONT BOULEVARD", "O I C HOMES AT 6199 6201 LOUISIANA AV"], "registered_agents": [], "principal_offices": [], "primary_sos_status": "", "primary_foreign_state": "", "brand": "", "opencorporates": "https://opencorporates.com/companies?q=909+CHEATHAM+LLC&utf8=%E2%9C%93", "primary_type": "", "portfolio": {"n_parcels_with_acs": 10, "median_income": 80096, "median_home_value": 667030, "pct_renter": 63, "pct_poverty": null, "pct_vacant": 13, "pct_black": 50, "pct_white": 43, "pct_hispanic": 3, "pct_asian": 2}, "related": [{"owner": "O I C HOMES AT 6199 6201 LOUISIANA AV", "parcels": 1, "via": "mailing address"}, {"owner": "O I C HOMES AT 4201 BELMONT BOULEVARD", "parcels": 1, "via": "mailing address"}, {"owner": "BLACK STAR HOLDINGS LLC", "parcels": 1, "via": "mailing address"}], "parcels": [{"parcel_id": "116314", "address": "", "lat": "", "lon": ""}, {"parcel_id": "450143", "address": "6199B LOUISIANA AVE", "lat": "36.165101", "lon": "-86.864183"}, {"parcel_id": "467715", "address": "4201C BELMONT BLVD", "lat": "36.100605", "lon": "-86.802942"}, {"parcel_id": "475837", "address": "909 CHEATHAM PL", "lat": "36.176205", "lon": "-86.796753"}, {"parcel_id": "475838", "address": "911 CHEATHAM PL", "lat": "36.176333", "lon": "-86.796861"}, {"parcel_id": "475839", "address": "913 CHEATHAM PL", "lat": "36.176291", "lon": "-86.796908"}, {"parcel_id": "475840", "address": "915 CHEATHAM PL", "lat": "36.17625", "lon": "-86.796955"}, {"parcel_id": "475841", "address": "917 CHEATHAM PL", "lat": "36.176208", "lon": "-86.797002"}, {"parcel_id": "475842", "address": "919 CHEATHAM PL", "lat": "36.176167", "lon": "-86.797049"}, {"parcel_id": "475843", "address": "921 CHEATHAM PL", "lat": "36.176108", "lon": "-86.797074"}, {"parcel_id": "475844", "address": "1420 10TH AVE N", "lat": "36.176047", "lon": "-86.79693"}, {"parcel_id": "95299", "address": "", "lat": "", "lon": ""}, {"parcel_id": "95300", "address": "", "lat": "", "lon": ""}]}