{"cluster_id": 822, "name": "CURREY ROBERT LIVING TRUST", "entity_count": 1, "parcel_count": 13, "total_market_value": 3894400, "total_acres": 4.8, "owner_names": ["CURREY ROBERT LIVING TRUST"], "registered_agents": [], "principal_offices": [], "primary_sos_status": "", "primary_foreign_state": "", "brand": "", "opencorporates": "https://opencorporates.com/companies?q=CURREY+ROBERT+LIVING+TRUST&utf8=%E2%9C%93", "primary_type": "", "portfolio": {"n_parcels_with_acs": 13, "median_income": 87879, "median_home_value": 345892, "pct_renter": 28, "pct_poverty": null, "pct_vacant": 7, "pct_black": 4, "pct_white": 81, "pct_hispanic": 12, "pct_asian": 2}, "related": [], "parcels": [{"parcel_id": "107198", "address": "2327 DENNYWOOD DR", "lat": "36.180398", "lon": "-86.684793", "sale_price": 130000.0, "sale_date": "27 Nov 2017", "market_value": 296200.0, "beds": 2.0, "bath": 1.0, "sqft": 1171.0, "year_built": "1955", "acres": 0.37}, {"parcel_id": "108629", "address": "2606 CRUMP DR", "lat": "36.171759", "lon": "-86.675104", "sale_price": 225000.0, "sale_date": "20 Jul 2020", "market_value": 355500.0, "beds": 3.0, "bath": 2.0, "sqft": 1315.0, "year_built": "1985", "acres": 0.27}, {"parcel_id": "108731", "address": "2612 CRUMP DR", "lat": "36.171729", "lon": "-86.674433", "sale_price": 215000.0, "sale_date": "25 Jul 2019", "market_value": 286700.0, "beds": 4.0, "bath": 1.0, "sqft": 1360.0, "year_built": "1950", "acres": 0.28}, {"parcel_id": "139314", "address": "226 GRAYLYNN DR", "lat": "36.163898", "lon": "-86.677223", "sale_price": 95000.0, "sale_date": "16 Sep 2015", "market_value": 217500.0, "beds": 2.0, "bath": 1.0, "sqft": 768.0, "year_built": "1950", "acres": 0.51}, {"parcel_id": "139892", "address": "2924 LAKELAND DR", "lat": "36.153899", "lon": "-86.656022", "sale_price": -1.0, "sale_date": "", "market_value": 255000.0, "beds": 3.0, "bath": 1.0, "sqft": 985.0, "year_built": "1953", "acres": 0.27}, {"parcel_id": "140335", "address": "2915 SUSAN DR", "lat": "36.160168", "lon": "-86.655697", "sale_price": -1.0, "sale_date": "", "market_value": 213100.0, "beds": 2.0, "bath": 1.0, "sqft": 816.0, "year_built": "1953", "acres": 0.21}, {"parcel_id": "140336", "address": "2913 SUSAN DR", "lat": "36.16017", "lon": "-86.655944", "sale_price": -1.0, "sale_date": "", "market_value": 229300.0, "beds": 2.0, "bath": 1.0, "sqft": 850.0, "year_built": "1953", "acres": 0.26}, {"parcel_id": "141002", "address": "3013 IRONWOOD DR", "lat": "36.15821", "lon": "-86.653097", "sale_price": -1.0, "sale_date": "", "market_value": 223200.0, "beds": 2.0, "bath": 1.0, "sqft": 792.0, "year_built": "1953", "acres": 0.51}, {"parcel_id": "141626", "address": "302 KENT RD", "lat": "36.159234", "lon": "-86.662848", "sale_price": -1.0, "sale_date": "", "market_value": 249700.0, "beds": 2.0, "bath": 1.0, "sqft": 1016.0, "year_built": "1951", "acres": 0.32}, {"parcel_id": "147126", "address": "806 W HILLWOOD DR", "lat": "36.130832", "lon": "-86.882432", "sale_price": -1.0, "sale_date": "", "market_value": 637300.0, "beds": 2.0, "bath": 2.0, "sqft": 1698.0, "year_built": "1965", "acres": 0.93}, {"parcel_id": "196385", "address": "1330 MERCURY DR", "lat": "36.121487", "lon": "-86.697908", "sale_price": -1.0, "sale_date": "", "market_value": 238100.0, "beds": 2.0, "bath": 1.0, "sqft": 744.0, "year_built": "1980", "acres": 0.25}, {"parcel_id": "75759", "address": "3806 INGLEWOOD CIR S", "lat": "36.208889", "lon": "-86.716844", "sale_price": -1.0, "sale_date": "", "market_value": 347700.0, "beds": 2.0, "bath": 1.0, "sqft": 786.0, "year_built": "1946", "acres": 0.29}, {"parcel_id": "87624", "address": "317 BONNARIDGE DR", "lat": "36.195075", "lon": "-86.624859", "sale_price": 180000.0, "sale_date": "31 Dec 2020", "market_value": 345100.0, "beds": 3.0, "bath": 1.0, "sqft": 1375.0, "year_built": "2000", "acres": 0.3}]}