{"cluster_id": 824, "name": "VALLEY VIEW PARTNERS LLC", "entity_count": 5, "parcel_count": 13, "total_market_value": 4626900, "total_acres": 1.7, "owner_names": ["DAKOTA AVENUE PARTNERS LLC", "O I C HILLSDALE TOWNHOMES INC AMENDED", "VALLEY VIEW PARTNERS LLC", "WILSON TIMOTHY R FAMILY TRUST ETAL", "WILSON TIMOTHY R FAMILY TRUST MCGINN KEVIN"], "registered_agents": [], "principal_offices": [], "primary_sos_status": "", "primary_foreign_state": "", "brand": "", "opencorporates": "https://opencorporates.com/companies?q=VALLEY+VIEW+PARTNERS+LLC&utf8=%E2%9C%93", "primary_type": "", "portfolio": {"n_parcels_with_acs": 10, "median_income": 95626, "median_home_value": 699130, "pct_renter": 65, "pct_poverty": null, "pct_vacant": 7, "pct_black": 6, "pct_white": 76, "pct_hispanic": 8, "pct_asian": 6}, "related": [{"owner": "DAKOTA AVENUE PARTNERS LLC", "parcels": 3, "via": "mailing address"}, {"owner": "WILSON TIMOTHY R FAMILY TRUST MCGINN KEVIN", "parcels": 2, "via": "mailing address"}, {"owner": "WILSON TIMOTHY R FAMILY TRUST ETAL", "parcels": 1, "via": "mailing address"}, {"owner": "O I C HILLSDALE TOWNHOMES INC AMENDED", "parcels": 1, "via": "mailing address"}], "parcels": [{"parcel_id": "106691", "address": "1518 FATHERLAND ST", "lat": "36.173155", "lon": "-86.742866", "sale_price": -1.0, "sale_date": "", "market_value": 847900.0, "beds": 3.0, "bath": 2.0, "sqft": 1806.0, "year_built": "1995", "acres": 0.18}, {"parcel_id": "152327", "address": "263 38TH AVE N", "lat": "36.146502", "lon": "-86.831454", "sale_price": -1.0, "sale_date": "", "market_value": 623200.0, "beds": 8.0, "bath": 4.0, "sqft": 3024.0, "year_built": "1968", "acres": 0.26}, {"parcel_id": "152328", "address": "265 38TH AVE N", "lat": "36.146655", "lon": "-86.831447", "sale_price": -1.0, "sale_date": "", "market_value": 623200.0, "beds": 8.0, "bath": 4.0, "sqft": 3024.0, "year_built": "1968", "acres": 0.21}, {"parcel_id": "152329", "address": "267 38TH AVE N", "lat": "36.146794", "lon": "-86.831425", "sale_price": -1.0, "sale_date": "", "market_value": 623200.0, "beds": 8.0, "bath": 4.0, "sqft": 3024.0, "year_built": "1968", "acres": 0.23}, {"parcel_id": "152330", "address": "269 38TH AVE N", "lat": "36.14693", "lon": "-86.831401", "sale_price": -1.0, "sale_date": "", "market_value": 566800.0, "beds": 6.0, "bath": 3.0, "sqft": 2268.0, "year_built": "1968", "acres": 0.23}, {"parcel_id": "152331", "address": "271 38TH AVE N", "lat": "36.147065", "lon": "-86.831388", "sale_price": -1.0, "sale_date": "", "market_value": 563300.0, "beds": 6.0, "bath": 3.0, "sqft": 2268.0, "year_built": "1965", "acres": 0.23}, {"parcel_id": "152332", "address": "273 38TH AVE N", "lat": "36.1472", "lon": "-86.831368"}, {"parcel_id": "152675", "address": "3802 SENTINEL DR", "lat": "36.14546", "lon": "-86.831664", "sale_price": 227500.0, "sale_date": "26 Sep 2018", "market_value": 396400.0, "beds": 2.0, "bath": 1.0, "sqft": 744.0, "year_built": "1980", "acres": 0.16}, {"parcel_id": "152780", "address": "256 38TH AVE N", "lat": "36.145908", "lon": "-86.830851", "sale_price": 217000.0, "sale_date": "20 May 2019", "market_value": 382900.0, "beds": 3.0, "bath": 1.0, "sqft": 888.0, "year_built": "1970", "acres": 0.16}, {"parcel_id": "361363", "address": "", "lat": "", "lon": ""}, {"parcel_id": "361364", "address": "", "lat": "", "lon": ""}, {"parcel_id": "361365", "address": "", "lat": "", "lon": ""}, {"parcel_id": "418158", "address": "3611B HILLDALE DR", "lat": "36.113273", "lon": "-86.828266"}]}