{"cluster_id": 840, "name": "J F C ENTERPRISES INC", "entity_count": 2, "parcel_count": 13, "total_market_value": 29823600, "total_acres": 8.1, "owner_names": ["J F C ENTERPRISES INC", "JFC ENTERPRISES INC"], "registered_agents": [], "principal_offices": [], "primary_sos_status": "", "primary_foreign_state": "", "brand": "", "opencorporates": "https://opencorporates.com/companies?q=J+F+C+ENTERPRISES+INC&utf8=%E2%9C%93", "primary_type": "", "portfolio": {"n_parcels_with_acs": 10, "median_income": 52016, "median_home_value": 735833, "pct_renter": 74, "pct_poverty": null, "pct_vacant": 13, "pct_black": 37, "pct_white": 49, "pct_hispanic": 11, "pct_asian": 1}, "related": [{"owner": "JFC ENTERPRISES INC", "parcels": 4, "via": "mailing address"}], "parcels": [{"parcel_id": "161229", "address": "1016 8TH AVE S", "lat": "36.143743", "lon": "-86.778467", "sale_price": -1.0, "sale_date": "", "market_value": 5010100.0, "beds": 0.0, "bath": 0.0, "sqft": 8556.0, "year_built": "1990", "acres": 0.57}, {"parcel_id": "162682", "address": "1100 8TH AVE S", "lat": "36.14334", "lon": "-86.778494", "sale_price": -1.0, "sale_date": "", "market_value": 2713600.0, "beds": 0.0, "bath": 0.0, "sqft": 5000.0, "year_built": "2015", "acres": 0.25}, {"parcel_id": "162785", "address": "1004 8TH AVE S", "lat": "36.144269", "lon": "-86.778522", "sale_price": -1.0, "sale_date": "", "market_value": 6847300.0, "beds": 0.0, "bath": 0.0, "sqft": 14457.0, "year_built": "2000", "acres": 0.74}, {"parcel_id": "162804", "address": "1003 8TH AVE S", "lat": "36.144587", "lon": "-86.779439", "sale_price": -1.0, "sale_date": "", "market_value": 4453100.0, "beds": 0.0, "bath": 0.0, "sqft": 6260.0, "year_built": "1990", "acres": 0.53}, {"parcel_id": "168133", "address": "217 LYLE LN", "lat": "36.128005", "lon": "-86.74149", "sale_price": -1.0, "sale_date": "", "market_value": 2241700.0, "beds": 0.0, "bath": 0.0, "sqft": 20258.0, "year_built": "1985", "acres": 1.33}, {"parcel_id": "168173", "address": "911 TWIN ELMS CT", "lat": "36.14498", "lon": "-86.73754", "sale_price": -1.0, "sale_date": "", "market_value": 3120800.0, "beds": 0.0, "bath": 0.0, "sqft": 15280.0, "year_built": "1980", "acres": 0.96}, {"parcel_id": "168749", "address": "", "lat": "", "lon": ""}, {"parcel_id": "168750", "address": "", "lat": "", "lon": ""}, {"parcel_id": "191168", "address": "2601 CRUZEN ST", "lat": "36.11474", "lon": "-86.752367", "sale_price": -1.0, "sale_date": "", "market_value": 4756400.0, "beds": 0.0, "bath": 0.0, "sqft": 49027.0, "year_built": "1989", "acres": 2.55}, {"parcel_id": "73656", "address": "746 DOUGLAS AVE", "lat": "36.193007", "lon": "-86.754957", "sale_price": -1.0, "sale_date": "", "market_value": 680600.0, "beds": 0.0, "bath": 0.0, "sqft": 6984.0, "year_built": "1971", "acres": 1.21}, {"parcel_id": "97534", "address": "719 MAIN ST", "lat": "36.175396", "lon": "-86.759618"}, {"parcel_id": "97535", "address": "721 MAIN ST", "lat": "36.175457", "lon": "-86.75947"}, {"parcel_id": "97630", "address": "723 MAIN ST", "lat": "36.175544", "lon": "-86.759242"}]}