{"cluster_id": 849, "name": "RALSTON MARY DEE IRREVOCABLE TRUST", "entity_count": 5, "parcel_count": 13, "total_market_value": 5890900, "total_acres": 4.8, "owner_names": ["O I C 4404 HUNT PLACE HOMES", "O I C 4407 BELMONT PARK TERRACE HOMES", "O I C HOMES AT 4401 HUNT PLACE", "RALSTON MARY DEE IRREVOCABLE TRUST", "RALSTON MICHAEL A IRREVOCABLE TRUST"], "registered_agents": [], "principal_offices": [], "primary_sos_status": "", "primary_foreign_state": "", "brand": "", "opencorporates": "https://opencorporates.com/companies?q=RALSTON+MARY+DEE+IRREVOCABLE+TRUST&utf8=%E2%9C%93", "primary_type": "", "portfolio": {"n_parcels_with_acs": 11, "median_income": 156001, "median_home_value": 828791, "pct_renter": 12, "pct_poverty": null, "pct_vacant": 3, "pct_black": 3, "pct_white": 81, "pct_hispanic": 3, "pct_asian": 3}, "related": [{"owner": "RALSTON MICHAEL A IRREVOCABLE TRUST", "parcels": 3, "via": "mailing address"}, {"owner": "O I C 4404 HUNT PLACE HOMES", "parcels": 1, "via": "mailing address"}, {"owner": "O I C 4407 BELMONT PARK TERRACE HOMES", "parcels": 1, "via": "mailing address"}, {"owner": "O I C HOMES AT 4401 HUNT PLACE", "parcels": 1, "via": "mailing address"}], "parcels": [{"parcel_id": "210423", "address": "3505 TRIMBLE RD", "lat": "36.097069", "lon": "-86.830557", "sale_price": -1.0, "sale_date": "", "market_value": 915600.0, "beds": 2.0, "bath": 1.0, "sqft": 1626.0, "year_built": "1975", "acres": 0.89}, {"parcel_id": "212934", "address": "", "lat": "", "lon": ""}, {"parcel_id": "212935", "address": "", "lat": "", "lon": ""}, {"parcel_id": "275190", "address": "5741 BRENTWOOD MEADOWS CIR", "lat": "36.044681", "lon": "-86.747087", "sale_price": -1.0, "sale_date": "", "market_value": 927700.0, "beds": 6.0, "bath": 5.0, "sqft": 4160.0, "year_built": "2000", "acres": 0.39}, {"parcel_id": "275193", "address": "5750 BRENTWOOD MEADOWS CIR", "lat": "36.044556", "lon": "-86.746804", "sale_price": -1.0, "sale_date": "", "market_value": 699700.0, "beds": 4.0, "bath": 5.0, "sqft": 2824.0, "year_built": "2000", "acres": 0.44}, {"parcel_id": "285218", "address": "601 OLD HICKORY BLVD UNIT 13", "lat": "36.038774", "lon": "-86.760245", "sale_price": -1.0, "sale_date": "", "market_value": 465400.0, "beds": 3.0, "bath": 2.5, "sqft": 1568.0, "year_built": "1999", "acres": null}, {"parcel_id": "299707", "address": "6635 HOLT RD", "lat": "36.013311", "lon": "-86.722829", "sale_price": 230000.0, "sale_date": "5 Sep 2014", "market_value": 1046500.0, "beds": 3.0, "bath": 2.0, "sqft": 1863.0, "year_built": "1980", "acres": 3.03}, {"parcel_id": "405790", "address": "4409 BELMONT PARK TER", "lat": "36.095907", "lon": "-86.806403"}, {"parcel_id": "433428", "address": "1807B CASTLEMAN DR", "lat": "36.096781", "lon": "-86.807827"}, {"parcel_id": "460815", "address": "4406B HUNT PL", "lat": "36.095636", "lon": "-86.807068"}, {"parcel_id": "460816", "address": "4406A HUNT PL", "lat": "36.095766", "lon": "-86.807076"}, {"parcel_id": "460819", "address": "4404A HUNT PL", "lat": "36.096063", "lon": "-86.807032", "sale_price": -1.0, "sale_date": "", "market_value": 1836000.0, "beds": 4.0, "bath": 3.5, "sqft": 4119.0, "year_built": "2023", "acres": null}, {"parcel_id": "460820", "address": "4404C HUNT PL", "lat": "36.09598", "lon": "-86.807239"}]}