{"cluster_id": 856, "name": "PERKINS MANAGEMENT LLC", "entity_count": 1, "parcel_count": 13, "total_market_value": 7795000, "total_acres": 3.4, "owner_names": ["PERKINS MANAGEMENT LLC"], "registered_agents": [], "principal_offices": [], "primary_sos_status": "", "primary_foreign_state": "", "brand": "", "opencorporates": "https://opencorporates.com/companies?q=PERKINS+MANAGEMENT+LLC&utf8=%E2%9C%93", "primary_type": "", "portfolio": {"n_parcels_with_acs": 11, "median_income": 169284, "median_home_value": 903527, "pct_renter": 29, "pct_poverty": null, "pct_vacant": 10, "pct_black": 11, "pct_white": 78, "pct_hispanic": 7, "pct_asian": 1}, "related": [], "parcels": [{"parcel_id": "125618", "address": "", "lat": "", "lon": ""}, {"parcel_id": "147104", "address": "832 BROOK HOLLOW RD", "lat": "36.131233", "lon": "-86.882863", "sale_price": 398600.0, "sale_date": "11 Feb 2019", "market_value": 612800.0, "beds": 5.0, "bath": 6.5, "sqft": 6883.0, "year_built": "2026", "acres": 0.97}, {"parcel_id": "163887", "address": "1018 BATE AVE", "lat": "36.13192", "lon": "-86.787095", "sale_price": -1.0, "sale_date": "", "market_value": 558500.0, "beds": 2.0, "bath": 1.0, "sqft": 1040.0, "year_built": "1935", "acres": 0.16}, {"parcel_id": "165699", "address": "1100 LAWRENCE AVE", "lat": "36.129311", "lon": "-86.787654", "sale_price": null, "sale_date": "", "market_value": null, "beds": null, "bath": 0.0, "sqft": null, "year_built": "", "acres": null}, {"parcel_id": "165700", "address": "2113 11TH AVE S", "lat": "36.12965", "lon": "-86.787908", "sale_price": -1.0, "sale_date": "", "market_value": 2561000.0, "beds": 4.0, "bath": 4.5, "sqft": 4826.685, "year_built": "2026", "acres": 0.26}, {"parcel_id": "165945", "address": "940 S DOUGLAS AVE", "lat": "36.130765", "lon": "-86.784987", "sale_price": -1.0, "sale_date": "", "market_value": 762600.0, "beds": 4.0, "bath": 4.5, "sqft": 4931.8375, "year_built": "2026", "acres": 0.25}, {"parcel_id": "186860", "address": "1115 HALCYON AVE", "lat": "36.122373", "lon": "-86.789566", "sale_price": 850000.0, "sale_date": "2 Jan 2026", "market_value": 598100.0, "beds": 2.0, "bath": 1.0, "sqft": 1020.0, "year_built": "1930", "acres": 0.17}, {"parcel_id": "189211", "address": "1001 HALCYON AVE", "lat": "36.122074", "lon": "-86.786707", "sale_price": -1.0, "sale_date": "", "market_value": 813900.0, "beds": 3.0, "bath": 2.0, "sqft": 2231.5, "year_built": "1970", "acres": 0.17}, {"parcel_id": "190899", "address": "2903 SNOWDEN RD", "lat": "36.113803", "lon": "-86.785174", "sale_price": null, "sale_date": "", "market_value": null, "beds": null, "bath": 0.0, "sqft": null, "year_built": "", "acres": null}, {"parcel_id": "240261", "address": "840 BRENTVIEW DR", "lat": "36.07131", "lon": "-86.781527", "sale_price": -1.0, "sale_date": "", "market_value": 1469000.0, "beds": 6.0, "bath": 7.0, "sqft": 6769.0, "year_built": "2026", "acres": 1.05}, {"parcel_id": "478950", "address": "1117 HALCYON AVE", "lat": "36.122388", "lon": "-86.789733"}, {"parcel_id": "78403", "address": "", "lat": "", "lon": ""}, {"parcel_id": "93718", "address": "1006 MONROE ST", "lat": "36.174589", "lon": "-86.796647", "sale_price": 650000.0, "sale_date": "29 May 2020", "market_value": 419100.0, "beds": 9.0, "bath": 3.5, "sqft": 4852.0, "year_built": "2015", "acres": 0.36}]}