{"cluster_id": 878, "name": "PARK HOLDINGS LLC", "entity_count": 5, "parcel_count": 12, "total_market_value": 999855600, "total_acres": 388.3, "owner_names": ["300 BROADWAY LLC", "PARK HOLDINGS LLC", "RHP CORPORATE PROPERTIES LLC", "RHP HOTELS LLC", "SPRINGHOUSE GOLF LLC"], "registered_agents": [], "principal_offices": [], "primary_sos_status": "", "primary_foreign_state": "", "brand": "", "opencorporates": "https://opencorporates.com/companies?q=PARK+HOLDINGS+LLC&utf8=%E2%9C%93", "primary_type": "", "portfolio": {"n_parcels_with_acs": 10, "median_income": 81104, "median_home_value": 349990, "pct_renter": 20, "pct_poverty": null, "pct_vacant": 17, "pct_black": 20, "pct_white": 62, "pct_hispanic": 10, "pct_asian": 1}, "related": [{"owner": "RHP HOTELS LLC", "parcels": 2, "via": "mailing address"}, {"owner": "RHP CORPORATE PROPERTIES LLC", "parcels": 2, "via": "mailing address"}, {"owner": "300 BROADWAY LLC", "parcels": 1, "via": "mailing address"}, {"owner": "SPRINGHOUSE GOLF LLC", "parcels": 1, "via": "mailing address"}], "parcels": [{"parcel_id": "131604", "address": "300 BROADWAY", "lat": "36.161749", "lon": "-86.776291", "sale_price": 6600000.0, "sale_date": "30 Apr 2014", "market_value": 67504100.0, "beds": 0.0, "bath": 0.0, "sqft": 24122.0, "year_built": "2015", "acres": 0.14}, {"parcel_id": "371713", "address": "2825 OPRYLAND DR", "lat": "36.209299", "lon": "-86.695743", "sale_price": -1.0, "sale_date": "", "market_value": 33028800.0, "beds": null, "bath": 0.0, "sqft": 42864.0, "year_built": "2011", "acres": null}, {"parcel_id": "371714", "address": "2806 OPRYLAND DR", "lat": "36.208075", "lon": "-86.691821"}, {"parcel_id": "371720", "address": "1 GAYLORD DR", "lat": "36.19407", "lon": "-86.688834", "sale_price": -1.0, "sale_date": "", "market_value": 13350000.0, "beds": null, "bath": 0.0, "sqft": 0.0, "year_built": "1994", "acres": null}, {"parcel_id": "57961", "address": "2750 PENNINGTON BEND RD", "lat": "36.218522", "lon": "-86.690896"}, {"parcel_id": "58059", "address": "2716 PENNINGTON BEND RD", "lat": "36.22574", "lon": "-86.689242"}, {"parcel_id": "58159", "address": "2724 PENNINGTON BEND RD", "lat": "36.224002", "lon": "-86.689214"}, {"parcel_id": "58162", "address": "", "lat": "", "lon": ""}, {"parcel_id": "58170", "address": "", "lat": "", "lon": ""}, {"parcel_id": "58273", "address": "0 PENNINGTON BEND RD", "lat": "36.224853", "lon": "-86.692146"}, {"parcel_id": "58638", "address": "18 SPRINGHOUSE LN", "lat": "36.218498", "lon": "-86.680263", "sale_price": -1.0, "sale_date": "", "market_value": 10023000.0, "beds": 0.0, "bath": 0.0, "sqft": 51330.0, "year_built": "1990", "acres": 216.36}, {"parcel_id": "79304", "address": "2800 OPRYLAND DR", "lat": "36.213509", "lon": "-86.697452", "sale_price": -1.0, "sale_date": "", "market_value": 875949700.0, "beds": 0.0, "bath": 0.0, "sqft": 2502421.0, "year_built": "1990", "acres": 171.79}]}