{"cluster_id": 884, "name": "SHAAR FORERO PROPERTIES INC", "entity_count": 3, "parcel_count": 12, "total_market_value": 30676900, "total_acres": 22.0, "owner_names": ["515 GALLATIN PIKE LLC", "SHAAR FORERO PROPERTIES INC", "TERRAGON TRAIL LLC"], "registered_agents": [], "principal_offices": [], "primary_sos_status": "", "primary_foreign_state": "", "brand": "", "opencorporates": "https://opencorporates.com/companies?q=SHAAR+FORERO+PROPERTIES+INC&utf8=%E2%9C%93", "primary_type": "", "portfolio": {"n_parcels_with_acs": 10, "median_income": 66604, "median_home_value": 313533, "pct_renter": 55, "pct_poverty": null, "pct_vacant": 12, "pct_black": 34, "pct_white": 35, "pct_hispanic": 26, "pct_asian": 1}, "related": [{"owner": "515 GALLATIN PIKE LLC", "parcels": 3, "via": "mailing address"}, {"owner": "TERRAGON TRAIL LLC", "parcels": 1, "via": "mailing address"}], "parcels": [{"parcel_id": "109991", "address": "3441 LEBANON PIKE", "lat": "36.189483", "lon": "-86.625169", "sale_price": 7777000.0, "sale_date": "30 Dec 2024", "market_value": 7777000.0, "beds": 0.0, "bath": 0.0, "sqft": 0.0, "year_built": "1988", "acres": 5.75}, {"parcel_id": "162131", "address": "74 TRIMBLE ST", "lat": "36.146221", "lon": "-86.757707", "sale_price": -1.0, "sale_date": "", "market_value": 3509800.0, "beds": 0.0, "bath": 0.0, "sqft": 31430.0, "year_built": "1980", "acres": 1.21}, {"parcel_id": "16573", "address": "803 MEADOWLARK LN", "lat": "36.301715", "lon": "-86.703547", "sale_price": -1.0, "sale_date": "", "market_value": 453000.0, "beds": 3.0, "bath": 1.0, "sqft": 1395.0, "year_built": "1958", "acres": 0.74}, {"parcel_id": "17433", "address": "517 MYATT DR", "lat": "36.280622", "lon": "-86.690797", "sale_price": -1.0, "sale_date": "", "market_value": 1416700.0, "beds": 0.0, "bath": 0.0, "sqft": 13569.0, "year_built": "1987", "acres": 2.12}, {"parcel_id": "17435", "address": "", "lat": "", "lon": ""}, {"parcel_id": "242785", "address": "4854 NOLENSVILLE PIKE", "lat": "36.064473", "lon": "-86.715988", "sale_price": 6600000.0, "sale_date": "14 Dec 2022", "market_value": 12927000.0, "beds": 0.0, "bath": 0.0, "sqft": 101229.0, "year_built": "1980", "acres": 8.96}, {"parcel_id": "34701", "address": "513 GALLATIN PIKE S", "lat": "36.257946", "lon": "-86.713256", "sale_price": -1.0, "sale_date": "", "market_value": 697300.0, "beds": null, "bath": 0.0, "sqft": 5881.0, "year_built": "1950", "acres": 0.41}, {"parcel_id": "34704", "address": "523 GALLATIN PIKE S", "lat": "36.257573", "lon": "-86.713408", "sale_price": -1.0, "sale_date": "", "market_value": 1138900.0, "beds": null, "bath": 0.0, "sqft": 10492.0, "year_built": "1950", "acres": 0.76}, {"parcel_id": "34706", "address": "105 HARRINGTON AVE", "lat": "36.257532", "lon": "-86.712966", "sale_price": -1.0, "sale_date": "", "market_value": 319100.0, "beds": 5.0, "bath": 2.0, "sqft": 2021.0, "year_built": "1931", "acres": 0.38}, {"parcel_id": "65716", "address": "4425 ASHLAND CITY HWY", "lat": "36.20841", "lon": "-86.865315", "sale_price": 100000.0, "sale_date": "14 May 2015", "market_value": 336800.0, "beds": 0.0, "bath": 0.0, "sqft": 2939.0, "year_built": "1950", "acres": 0.95}, {"parcel_id": "71008", "address": "303 W TRINITY LN", "lat": "36.207043", "lon": "-86.779236", "sale_price": 275000.0, "sale_date": "1 Jul 2013", "market_value": 966700.0, "beds": 0.0, "bath": 0.0, "sqft": 4280.0, "year_built": "2000", "acres": 0.3}, {"parcel_id": "74867", "address": "3403 GALLATIN PIKE", "lat": "36.21017", "lon": "-86.734127", "sale_price": 303000.0, "sale_date": "20 Nov 2013", "market_value": 1134600.0, "beds": 0.0, "bath": 0.0, "sqft": 7574.0, "year_built": "1980", "acres": 0.4}]}