{"cluster_id": 897, "name": "AUTOZONE INC", "entity_count": 5, "parcel_count": 12, "total_market_value": 26961700, "total_acres": 10.5, "owner_names": ["AUTO ZONE DEVELOPMENT CORP", "AUTOZONE DEVELOPMENT CORP", "AUTOZONE INC", "AZ TENNESSEE LLC", "COLE AZ NASHVILLE TN LLC"], "registered_agents": [], "principal_offices": [], "primary_sos_status": "", "primary_foreign_state": "", "brand": "", "opencorporates": "https://opencorporates.com/companies?q=AUTOZONE+INC&utf8=%E2%9C%93", "primary_type": "", "portfolio": {"n_parcels_with_acs": 10, "median_income": 89060, "median_home_value": 407517, "pct_renter": 43, "pct_poverty": null, "pct_vacant": 12, "pct_black": 22, "pct_white": 61, "pct_hispanic": 13, "pct_asian": 2}, "related": [{"owner": "AUTOZONE DEVELOPMENT CORP", "parcels": 2, "via": "mailing address"}, {"owner": "COLE AZ NASHVILLE TN LLC", "parcels": 1, "via": "mailing address"}, {"owner": "AUTO ZONE DEVELOPMENT CORP", "parcels": 1, "via": "mailing address"}, {"owner": "AZ TENNESSEE LLC", "parcels": 1, "via": "mailing address"}], "parcels": [{"parcel_id": "120914", "address": "3913 CHARLOTTE AVE", "lat": "36.15218", "lon": "-86.833328", "sale_price": -1.0, "sale_date": "", "market_value": 4335400.0, "beds": 0.0, "bath": 0.0, "sqft": 7620.0, "year_built": "1996", "acres": 0.86}, {"parcel_id": "145797", "address": "6217 CHARLOTTE PIKE", "lat": "36.145591", "lon": "-86.870468", "sale_price": -1.0, "sale_date": "", "market_value": 3089100.0, "beds": 0.0, "bath": 0.0, "sqft": 8521.0, "year_built": "1996", "acres": 1.01}, {"parcel_id": "167536", "address": "1007 MURFREESBORO PIKE", "lat": "36.127986", "lon": "-86.713451", "sale_price": -1.0, "sale_date": "", "market_value": 1640500.0, "beds": null, "bath": 0.0, "sqft": 6840.0, "year_built": "2010", "acres": 0.66}, {"parcel_id": "195313", "address": "2917 NOLENSVILLE PIKE", "lat": "36.109599", "lon": "-86.745171", "sale_price": -1.0, "sale_date": "", "market_value": 1819400.0, "beds": 0.0, "bath": 0.0, "sqft": 7475.0, "year_built": "2006", "acres": 0.69}, {"parcel_id": "222597", "address": "2340 MURFREESBORO PIKE", "lat": "36.084557", "lon": "-86.646963", "sale_price": -1.0, "sale_date": "", "market_value": 1792000.0, "beds": 0.0, "bath": 0.0, "sqft": 6795.0, "year_built": "2004", "acres": null}, {"parcel_id": "24550", "address": "501 GALLATIN PIKE N", "lat": "36.26739", "lon": "-86.711385", "sale_price": -1.0, "sale_date": "", "market_value": 2311200.0, "beds": null, "bath": 0.0, "sqft": 16138.0, "year_built": "1995", "acres": 1.09}, {"parcel_id": "246489", "address": "4815 NOLENSVILLE PIKE", "lat": "36.06488", "lon": "-86.717817", "sale_price": -1.0, "sale_date": "", "market_value": 1443300.0, "beds": 0.0, "bath": 0.0, "sqft": 7429.0, "year_built": "1994", "acres": 1.02}, {"parcel_id": "65915", "address": "3712 CLARKSVILLE PIKE", "lat": "36.199109", "lon": "-86.837855", "sale_price": -1.0, "sale_date": "", "market_value": 1424800.0, "beds": 0.0, "bath": 0.0, "sqft": 6850.0, "year_built": "1996", "acres": 1.78}, {"parcel_id": "66021", "address": "0 BELLEFIELD AVE", "lat": "36.199607", "lon": "-86.837633"}, {"parcel_id": "6828", "address": "327 N MAIN ST", "lat": "36.326405", "lon": "-86.713498", "sale_price": -1.0, "sale_date": "", "market_value": 1542600.0, "beds": 0.0, "bath": 0.0, "sqft": 6360.0, "year_built": "2003", "acres": 0.97}, {"parcel_id": "76286", "address": "2800 GALLATIN PIKE", "lat": "36.199788", "lon": "-86.73993", "sale_price": -1.0, "sale_date": "", "market_value": 6156800.0, "beds": 0.0, "bath": 0.0, "sqft": 6768.0, "year_built": "2005", "acres": 1.6}, {"parcel_id": "83074", "address": "4609 ANDREW JACKSON PKWY", "lat": "36.214256", "lon": "-86.597091", "sale_price": -1.0, "sale_date": "", "market_value": 1406600.0, "beds": 0.0, "bath": 0.0, "sqft": 6395.0, "year_built": "1992", "acres": 0.79}]}