{"cluster_id": 906, "name": "GIRL TRIBE VENTURES LLC", "entity_count": 6, "parcel_count": 12, "total_market_value": 2986100, "total_acres": 1.1, "owner_names": ["DLSM FAMILY TRUST", "DLSM FAMILY TRUST DREAM REAL ESTATE LLC", "DLSM FAMILY TRUST THE", "GIRL TRIBE VENTURES LLC", "GIRL TRIBE VENTURES LLC MCELVY STEPHANIE ETAL", "GIRL TRIBE VINTURES LLC"], "registered_agents": [], "principal_offices": [], "primary_sos_status": "", "primary_foreign_state": "", "brand": "", "opencorporates": "https://opencorporates.com/companies?q=GIRL+TRIBE+VENTURES+LLC&utf8=%E2%9C%93", "primary_type": "", "portfolio": {"n_parcels_with_acs": 11, "median_income": 84824, "median_home_value": 510940, "pct_renter": 59, "pct_poverty": null, "pct_vacant": 9, "pct_black": 25, "pct_white": 60, "pct_hispanic": 5, "pct_asian": 3}, "related": [{"owner": "DLSM FAMILY TRUST", "parcels": 2, "via": "mailing address"}, {"owner": "DLSM FAMILY TRUST THE", "parcels": 2, "via": "mailing address"}, {"owner": "GIRL TRIBE VENTURES LLC MCELVY STEPHANIE ETAL", "parcels": 1, "via": "mailing address"}, {"owner": "GIRL TRIBE VINTURES LLC", "parcels": 1, "via": "mailing address"}, {"owner": "DLSM FAMILY TRUST DREAM REAL ESTATE LLC", "parcels": 1, "via": "mailing address"}], "parcels": [{"parcel_id": "113177", "address": "515 BASSWOOD AVE # 149", "lat": "36.155509", "lon": "-86.88629", "sale_price": -1.0, "sale_date": "", "market_value": 210400.0, "beds": 2.0, "bath": 1.0, "sqft": 968.0, "year_built": "1973", "acres": 0.0}, {"parcel_id": "146191", "address": "276 WHITE BRIDGE PIKE APT 61", "lat": "36.143028", "lon": "-86.85663", "sale_price": 129900.0, "sale_date": "8 Jul 2021", "market_value": 142100.0, "beds": 1.0, "bath": 1.0, "sqft": 567.0, "year_built": "1965", "acres": 0.0}, {"parcel_id": "147224", "address": "6680 CHARLOTTE PIKE APT B5", "lat": "36.137903", "lon": "-86.884107", "sale_price": -1.0, "sale_date": "", "market_value": 219300.0, "beds": 2.0, "bath": 1.0, "sqft": 963.0, "year_built": "2005", "acres": 0.0}, {"parcel_id": "148337", "address": "261 WHITE BRIDGE PIKE APT 105", "lat": "36.142673", "lon": "-86.857897", "sale_price": 55000.0, "sale_date": "3 Feb 2016", "market_value": 142100.0, "beds": 1.0, "bath": 1.0, "sqft": 567.0, "year_built": "1965", "acres": 0.0}, {"parcel_id": "148457", "address": "261 WHITE BRIDGE PIKE APT 138", "lat": "36.142779", "lon": "-86.857914", "sale_price": -1.0, "sale_date": "", "market_value": 142100.0, "beds": 1.0, "bath": 1.0, "sqft": 567.0, "year_built": "1965", "acres": 0.0}, {"parcel_id": "148458", "address": "261 WHITE BRIDGE PIKE APT 139", "lat": "36.142726", "lon": "-86.857906", "sale_price": -1.0, "sale_date": "", "market_value": 142100.0, "beds": 1.0, "bath": 1.0, "sqft": 567.0, "year_built": "1965", "acres": 0.0}, {"parcel_id": "29848", "address": "118 NEWELL AVE", "lat": "36.271507", "lon": "-86.664539", "sale_price": 151000.0, "sale_date": "1 Feb 2022", "market_value": 103700.0, "beds": 3.0, "bath": 1.0, "sqft": 1080.0, "year_built": "1930", "acres": 0.08}, {"parcel_id": "50747", "address": "708 MOORMANS ARM RD", "lat": "36.21708", "lon": "-86.810726", "sale_price": 212500.0, "sale_date": "26 Mar 2026", "market_value": 241600.0, "beds": 3.0, "bath": 1.0, "sqft": 1430.0, "year_built": "1966", "acres": 0.2}, {"parcel_id": "87899", "address": "1718 COUNTY HOSPITAL RD", "lat": "36.190257", "lon": "-86.836306", "sale_price": 185000.0, "sale_date": "8 Sep 2021", "market_value": 284800.0, "beds": 2.0, "bath": 1.0, "sqft": 784.0, "year_built": "1936", "acres": 0.27}, {"parcel_id": "91969", "address": "1606 16TH AVE N", "lat": "36.175822", "lon": "-86.805566", "sale_price": 481000.0, "sale_date": "13 Dec 2021", "market_value": 246500.0, "beds": 8.0, "bath": 4.0, "sqft": 2505.0, "year_built": "1960", "acres": 0.19}, {"parcel_id": "96224", "address": "885 W SHARPE AVE", "lat": "36.190989", "lon": "-86.754972", "sale_price": -1.0, "sale_date": "", "market_value": 591200.0, "beds": 4.0, "bath": 3.5, "sqft": 2268.0, "year_built": "2010", "acres": 0.16}, {"parcel_id": "99363", "address": "1000 W MCKENNIE AVE", "lat": "36.191802", "lon": "-86.74996", "sale_price": 490000.0, "sale_date": "14 Apr 2026", "market_value": 520200.0, "beds": 3.0, "bath": 2.0, "sqft": 1164.0, "year_built": "2000", "acres": 0.19}]}