{"cluster_id": 911, "name": "EAST SIDE PROPERTIES LLC", "entity_count": 2, "parcel_count": 12, "total_market_value": 4389450, "total_acres": 2.9, "owner_names": ["EAST SIDE PROPERTIES LLC", "EASTSIDE PROPERTIES LLC"], "registered_agents": [], "principal_offices": [], "primary_sos_status": "", "primary_foreign_state": "", "brand": "", "opencorporates": "https://opencorporates.com/companies?q=EAST+SIDE+PROPERTIES+LLC&utf8=%E2%9C%93", "primary_type": "", "portfolio": {"n_parcels_with_acs": 12, "median_income": 114177, "median_home_value": 511850, "pct_renter": 41, "pct_poverty": null, "pct_vacant": 15, "pct_black": 17, "pct_white": 69, "pct_hispanic": 7, "pct_asian": 2}, "related": [{"owner": "EASTSIDE PROPERTIES LLC", "parcels": 2, "via": "mailing address"}], "parcels": [{"parcel_id": "102259", "address": "412 SCOTT AVE", "lat": "36.190499", "lon": "-86.733034", "sale_price": -1.0, "sale_date": "", "market_value": 375400.0, "beds": 2.0, "bath": 1.0, "sqft": 892.0, "year_built": "1948", "acres": 0.26}, {"parcel_id": "106437", "address": "2601 BRITTANY DR", "lat": "36.177071", "lon": "-86.715821", "sale_price": 165000.0, "sale_date": "29 Feb 2016", "market_value": 518750.0, "beds": 3.0, "bath": 2.0, "sqft": 0.0, "year_built": "1957", "acres": 0.68}, {"parcel_id": "217288", "address": "239 WHEELER AVE", "lat": "36.095169", "lon": "-86.733597", "sale_price": -1.0, "sale_date": "", "market_value": 280000.0, "beds": 4.0, "bath": 1.0, "sqft": 0.0, "year_built": "1941", "acres": 0.45}, {"parcel_id": "390734", "address": "1416 CHESTER AVE", "lat": "36.194337", "lon": "-86.733541"}, {"parcel_id": "71352", "address": "308 MARSHALL ST", "lat": "36.201152", "lon": "-86.765108", "sale_price": -1.0, "sale_date": "", "market_value": 442200.0, "beds": 3.0, "bath": 1.0, "sqft": 992.0, "year_built": "1980", "acres": 0.18}, {"parcel_id": "71470", "address": "313 PULLEN AVE", "lat": "36.200701", "lon": "-86.765194", "sale_price": -1.0, "sale_date": "", "market_value": 425300.0, "beds": 3.0, "bath": 2.0, "sqft": 1598.75, "year_built": "1980", "acres": 0.18}, {"parcel_id": "76153", "address": "1027 FAIRWIN AVE", "lat": "36.19855", "lon": "-86.742081", "sale_price": -1.0, "sale_date": "", "market_value": 526200.0, "beds": 4.0, "bath": 2.0, "sqft": 2175.0, "year_built": "1975", "acres": 0.22}, {"parcel_id": "78020", "address": "1414 CHESTER AVE", "lat": "36.194357", "lon": "-86.733704", "sale_price": -1.0, "sale_date": "", "market_value": 397500.0, "beds": 3.0, "bath": 1.0, "sqft": 1251.0, "year_built": "1938", "acres": 0.19}, {"parcel_id": "79358", "address": "2413 N 16TH ST", "lat": "36.194012", "lon": "-86.737412", "sale_price": -1.0, "sale_date": "", "market_value": 365000.0, "beds": 2.0, "bath": 1.0, "sqft": 0.0, "year_built": "1985", "acres": 0.18}, {"parcel_id": "79827", "address": "1617 NORTHVIEW AVE", "lat": "36.197279", "lon": "-86.735258", "sale_price": -1.0, "sale_date": "", "market_value": 397500.0, "beds": 3.0, "bath": 1.0, "sqft": 1008.0, "year_built": "1936", "acres": 0.19}, {"parcel_id": "79910", "address": "919 WEST AVE", "lat": "36.194385", "lon": "-86.751296", "sale_price": -1.0, "sale_date": "", "market_value": 290600.0, "beds": 2.0, "bath": 1.0, "sqft": 870.0, "year_built": "1975", "acres": 0.22}, {"parcel_id": "97277", "address": "1110 N 5TH ST", "lat": "36.191524", "lon": "-86.762623", "sale_price": -1.0, "sale_date": "", "market_value": 371000.0, "beds": 2.0, "bath": 1.0, "sqft": 0.0, "year_built": "1980", "acres": 0.16}]}