{"cluster_id": 920, "name": "GJR DEVELOPMENT LLC", "entity_count": 1, "parcel_count": 12, "total_market_value": 0, "total_acres": 0.0, "owner_names": ["GJR DEVELOPMENT LLC"], "registered_agents": [], "principal_offices": [], "primary_sos_status": "", "primary_foreign_state": "", "brand": "", "opencorporates": "https://opencorporates.com/companies?q=GJR+DEVELOPMENT+LLC&utf8=%E2%9C%93", "primary_type": "", "portfolio": {"n_parcels_with_acs": 5, "median_income": 52250, "median_home_value": 249300, "pct_renter": 16, "pct_poverty": null, "pct_vacant": 12, "pct_black": 14, "pct_white": 25, "pct_hispanic": 45, "pct_asian": 20}, "related": [], "parcels": [{"parcel_id": "271930", "address": "", "lat": "", "lon": ""}, {"parcel_id": "271931", "address": "", "lat": "", "lon": ""}, {"parcel_id": "271942", "address": "", "lat": "", "lon": ""}, {"parcel_id": "273483", "address": "", "lat": "", "lon": ""}, {"parcel_id": "273901", "address": "", "lat": "", "lon": ""}, {"parcel_id": "273904", "address": "", "lat": "", "lon": ""}, {"parcel_id": "273906", "address": "", "lat": "", "lon": ""}, {"parcel_id": "373497", "address": "737 HILL BENNETT CIR", "lat": "36.055487", "lon": "-86.692425"}, {"parcel_id": "373498", "address": "608 HAYS BLACKMAN LOOP", "lat": "36.056682", "lon": "-86.692428"}, {"parcel_id": "373499", "address": "635 B HAYS BLACKMAN LOOP", "lat": "36.056435", "lon": "-86.691229"}, {"parcel_id": "373500", "address": "0 TUSCULUM RD", "lat": "36.055617", "lon": "-86.693378"}, {"parcel_id": "377266", "address": "0 TUSCULUM RD", "lat": "36.054644", "lon": "-86.69182"}]}