{"cluster_id": 930, "name": "KRANTZ THOMAS LINDA REVOVABLE LIVING TRUST ETAL", "entity_count": 2, "parcel_count": 12, "total_market_value": 3946800, "total_acres": 10.2, "owner_names": ["KRANTZ THOMAS LINDA REVOVABLE LIVING TRUST ETAL", "THOMAS ANS LINDA KRANTZ REVOCABLE LIVING TRUST"], "registered_agents": [], "principal_offices": [], "primary_sos_status": "", "primary_foreign_state": "", "brand": "", "opencorporates": "https://opencorporates.com/companies?q=KRANTZ+THOMAS+LINDA+REVOVABLE+LIVING+TRUST+ETAL&utf8=%E2%9C%93", "primary_type": "", "portfolio": {"n_parcels_with_acs": 11, "median_income": 79148, "median_home_value": 368608, "pct_renter": 31, "pct_poverty": null, "pct_vacant": 6, "pct_black": 48, "pct_white": 40, "pct_hispanic": 9, "pct_asian": 0}, "related": [{"owner": "THOMAS ANS LINDA KRANTZ REVOCABLE LIVING TRUST", "parcels": 2, "via": "mailing address"}], "parcels": [{"parcel_id": "14922", "address": "538 THOMAS JEFFERSON CIR", "lat": "36.291254", "lon": "-86.708924", "sale_price": -1.0, "sale_date": "", "market_value": 215700.0, "beds": 2.0, "bath": 1.5, "sqft": 1078.0, "year_built": "1990", "acres": 0.0}, {"parcel_id": "19052", "address": "5365 SIMPKINS RD", "lat": "36.278447", "lon": "-86.864257", "sale_price": -1.0, "sale_date": "", "market_value": 364400.0, "beds": 3.0, "bath": 2.0, "sqft": 1971.0, "year_built": "1998", "acres": 8.02}, {"parcel_id": "31080", "address": "5255 BUENA VISTA PIKE", "lat": "36.241195", "lon": "-86.828944", "sale_price": -1.0, "sale_date": "", "market_value": 337400.0, "beds": 3.0, "bath": 1.5, "sqft": 1450.0, "year_built": "1967", "acres": 1.1}, {"parcel_id": "39887", "address": "1301 NEELYS BEND RD # 39", "lat": "36.242165", "lon": "-86.672048", "sale_price": -1.0, "sale_date": "", "market_value": 217600.0, "beds": 3.0, "bath": 2.0, "sqft": 1396.0, "year_built": "1976", "acres": 0.0}, {"parcel_id": "407447", "address": "5544 BRICK CHURCH PIKE", "lat": "36.333567", "lon": "-86.733172", "sale_price": -1.0, "sale_date": "", "market_value": 1077900.0, "beds": 2.0, "bath": 3.5, "sqft": 2480.0, "year_built": "2015", "acres": null}, {"parcel_id": "411529", "address": "5550 BRICK CHURCH PIKE", "lat": "36.333046", "lon": "-86.732275"}, {"parcel_id": "42201", "address": "1301 NEELYS BEND RD # 82", "lat": "36.242758", "lon": "-86.670645", "sale_price": -1.0, "sale_date": "", "market_value": 177600.0, "beds": 2.0, "bath": 1.5, "sqft": 1280.0, "year_built": "1976", "acres": 0.0}, {"parcel_id": "47511", "address": "704 PAIGE CIR", "lat": "36.220993", "lon": "-86.806473", "sale_price": -1.0, "sale_date": "", "market_value": 270800.0, "beds": 3.0, "bath": 2.0, "sqft": 1354.0, "year_built": "1987", "acres": 0.16}, {"parcel_id": "49871", "address": "822 HILLMORE DR", "lat": "36.215679", "lon": "-86.820715", "sale_price": -1.0, "sale_date": "", "market_value": 258200.0, "beds": 2.0, "bath": 1.5, "sqft": 1116.0, "year_built": "1985", "acres": 0.3}, {"parcel_id": "69009", "address": "2107 W SUMMITT AVE", "lat": "36.196051", "lon": "-86.832802", "sale_price": -1.0, "sale_date": "", "market_value": 265200.0, "beds": 3.0, "bath": 1.5, "sqft": 1150.0, "year_built": "1959", "acres": 0.44}, {"parcel_id": "87912", "address": "1709 S HAMILTON RD", "lat": "36.189062", "lon": "-86.836627", "sale_price": -1.0, "sale_date": "", "market_value": 358800.0, "beds": 4.0, "bath": 3.0, "sqft": 1792.0, "year_built": "1980", "acres": 0.23}, {"parcel_id": "90723", "address": "2700 HYDES FERRY RD", "lat": "36.178668", "lon": "-86.834013", "sale_price": -1.0, "sale_date": "", "market_value": 403200.0, "beds": 3.0, "bath": 2.5, "sqft": 1496.0, "year_built": "2003", "acres": null}]}