{"cluster_id": 933, "name": "MORRIS COMMUNITY PROPERTY TRUST THE", "entity_count": 1, "parcel_count": 12, "total_market_value": 2865470, "total_acres": 21.2, "owner_names": ["MORRIS COMMUNITY PROPERTY TRUST THE"], "registered_agents": [], "principal_offices": [], "primary_sos_status": "", "primary_foreign_state": "", "brand": "", "opencorporates": "https://opencorporates.com/companies?q=MORRIS+COMMUNITY+PROPERTY+TRUST+THE&utf8=%E2%9C%93", "primary_type": "", "portfolio": {"n_parcels_with_acs": 12, "median_income": 72503, "median_home_value": 402400, "pct_renter": 50, "pct_poverty": null, "pct_vacant": 4, "pct_black": 10, "pct_white": 65, "pct_hispanic": 20, "pct_asian": 0}, "related": [], "parcels": [{"parcel_id": "3094", "address": "6509 LICKTON PIKE", "lat": "36.346285", "lon": "-86.730714", "sale_price": -1.0, "sale_date": "", "market_value": 507370.0, "beds": 3.0, "bath": 4.0, "sqft": 2442.0, "year_built": "1990", "acres": 15.55}, {"parcel_id": "4424", "address": "6126 LICKTON PIKE", "lat": "36.344028", "lon": "-86.758687", "sale_price": 52500.0, "sale_date": "16 Jul 2015", "market_value": 241700.0, "beds": 2.0, "bath": 1.0, "sqft": 1363.0, "year_built": "1956", "acres": 0.27}, {"parcel_id": "4773", "address": "6005 LICKTON PIKE", "lat": "36.341615", "lon": "-86.767902", "sale_price": 175000.0, "sale_date": "2 Oct 2020", "market_value": 301900.0, "beds": 2.0, "bath": 1.0, "sqft": 1166.0, "year_built": "1965", "acres": 2.42}, {"parcel_id": "5532", "address": "307 CHURCH ST", "lat": "36.326154", "lon": "-86.711316", "sale_price": 108900.0, "sale_date": "27 Oct 2017", "market_value": 190800.0, "beds": 2.0, "bath": 1.0, "sqft": 704.0, "year_built": "2006", "acres": 0.23}, {"parcel_id": "5962", "address": "211A PEAR ORCHARD DR", "lat": "36.341581", "lon": "-86.722345", "sale_price": 250000.0, "sale_date": "26 May 2022", "market_value": 361000.0, "beds": 4.0, "bath": 2.0, "sqft": 1656.0, "year_built": "1968", "acres": 1.46}, {"parcel_id": "6099", "address": "112 DORRIS AVE", "lat": "36.328523", "lon": "-86.716369", "sale_price": -1.0, "sale_date": "", "market_value": 242700.0, "beds": 4.0, "bath": 2.0, "sqft": 1456.0, "year_built": "1952", "acres": 0.49}, {"parcel_id": "6465", "address": "406 BASS ST", "lat": "36.327508", "lon": "-86.713152", "sale_price": -1.0, "sale_date": "", "market_value": 182200.0, "beds": 2.0, "bath": 1.0, "sqft": 876.0, "year_built": "1980", "acres": 0.19}, {"parcel_id": "6466", "address": "404 BASS ST", "lat": "36.327367", "lon": "-86.713131", "sale_price": null, "sale_date": "", "market_value": null, "beds": null, "bath": 0.0, "sqft": null, "year_built": "", "acres": null}, {"parcel_id": "7191", "address": "409 BASS ST", "lat": "36.327762", "lon": "-86.712584", "sale_price": -1.0, "sale_date": "", "market_value": 304400.0, "beds": 3.0, "bath": 2.0, "sqft": 1152.0, "year_built": "2025", "acres": 0.16}, {"parcel_id": "7192", "address": "407 BASS ST", "lat": "36.327629", "lon": "-86.712544", "sale_price": -1.0, "sale_date": "", "market_value": 180000.0, "beds": 2.0, "bath": 1.0, "sqft": 1097.0, "year_built": "1960", "acres": 0.16}, {"parcel_id": "7194", "address": "403 BASS ST", "lat": "36.327278", "lon": "-86.712613", "sale_price": 60000.0, "sale_date": "8 Aug 2016", "market_value": 147400.0, "beds": 3.0, "bath": 1.0, "sqft": 966.0, "year_built": "1980", "acres": 0.11}, {"parcel_id": "7195", "address": "404 CHURCH ST", "lat": "36.327309", "lon": "-86.712328", "sale_price": -1.0, "sale_date": "", "market_value": 206000.0, "beds": 2.0, "bath": 1.0, "sqft": 988.0, "year_built": "2010", "acres": 0.18}]}