{"cluster_id": 957, "name": "TDG PROPERTIES LLC", "entity_count": 2, "parcel_count": 12, "total_market_value": 4442500, "total_acres": 0.8, "owner_names": ["TDG BYRDSTOWN LLC", "TDG PROPERTIES LLC"], "registered_agents": [], "principal_offices": [], "primary_sos_status": "", "primary_foreign_state": "", "brand": "", "opencorporates": "https://opencorporates.com/companies?q=TDG+PROPERTIES+LLC&utf8=%E2%9C%93", "primary_type": "", "portfolio": {"n_parcels_with_acs": 12, "median_income": 93090, "median_home_value": 355292, "pct_renter": 34, "pct_poverty": null, "pct_vacant": 6, "pct_black": 25, "pct_white": 53, "pct_hispanic": 14, "pct_asian": 3}, "related": [{"owner": "TDG BYRDSTOWN LLC", "parcels": 2, "via": "mailing address"}], "parcels": [{"parcel_id": "113238", "address": "5602 ROYAL CT", "lat": "36.183985", "lon": "-86.587253", "sale_price": 262000.0, "sale_date": "25 Sep 2020", "market_value": 362700.0, "beds": 3.0, "bath": 2.0, "sqft": 1406.0, "year_built": "1994", "acres": 0.13}, {"parcel_id": "114797", "address": "5907 COLCHESTER DR", "lat": "36.181875", "lon": "-86.584762", "sale_price": 235000.0, "sale_date": "9 Jul 2020", "market_value": 336200.0, "beds": 3.0, "bath": 2.5, "sqft": 1320.0, "year_built": "1991", "acres": 0.13}, {"parcel_id": "141401", "address": "350 HICKORY PL", "lat": "36.158557", "lon": "-86.642119", "sale_price": 219000.0, "sale_date": "27 Apr 2023", "market_value": 262400.0, "beds": 2.0, "bath": 3.0, "sqft": 1176.0, "year_built": "1995", "acres": 0.0}, {"parcel_id": "199860", "address": "308 DOE RIDGE CT", "lat": "36.119347", "lon": "-86.627298", "sale_price": 237500.0, "sale_date": "9 Aug 2021", "market_value": 284500.0, "beds": 2.0, "bath": 2.5, "sqft": 1280.0, "year_built": "2010", "acres": null}, {"parcel_id": "283322", "address": "2220 GREEN TRAILS DR", "lat": "36.04022", "lon": "-86.701474", "sale_price": 285000.0, "sale_date": "12 Aug 2020", "market_value": 428100.0, "beds": 3.0, "bath": 2.5, "sqft": 2019.0, "year_built": "2001", "acres": null}, {"parcel_id": "284080", "address": "3729 ASHEFORD TRCE", "lat": "36.043065", "lon": "-86.62495", "sale_price": 255000.0, "sale_date": "30 Jul 2020", "market_value": 373700.0, "beds": 3.0, "bath": 3.0, "sqft": 1967.25, "year_built": "1997", "acres": 0.19}, {"parcel_id": "371799", "address": "148 IVY HILL LN", "lat": "36.301301", "lon": "-86.729776", "sale_price": 249000.0, "sale_date": "3 Jan 2020", "market_value": 351400.0, "beds": 3.0, "bath": 2.0, "sqft": 1893.69, "year_built": "2007", "acres": null}, {"parcel_id": "426268", "address": "432 ELEGANCE WAY", "lat": "36.179547", "lon": "-86.596045", "sale_price": 295000.0, "sale_date": "12 Mar 2021", "market_value": 387000.0, "beds": 3.0, "bath": 2.5, "sqft": 1694.0, "year_built": "2017", "acres": null}, {"parcel_id": "426274", "address": "1037 SADDLESTONE DR", "lat": "36.178629", "lon": "-86.595855", "sale_price": 250000.0, "sale_date": "12 Oct 2020", "market_value": 337200.0, "beds": 3.0, "bath": 2.5, "sqft": 1368.0, "year_built": "2017", "acres": null}, {"parcel_id": "58584", "address": "4469 FROST ST", "lat": "36.237519", "lon": "-86.694766", "sale_price": 283000.0, "sale_date": "8 Sep 2020", "market_value": 389700.0, "beds": 3.0, "bath": 2.5, "sqft": 1464.0, "year_built": "2004", "acres": null}, {"parcel_id": "87528", "address": "5004 WALDEN WOODS DR", "lat": "36.195919", "lon": "-86.591364", "sale_price": 303200.0, "sale_date": "13 Aug 2019", "market_value": 503600.0, "beds": 3.0, "bath": 2.5, "sqft": 2683.0, "year_built": "2005", "acres": 0.18}, {"parcel_id": "9191", "address": "120 CORBRIDGE CT", "lat": "36.315902", "lon": "-86.690807", "sale_price": 276900.0, "sale_date": "25 Sep 2020", "market_value": 426000.0, "beds": 3.0, "bath": 2.0, "sqft": 2080.0, "year_built": "1986", "acres": 0.15}]}