{"cluster_id": 960, "name": "TWENTY LLC", "entity_count": 1, "parcel_count": 12, "total_market_value": 3935500, "total_acres": 0.9, "owner_names": ["TWENTY LLC"], "registered_agents": [], "principal_offices": [], "primary_sos_status": "", "primary_foreign_state": "", "brand": "", "opencorporates": "https://opencorporates.com/companies?q=TWENTY+LLC&utf8=%E2%9C%93", "primary_type": "", "portfolio": {"n_parcels_with_acs": 12, "median_income": 96201, "median_home_value": 645600, "pct_renter": 69, "pct_poverty": null, "pct_vacant": 16, "pct_black": 13, "pct_white": 76, "pct_hispanic": 6, "pct_asian": 3}, "related": [], "parcels": [{"parcel_id": "103122", "address": "1414 MCKENNIE AVE", "lat": "36.190716", "lon": "-86.740444", "sale_price": 442388.0, "sale_date": "15 Sep 2025", "market_value": 443100.0, "beds": 4.0, "bath": 3.0, "sqft": 1968.92, "year_built": "1995", "acres": 0.22}, {"parcel_id": "105124", "address": "124 S 17TH ST", "lat": "36.174643", "lon": "-86.739947", "sale_price": -1.0, "sale_date": "", "market_value": 1842700.0, "beds": 5.0, "bath": 6.0, "sqft": 4424.0, "year_built": "2015", "acres": 0.22}, {"parcel_id": "474723", "address": "931A JACKSON ST", "lat": "36.170693", "lon": "-86.793359"}, {"parcel_id": "474724", "address": "931B JACKSON ST", "lat": "36.170637", "lon": "-86.793315"}, {"parcel_id": "474725", "address": "931C JACKSON ST", "lat": "36.170581", "lon": "-86.793275"}, {"parcel_id": "474726", "address": "929A JACKSON ST", "lat": "36.17074", "lon": "-86.793256"}, {"parcel_id": "474727", "address": "929B JACKSON ST", "lat": "36.170679", "lon": "-86.793221"}, {"parcel_id": "474728", "address": "929C JACKSON ST", "lat": "36.170622", "lon": "-86.793185"}, {"parcel_id": "73282", "address": "1123 N 6TH ST", "lat": "36.192029", "lon": "-86.760442", "sale_price": 367889.0, "sale_date": "15 Sep 2025", "market_value": 450300.0, "beds": 3.0, "bath": 2.0, "sqft": 1554.0, "year_built": "1960", "acres": 0.17}, {"parcel_id": "73534", "address": "710 DOUGLAS AVE", "lat": "36.193529", "lon": "-86.757609", "sale_price": 700922.0, "sale_date": "15 Sep 2025", "market_value": 735000.0, "beds": 4.0, "bath": 2.0, "sqft": 3400.0, "year_built": "1985", "acres": 0.24}, {"parcel_id": "96139", "address": "938 LOCKLAYER ST", "lat": "36.170318", "lon": "-86.793214", "sale_price": 775000.0, "sale_date": "17 Nov 2025", "market_value": 464400.0, "beds": 3.0, "bath": 2.0, "sqft": 1320.0, "year_built": "2004", "acres": 0.06}, {"parcel_id": "96142", "address": "935 LOCKLAYER ST", "lat": "36.169992", "lon": "-86.792883"}]}